大类,子类关键词,景点ID,名称,评分,评论数,区域,城市,地址,分类,等级,特色,标签,门票说明,是否免费,图片链接,详情链接,纬度,经度
知识科普型,博物馆,149630583,景德镇御窑博物院,5.0,1,人民广场/景德镇陶阳里历史文化旅游区,景德镇,景德镇 · 人民广场/景德镇陶阳里历史文化旅游区,,,,博物馆&展馆,,否,https://dimg04.c-ctrip.com/images/0103312000kkiikuv051D.png,https://you.ctrip.com/sight/jingdezhen405/149630583.html?scene=onlinesearch,29.304008,117.218383
知识科普型,博物馆,67868549,江西客家博物院,4.0,2,七鲤古镇/梅林古镇,赣州,赣州 · 七鲤古镇/梅林古镇,,,,"博物馆, 博物馆&展馆",,否,https://dimg04.c-ctrip.com/images/0106b12000b2hlxzjE5AD.jpg,https://you.ctrip.com/sight/ganzhou473/5593367.html?scene=onlinesearch,25.866889,115.035514
知识科普型,博物馆,86625,景德镇中国陶瓷博物馆,4.3,1208,古窑民俗博览区/中国陶瓷博物馆,景德镇,景德镇 · 古窑民俗博览区/中国陶瓷博物馆,江西亲子景点榜 No.4,,大型陶瓷专题艺术博物馆,"博物馆, 博物馆&展馆",免费,是,https://dimg04.c-ctrip.com/images/0105t120008132di5BA4D.jpg,https://you.ctrip.com/sight/jingdezhen405/61150.html?scene=onlinesearch,29.298886,117.182122
知识科普型,博物馆,88799,江西省博物馆(新馆),4.5,1407,红谷滩万达/秋水广场,南昌,南昌 · 红谷滩万达/秋水广场,江西亲子景点榜 No.7,,观赏江西古代青铜瓷器,"博物馆, 博物馆&展馆",免费,是,https://dimg04.c-ctrip.com/images/0101012000hyluy019DA5.jpg,https://you.ctrip.com/sight/nanchang175/71124.html?scene=onlinesearch,28.711774,115.888391
知识科普型,博物馆,111989165,南昌汉代海昏侯国遗址博物馆,4.6,432,,南昌,南昌,,,,"博物馆, 博物馆&展馆",,否,https://dimg04.c-ctrip.com/images/1lo6912000hyj8n4b7E43.jpg,https://you.ctrip.com/sight/nanchang175/111989165.html?scene=onlinesearch,29.036453,115.946287
知识科普型,博物馆,79437145,景德镇御窑博物馆,4.6,158,人民广场/景德镇陶阳里历史文化旅游区,景德镇,景德镇 · 人民广场/景德镇陶阳里历史文化旅游区,,,窑的造型，展现御窑厂的独特之处,"特色展馆, 博物馆&展馆",,否,https://dimg04.c-ctrip.com/images/0105k120009culpbc331D.jpg,https://you.ctrip.com/sight/jingdezhen405/5703493.html?scene=onlinesearch,29.301886,117.214116
知识科普型,博物馆,101208,渼陂古村,0.0,192,,吉安,吉安,,4A,,古镇古村,门票,否,https://dimg04.c-ctrip.com/images/0101x12000f6qkt0y1471.jpg,https://you.ctrip.com/sight/jian876/140568.html?scene=onlinesearch,26.945452,115.127317
知识科普型,博物馆,79956,井冈山革命博物馆,0.0,321,井冈山旅游区,井冈山,井冈山 · 井冈山旅游区,,,"地方性革命史类博物馆, 缅怀革命先烈","博物馆&展馆, 场馆展馆",,否,https://dimg04.c-ctrip.com/images/0101y12000ijffbxz8A62.jpg,https://you.ctrip.com/sight/jinggangshan171/17852.html?scene=onlinesearch,26.573406,114.172166
知识科普型,博物馆,88858,新干大洋洲商代青铜博物馆,4.1,44,,新干,新干,,,商代墓葬遗址，青铜器众多,"博物馆, 博物馆&展馆",免费预约,是,https://dimg04.c-ctrip.com/images/0100r120008x88d3f75D7.jpg,https://you.ctrip.com/sight/xingan2384/71343.html?scene=onlinesearch,27.92272,115.460592
知识科普型,博物馆,38953849,赣州市博物馆(新馆),4.5,31,赣州万象城/九方购物中心,赣州,赣州 · 赣州万象城/九方购物中心,,,展示赣州历史和客家文化,"博物馆, 博物馆&展馆",免费,是,https://dimg04.c-ctrip.com/images/0104h12000ivbus0jC9B2.jpg,https://you.ctrip.com/sight/ganzhou473/3138510.html?scene=onlinesearch,25.816657,114.925408
知识科普型,博物馆,38389774,吉安市博物馆,4.5,11,市政府/城南天虹购物中心,吉安,吉安 · 市政府/城南天虹购物中心,,,,"博物馆, 博物馆&展馆",免费,是,https://dimg04.c-ctrip.com/images/0100f12000f6sohkf8370.jpg,https://you.ctrip.com/sight/jian876/2579735.html?scene=onlinesearch,27.094392,114.96958
知识科普型,博物馆,93935376,中国戏曲博物馆,4.7,23,,抚州,抚州,,,,"博物馆, 博物馆&展馆",门票,否,https://dimg04.c-ctrip.com/images/0101i12000f6q8rlf289D.jpg,https://you.ctrip.com/sight/fuzhou875/5710875.html?scene=onlinesearch,28.002225,116.374319
知识科普型,博物馆,79437115,上饶市博物馆,4.6,14,万达广场,上饶,上饶 · 万达广场,,,,"博物馆, 博物馆&展馆",免费,是,https://dimg04.c-ctrip.com/images/0106q12000nxk8y7736E9.jpg,https://you.ctrip.com/sight/shangrao547/5703471.html?scene=onlinesearch,28.456208,117.953906
知识科普型,博物馆,145376758,福寿沟博物馆,3.0,1,江南宋城/步步高新天地,赣州,赣州 · 江南宋城/步步高新天地,,,,"博物馆, 博物馆&展馆",,否,https://dimg04.c-ctrip.com/images/0101l12000eye6lpwCFE2.jpg,https://you.ctrip.com/sight/ganzhou473/145376758.html?scene=onlinesearch,25.861443,114.958342
知识科普型,博物馆,38952367,中央革命根据地历史博物馆,0.0,7,,瑞金,瑞金,,,馆藏文物丰富,"博物馆&展馆, 场馆展馆",,否,https://dimg04.c-ctrip.com/images/0101o12000f6splps7DBC.jpg,https://you.ctrip.com/sight/ruijin1159/3137028.html?scene=onlinesearch,25.879531,116.020914
知识科普型,博物馆,101502,鹰潭博物馆,4.4,58,,鹰潭,鹰潭,,,,"博物馆, 博物馆&展馆",免费,是,https://dimg04.c-ctrip.com/images/0104c12000f6t5dsx36BB.jpg,https://you.ctrip.com/sight/yingtan186/140909.html?scene=onlinesearch,28.244342,117.056201
知识科普型,博物馆,82195,庐山博物馆,4.7,103,庐山山上,庐山,庐山 · 庐山山上,,,,"博物馆, 博物馆&展馆",,否,https://dimg04.c-ctrip.com/images/0106o12000a886tlh7820.jpg,https://you.ctrip.com/sight/lushan2390/44888.html?scene=onlinesearch,29.556433,115.984473
知识科普型,博物馆,38428208,萍乡博物馆,4.4,13,,萍乡,萍乡,,,,"博物馆, 博物馆&展馆",免费,是,https://dimg04.c-ctrip.com/images/0105912000f6u0wx81A0B.jpg,https://you.ctrip.com/sight/pingxiang714/2618069.html?scene=onlinesearch,27.646295,113.86633
知识科普型,博物馆,39048037,抚州市博物馆,4.5,25,,抚州,抚州,,,,"博物馆, 博物馆&展馆",免费,是,https://dimg04.c-ctrip.com/images/0105v12000aovju1o0B86.jpg,https://you.ctrip.com/sight/fuzhou875/3231898.html?scene=onlinesearch,27.962736,116.363655
知识科普型,博物馆,79618,婺源博物馆,4.2,91,婺女洲度假区,婺源,婺源 · 婺女洲度假区,,,了解婺源的文化历史风貌,"博物馆, 博物馆&展馆",免费,是,https://dimg04.c-ctrip.com/images/0103212000a884i046F22.jpg,https://you.ctrip.com/sight/wuyuan446/17432.html?scene=onlinesearch,29.282864,117.863622
知识科普型,博物馆,79176094,九江市博物馆,4.5,10,八里湖新区,九江,九江 · 八里湖新区,,,,"博物馆, 博物馆&展馆",免费,是,https://dimg04.c-ctrip.com/images/0104e12000aoiu4nqC71F.jpg,https://you.ctrip.com/sight/jiujiang877/5701380.html?scene=onlinesearch,29.696937,115.959738
知识科普型,博物馆,88788,宜春市博物馆,4.1,39,市政府地区,宜春,宜春 · 市政府地区,,,主要有陶瓷青铜器、铁器,"博物馆, 博物馆&展馆",免费,是,https://dimg04.c-ctrip.com/images/100510000000o2kxd58F0.jpg,https://you.ctrip.com/sight/yichun743/71093.html?scene=onlinesearch,27.821399,114.426595
知识科普型,博物馆,145589112,鄱阳湖博物馆,1.0,1,,鄱阳,鄱阳,,,,博物馆&展馆,,否,https://dimg04.c-ctrip.com/images/1me6t12000kwjtj05F20B.jpg,https://you.ctrip.com/sight/poyang2385/145589112.html?scene=onlinesearch,29.017429,116.680079
知识科普型,博物馆,86623,景德镇民窑博物馆,4.2,49,陶溪川文创街区/景德镇雕塑瓷厂,景德镇,景德镇 · 陶溪川文创街区/景德镇雕塑瓷厂,,,看珍贵古瓷，了解制瓷历史,"博物馆, 博物馆&展馆",免费,是,https://dimg04.c-ctrip.com/images/0103t12000f6qalsaB0EE.jpg,https://you.ctrip.com/sight/jingdezhen405/61148.html?scene=onlinesearch,29.289706,117.257982
知识科普型,博物馆,18235774,景德镇陶瓷民俗博物馆,4.4,28,古窑民俗博览区/中国陶瓷博物馆,景德镇,景德镇 · 古窑民俗博览区/中国陶瓷博物馆,,,古建筑园林式博物馆,"博物馆, 博物馆&展馆",,否,https://dimg04.c-ctrip.com/images/1A0g15000000xwllyE7AC.jpg,https://you.ctrip.com/sight/jingdezhen405/1512857.html?scene=onlinesearch,29.289296,117.190362
知识科普型,博物馆,51917501,九江租界博物馆,4.6,43,浔阳楼/大中路步行街,九江,九江 · 浔阳楼/大中路步行街,,,,"博物馆, 博物馆&展馆",,否,https://dimg04.c-ctrip.com/images/0102u120009z06q8g80CC.jpg,https://you.ctrip.com/sight/jiujiang877/4628452.html?scene=onlinesearch,29.729323,115.987873
知识科普型,博物馆,18228344,高安市博物馆,4.7,76,,高安,高安,,,欣赏精美的瓷器窖藏,"博物馆, 博物馆&展馆",免费,是,https://dimg04.c-ctrip.com/images/01074120008wci08j9105.jpg,https://you.ctrip.com/sight/gaoan1165/1512544.html?scene=onlinesearch,28.446694,115.396149
知识科普型,博物馆,93529,瑶里博物馆,4.7,17,瑶里古镇度假区,浮梁,浮梁 · 瑶里古镇度假区,,,,"博物馆, 博物馆&展馆",,否,https://dimg04.c-ctrip.com/images/0101d12000coemyuoDB91.jpg,https://you.ctrip.com/sight/fuliang2420/127487.html?scene=onlinesearch,29.551419,117.5883
知识科普型,博物馆,79437126,皇窑博物馆,0.0,0,,浮梁,浮梁,,,,"特色展馆, 博物馆",免费,是,https://dimg04.c-ctrip.com/images/01023120008jbnvxgE694.jpg,https://you.ctrip.com/sight/fuliang2420/5703501.html?scene=onlinesearch,29.329572,117.308463
知识科普型,博物馆,18166914,南昌县博物馆,4.7,85,南昌县城区,南昌县,南昌县 · 南昌县城区,,,看文物了解南昌县历史变革,"博物馆, 博物馆&展馆",免费,是,https://dimg04.c-ctrip.com/images/0103t12000aovm2h7F002.jpg,https://you.ctrip.com/sight/nanchangcounty2429/1510549.html?scene=onlinesearch,28.564187,115.937455
知识科普型,博物馆,24651010,瑞金市客家文化民俗艺术博物馆,2.8,23,,瑞金,瑞金,,,,"博物馆, 博物馆&展馆",,否,https://dimg04.c-ctrip.com/images/10050z000000njbk1C9A3.jpg,https://you.ctrip.com/sight/ruijin1159/1831901.html?scene=onlinesearch,25.882019,116.036751
知识科普型,博物馆,90210,樟树市博物馆,4.3,34,,樟树,樟树,,,看珍贵藏品，了解樟树文化,"博物馆, 博物馆&展馆",免费,是,https://dimg04.c-ctrip.com/images/0101d12000f6serxw81D2.jpg,https://you.ctrip.com/sight/zhangshu1160/79962.html?scene=onlinesearch,28.06544,115.556779
知识科普型,博物馆,22893602,庐山抗战博物馆,0.0,24,庐山山上,庐山,庐山 · 庐山山上,,,,"博物馆, 博物馆&展馆",,否,https://dimg04.c-ctrip.com/images/0103d12000b73izlo47EE.jpg,https://you.ctrip.com/sight/lushan2390/1731606.html?scene=onlinesearch,29.564888,115.982729
知识科普型,博物馆,143740479,三清山地质博物馆,5.0,1,,玉山,玉山,,,,"博物馆, 博物馆&展馆",,否,https://dimg04.c-ctrip.com/images/1me3g12000jseus3tA98D.jpg,https://you.ctrip.com/sight/yushan1013/143740479.html?scene=onlinesearch,28.902202,118.132579
知识科普型,博物馆,145637801,景德镇十大瓷厂陶瓷博物馆,4.0,1,人民广场/景德镇陶阳里历史文化旅游区,景德镇,景德镇 · 人民广场/景德镇陶阳里历史文化旅游区,,,,博物馆&展馆,,否,https://dimg04.c-ctrip.com/images/1me1612000ds7zl19C439.jpg,https://you.ctrip.com/sight/jingdezhen405/145637801.html?scene=onlinesearch,29.303878,117.213058
知识科普型,博物馆,39523315,上饶市信州区博物馆,4.2,6,步行街/万力时代,上饶,上饶 · 步行街/万力时代,,,,"博物馆, 博物馆&展馆",,否,https://dimg04.c-ctrip.com/images/0105512000ba002wy7310.jpg,https://you.ctrip.com/sight/shangrao547/3702776.html?scene=onlinesearch,28.446267,117.974761
知识科普型,博物馆,79437136,景德镇玉瓷博物馆,4.0,1,人民广场/景德镇陶阳里历史文化旅游区,景德镇,景德镇 · 人民广场/景德镇陶阳里历史文化旅游区,,,,"博物馆, 博物馆&展馆",免费,是,https://dimg04.c-ctrip.com/images/01A0u120009ftyfe58709.jpg,https://you.ctrip.com/sight/jingdezhen405/5703484.html?scene=onlinesearch,29.29209,117.225047
知识科普型,博物馆,144898040,景德镇陶溪川青白瓷博物馆,5.0,2,陶溪川文创街区/景德镇雕塑瓷厂,景德镇,景德镇 · 陶溪川文创街区/景德镇雕塑瓷厂,,,,博物馆&展馆,免费,是,https://dimg04.c-ctrip.com/images/0100212000gxhtk1zAD03.png,https://you.ctrip.com/sight/jingdezhen405/144898040.html?scene=onlinesearch,29.300525,117.246302
知识科普型,博物馆,79437102,江西省地质博物馆,0.0,0,八一广场/王府井,南昌,南昌 · 八一广场/王府井,,,,"博物馆, 博物馆&展馆",免费,是,https://dimg04.c-ctrip.com/images/010661200095c4b1n57A6.jpg,https://you.ctrip.com/sight/nanchang175/5703480.html?scene=onlinesearch,28.668902,115.917974
知识科普型,博物馆,18166918,南昌瓷板画艺术博物馆,4.9,35,万象城/前湖大学城,南昌,南昌 · 万象城/前湖大学城,,,,"特色展馆, 博物馆",免费,是,https://dimg04.c-ctrip.com/images/0104m1200060864fn4883.jpg,https://you.ctrip.com/sight/nanchang175/1510661.html?scene=onlinesearch,28.643226,115.830937
知识科普型,博物馆,133527758,米粉博物馆,4.0,3,滕王阁/万寿宫,南昌,南昌 · 滕王阁/万寿宫,,,,"博物馆, 博物馆&展馆",,否,https://dimg04.c-ctrip.com/images/0103w12000atujjog264D.jpg,https://you.ctrip.com/sight/nanchang175/57127126.html?scene=onlinesearch,28.675096,115.901847
知识科普型,博物馆,51604924,新余市博物馆,5.0,1,,新余,新余,,,,"博物馆, 博物馆&展馆",免费,是,https://dimg04.c-ctrip.com/images/0105m12000d2njfgr2490.jpg,https://you.ctrip.com/sight/xinyu878/4579310.html?scene=onlinesearch,27.8243,114.935
知识科普型,博物馆,79436471,吉州窑遗址博物馆,4.0,2,,吉安县,吉安县,,,,"博物馆, 博物馆&展馆",免费,是,https://dimg04.c-ctrip.com/images/0105t120009expif71294.jpg,https://you.ctrip.com/sight/jiancounty2392/5702856.html?scene=onlinesearch,27.041661,114.919705
知识科普型,博物馆,143756801,景德镇官窑艺术博物馆,0.0,0,,浮梁,浮梁,,,,"特色展馆, 博物馆&展馆",,否,https://dimg04.c-ctrip.com/images/0HJ3712000g8ly9b3570B.jpg,https://you.ctrip.com/sight/fuliang2420/143756801.html?scene=onlinesearch,29.323574,117.137572
知识科普型,博物馆,145273156,共青城市博物馆,5.0,1,,共青城,共青城,,,,博物馆&展馆,,否,https://dimg04.c-ctrip.com/images/1mh1n12000hlsc4xmCE9D.jpg,https://you.ctrip.com/sight/gongqingcheng143853/145273156.html?scene=onlinesearch,29.221955,115.836328
知识科普型,博物馆,79437118,鄱阳县博物馆,4.0,1,,鄱阳,鄱阳,,,,"博物馆, 博物馆&展馆",免费,是,https://dimg04.c-ctrip.com/images/0100p120008wvuow30F50.jpg,https://you.ctrip.com/sight/poyang2385/5703474.html?scene=onlinesearch,28.99675,116.680561
知识科普型,博物馆,18235747,自然博物馆,4.5,11,,宜春,宜春,,,,"科技馆, 博物馆&展馆",免费,是,https://dimg04.c-ctrip.com/images/0103m12000b1fufiw3B1E.jpg,https://you.ctrip.com/sight/yichun743/1512749.html?scene=onlinesearch,27.814181,114.37892
知识科普型,博物馆,38670163,乐平中国古戏台博物馆,0.0,0,,乐平,乐平,,,,"博物馆, 博物馆&展馆",,否,https://dimg04.c-ctrip.com/images/010011200083pvlbzE7CB.jpg,https://you.ctrip.com/sight/leping2417/2857624.html?scene=onlinesearch,28.98182,117.159892
知识科普型,博物馆,39523253,德安博物馆,4.6,7,,德安,德安,,,,"博物馆, 博物馆&展馆",免费,是,https://dimg04.c-ctrip.com/images/0103p12000avbuhll16D3.jpg,https://you.ctrip.com/sight/dean2398/3702714.html?scene=onlinesearch,29.353223,115.769059
知识科普型,博物馆,79438467,新余赣西抗战博物馆,0.0,12,,新余,新余,,,,博物馆&展馆,免费,是,https://dimg04.c-ctrip.com/images/0102k12000c2vh0od70C9.jpg,https://you.ctrip.com/sight/xinyu878/5704822.html?scene=onlinesearch,27.807113,114.93411
知识科普型,博物馆,145122433,世界台球博物馆,4.0,1,,玉山,玉山,,,,博物馆&展馆,,否,https://dimg04.c-ctrip.com/images/0HJ0s12000g37d1aq765A.jpg,https://you.ctrip.com/sight/yushan1013/145122433.html?scene=onlinesearch,28.687105,118.271768
知识科普型,博物馆,51962923,中国毛笔文化博物馆,5.0,1,,进贤,进贤,,,,"博物馆, 博物馆&展馆",,否,https://dimg04.c-ctrip.com/images/0102q120008mshegsE3E3.jpg,https://you.ctrip.com/sight/jinxian2402/4633423.html?scene=onlinesearch,28.293223,116.136165
知识科普型,博物馆,51930641,庐山石刻博物馆,4.5,2,庐山山上,庐山,庐山 · 庐山山上,,,参观岩石及十八罗汉水彩画,"博物馆, 博物馆&展馆",免费,是,https://dimg04.c-ctrip.com/images/0103i12000boohrnk5E1F.jpg,https://you.ctrip.com/sight/lushan2390/4628575.html?scene=onlinesearch,29.567748,115.987629
知识科普型,博物馆,145411592,官家御窑博物馆研究所,0.0,0,,景德镇,景德镇,,,,博物馆&展馆,,否,https://dimg04.c-ctrip.com/images/0HJ0g12000g8vtlv66468.jpg,https://you.ctrip.com/sight/jingdezhen405/145411592.html?scene=onlinesearch,29.261785,117.155001
知识科普型,博物馆,38390747,宁都县博物馆,4.0,2,,宁都,宁都,,,,"博物馆, 博物馆&展馆",,否,https://dimg04.c-ctrip.com/images/0101u12000avbwea5E665.jpg,https://you.ctrip.com/sight/ningdu2379/2580708.html?scene=onlinesearch,26.479771,116.030049
知识科普型,博物馆,38979371,夏布绣博物馆,0.0,0,,新余,新余,,,,"博物馆, 博物馆&展馆",,否,https://dimg04.c-ctrip.com/images/0103012000btoutayF2BA.jpg,https://you.ctrip.com/sight/xinyu878/3163732.html?scene=onlinesearch,27.829132,114.910596
知识科普型,博物馆,111989513,湖口县博物馆,4.0,2,,湖口,湖口,,,,"博物馆, 博物馆&展馆",,否,https://dimg04.c-ctrip.com/images/0104n120009yv96knBF92.jpg,https://you.ctrip.com/sight/hukou2386/111989513.html?scene=onlinesearch,29.736626,116.256837
知识科普型,博物馆,39486682,信丰县博物馆,4.5,2,,信丰,信丰,,,,"博物馆, 博物馆&展馆",免费,是,https://dimg04.c-ctrip.com/images/0100t12000c2bd3qh8263.jpg,https://you.ctrip.com/sight/xinfeng2380/3666543.html?scene=onlinesearch,25.389907,114.940225
知识科普型,博物馆,148790933,江西省博物馆 4号展厅,0.0,0,红谷滩万达/秋水广场,南昌,南昌 · 红谷滩万达/秋水广场,,,,,,否,https://dimg04.c-ctrip.com/images/1me2o12000hgblldzCE01.jpg,https://you.ctrip.com/sight/nanchang175/148790933.html?scene=onlinesearch,28.71176,115.888402
知识科普型,博物馆,145695156,武功山地质博物馆,0.0,0,,芦溪,芦溪,,,,博物馆&展馆,,否,https://dimg04.c-ctrip.com/images/0HJ5o12000g2ytlzl9B26.jpg,https://you.ctrip.com/sight/luxi1445977/145695156.html?scene=onlinesearch,27.495444,114.13572
知识科普型,博物馆,145320959,瑞金市博物馆,0.0,0,,瑞金,瑞金,,,,博物馆&展馆,,否,https://dimg04.c-ctrip.com/images/0HJ5a12000g8zm02b7AEF.jpg,https://you.ctrip.com/sight/ruijin1159/145320959.html?scene=onlinesearch,25.899201,116.05674
知识科普型,博物馆,23939998,瑞昌市博物馆,4.3,17,,瑞昌,瑞昌,,,,"博物馆, 博物馆&展馆",,否,https://dimg04.c-ctrip.com/images/0100l12000axdk6m48F6F.jpg,https://you.ctrip.com/sight/ruichang2397/1790086.html?scene=onlinesearch,29.691465,115.671849
知识科普型,博物馆,38426982,弋阳博物馆,0.0,0,,弋阳,弋阳,,,,"博物馆, 博物馆&展馆",免费,是,https://dimg04.c-ctrip.com/images/0100b1200097mfym5074B.jpg,https://you.ctrip.com/sight/yiyang2406/2616843.html?scene=onlinesearch,28.406017,117.445164
知识科普型,博物馆,79437143,华南博物馆,0.0,0,,南昌,南昌,,,,"博物馆, 博物馆&展馆",免费,是,https://dimg04.c-ctrip.com/images/0103412000a00a6sv5CFD.jpg,https://you.ctrip.com/sight/nanchang175/5703491.html?scene=onlinesearch,28.613717,115.921274
知识科普型,博物馆,145053905,景德镇外销瓷博物馆,1.0,1,,景德镇,景德镇,,,,博物馆&展馆,免费,是,https://dimg04.c-ctrip.com/images/0102w12000dhz0ask5F42.jpg,https://you.ctrip.com/sight/jingdezhen405/145053905.html?scene=onlinesearch,29.257009,117.094866
知识科普型,博物馆,105934519,龙虎山博物馆,3.0,1,,贵溪,贵溪,,,,"博物馆, 博物馆&展馆",,否,https://dimg04.c-ctrip.com/images/0102s120008bwd7ks6208.jpg,https://you.ctrip.com/sight/guixi1189/105934519.html?scene=onlinesearch,28.090265,117.000552
知识科普型,博物馆,79437109,广昌县博物馆,4.5,2,,广昌,广昌,,,,"博物馆, 博物馆&展馆",免费,是,https://dimg04.c-ctrip.com/images/1me6r12000el3d9n50B29.jpg,https://you.ctrip.com/sight/guangchang2434/5703466.html?scene=onlinesearch,26.843895,116.330914
知识科普型,博物馆,18235835,景德镇厚森青花瓷博物馆,5.0,4,人民广场/景德镇陶阳里历史文化旅游区,景德镇,景德镇 · 人民广场/景德镇陶阳里历史文化旅游区,,,,"博物馆, 博物馆&展馆",免费,是,https://dimg04.c-ctrip.com/images/0101r12000btsz4yn727B.jpg,https://you.ctrip.com/sight/jingdezhen405/1512873.html?scene=onlinesearch,29.316685,117.218567
知识科普型,博物馆,39523321,玉山博物馆,0.0,0,,玉山,玉山,,,,"博物馆, 博物馆&展馆",免费,是,https://dimg04.c-ctrip.com/images/1me5k12000jakohafEBCA.jpg,https://you.ctrip.com/sight/yushan1013/3702782.html?scene=onlinesearch,28.686631,118.254261
知识科普型,博物馆,145484723,中国药都中医药博物馆,0.0,0,,樟树,樟树,,,,博物馆&展馆,,否,https://dimg04.c-ctrip.com/images/0HJ2012000g90kombC71B.jpg,https://you.ctrip.com/sight/zhangshu1160/145484723.html?scene=onlinesearch,27.980274,115.578794
知识科普型,博物馆,79437104,进贤县博物馆,4.5,2,,进贤,进贤,,,,"博物馆, 博物馆&展馆",免费,是,https://dimg04.c-ctrip.com/images/0103h12000b6l4mvx5DB4.jpg,https://you.ctrip.com/sight/jinxian2402/5703460.html?scene=onlinesearch,28.384714,116.271559
知识科普型,博物馆,18228371,洪州窑博物馆,4.2,33,,丰城,丰城,,,观赏明清彩瓷和洪州窑青瓷,"博物馆, 博物馆&展馆",免费,是,https://dimg04.c-ctrip.com/images/0105u12000b5rh0g1F97D.jpg,https://you.ctrip.com/sight/fengcheng1839/1512606.html?scene=onlinesearch,28.15805,115.756375
知识科普型,博物馆,38427025,余干县博物馆,4.7,3,,余干,余干,,,,"博物馆, 博物馆&展馆",,否,https://dimg04.c-ctrip.com/images/1A01180000014gd4q147C.webp,https://you.ctrip.com/sight/yugan2423/2616886.html?scene=onlinesearch,28.697099,116.696205
知识科普型,博物馆,18228366,上高县博物馆,4.5,45,,上高,上高,,,文物众多，再现上高历史,"博物馆, 博物馆&展馆",,否,https://dimg04.c-ctrip.com/images/0100612000a5z30qzB37F.jpg,https://you.ctrip.com/sight/shanggao2400/1512560.html?scene=onlinesearch,28.236797,114.95208
知识科普型,博物馆,38389975,泰和县博物馆,3.0,1,,泰和,泰和,,,,"博物馆, 博物馆&展馆",免费,是,https://dimg04.c-ctrip.com/images/0101z1200096vic2cB698.png,https://you.ctrip.com/sight/taihe2422/2579936.html?scene=onlinesearch,26.795594,114.909779
知识科普型,博物馆,24653632,武宁县博物馆,4.0,12,,武宁,武宁,,,,"博物馆, 博物馆&展馆",,否,https://dimg04.c-ctrip.com/images/0107212000ax926m2CECC.jpg,https://you.ctrip.com/sight/wuning2432/1834423.html?scene=onlinesearch,29.254018,115.102878
知识科普型,博物馆,18235823,浮梁县博物馆,4.6,15,浮梁城区,浮梁,浮梁 · 浮梁城区,,,,"博物馆, 博物馆&展馆",免费,是,https://dimg04.c-ctrip.com/images/0105n12000au7alen1B80.jpg,https://you.ctrip.com/sight/fuliang2420/1512865.html?scene=onlinesearch,29.357769,117.22424
知识科普型,博物馆,90498996,崇义县博物馆,0.0,0,,崇义,崇义,,,,"博物馆, 博物馆&展馆",免费,是,https://dimg04.c-ctrip.com/images/01A2w120008ryxhk5FC28.jpg,https://you.ctrip.com/sight/chongyi2391/90498996.html?scene=onlinesearch,25.675985,114.318866
知识科普型,博物馆,145592659,田心围博物馆,0.0,0,,龙南,龙南,,,,博物馆&展馆,,否,https://dimg04.c-ctrip.com/images/0HJ4b12000g64lw8947E3.jpg,https://you.ctrip.com/sight/longnan2424/145592659.html?scene=onlinesearch,24.643313,114.772123
知识科普型,博物馆,38390621,石城博物馆,4.0,1,,石城,石城,,,,"博物馆, 博物馆&展馆",,否,https://dimg04.c-ctrip.com/images/0105d12000967lqg8CC0F.png,https://you.ctrip.com/sight/shicheng2415/2580582.html?scene=onlinesearch,26.342172,116.355286
知识科普型,博物馆,79437095,彭泽县博物馆,4.5,2,,彭泽,彭泽,,,,"博物馆, 博物馆&展馆",免费,是,https://dimg04.c-ctrip.com/images/0105g12000do6jw4cF54E.jpg,https://you.ctrip.com/sight/pengze2383/5703454.html?scene=onlinesearch,29.881863,116.573304
知识科普型,博物馆,18228352,靖安县博物馆,4.0,5,,靖安,靖安,,,,"博物馆, 博物馆&展馆",免费,是,https://dimg04.c-ctrip.com/images/0105k12000b6k4s5hF5A3.jpg,https://you.ctrip.com/sight/jingan2396/1512587.html?scene=onlinesearch,28.894104,115.306124
知识科普型,博物馆,51866273,德兴市博物馆(江西矿冶博物馆),0.0,0,,德兴,德兴,,,,"博物馆, 博物馆&展馆",,否,https://dimg04.c-ctrip.com/images/010301200097r9w4s250C.jpg,https://you.ctrip.com/sight/dexing1558/4619898.html?scene=onlinesearch,28.910432,117.599826
知识科普型,博物馆,130368155,靖安县三爪仑知青博物馆,5.0,1,,靖安,靖安,,,,"博物馆, 博物馆&展馆",,否,https://dimg04.c-ctrip.com/images/0105o12000btoov61E7AF.jpg,https://you.ctrip.com/sight/jingan2396/130368155.html?scene=onlinesearch,29.060477,115.23484
知识科普型,博物馆,86617,龙珠阁,4.4,100,人民广场/景德镇陶阳里历史文化旅游区,景德镇,景德镇 · 人民广场/景德镇陶阳里历史文化旅游区,,,仿明重檐宫廷建筑,"历史建筑, 博物馆&展馆",,否,https://dimg04.c-ctrip.com/images/10081f000001gqid1E7AD.jpg,https://you.ctrip.com/sight/jingdezhen405/61142.html?scene=onlinesearch,29.301879,117.212831
知识科普型,博物馆,96904,怪石林,4.8,142,,乐平,乐平,,4A,以五怪闻名的石林,"清凉漂流, 自然山水",门票,否,https://dimg04.c-ctrip.com/images/100a0q000000ge9sb9727.jpg,https://you.ctrip.com/sight/leping2417/135135.html?scene=onlinesearch,28.738988,117.278083
知识科普型,博物馆,145501433,赣南客家文化博物馆,0.0,0,江南宋城/步步高新天地,赣州,赣州 · 江南宋城/步步高新天地,,,,博物馆&展馆,,否,https://dimg04.c-ctrip.com/images/1me0412000gusjw3bFC8D.jpg,https://you.ctrip.com/sight/ganzhou473/145501433.html?scene=onlinesearch,25.861929,114.959015
知识科普型,博物馆,79437106,永修县博物馆,4.0,1,,永修,永修,,,,"博物馆, 博物馆&展馆",免费,是,https://dimg04.c-ctrip.com/images/0HJ4712000g64z0r0FCC1.jpg,https://you.ctrip.com/sight/yongxiu1848/5703462.html?scene=onlinesearch,29.020432,115.812819
知识科普型,博物馆,38387392,南城县博物馆,4.5,4,,南城,南城,,,,"博物馆, 博物馆&展馆",,否,https://dimg04.c-ctrip.com/images/0102u12000b75y7sk8306.jpg,https://you.ctrip.com/sight/nancheng2431/2577353.html?scene=onlinesearch,27.570565,116.644798
知识科普型,博物馆,145312738,钱学森航天博物馆,0.0,0,,共青城,共青城,,,,博物馆&展馆,,否,https://dimg04.c-ctrip.com/images/0HJ2p12000g6o157c3D5E.jpg,https://you.ctrip.com/sight/gongqingcheng143853/145312738.html?scene=onlinesearch,29.213281,115.839933
知识科普型,博物馆,121152046,九江市森林博物馆,0.0,0,,九江,九江,,,,"博物馆, 博物馆&展馆",,否,https://dimg04.c-ctrip.com/images/01A1y120009x8dlixF03D.jpg,https://you.ctrip.com/sight/jiujiang877/121152046.html?scene=onlinesearch,29.657076,116.028591
知识科普型,博物馆,38390090,安福县博物馆,4.5,6,,安福,安福,,,,"博物馆, 博物馆&展馆",,否,https://dimg04.c-ctrip.com/images/0106d12000o72agra3DF6.png,https://you.ctrip.com/sight/anfu2376/2580051.html?scene=onlinesearch,27.401539,114.6066
知识科普型,博物馆,149630727,瑞昌市铜岭铜矿遗址博物馆,0.0,0,,瑞昌,瑞昌,,,,博物馆&展馆,,否,https://dimg04.c-ctrip.com/images/0106s12000hlrxd3eC086.jpg,https://you.ctrip.com/sight/ruichang2397/149630727.html?scene=onlinesearch,29.761318,115.565182
知识科普型,博物馆,51865084,广信区杨惟义纪念馆-昆虫博物馆,0.0,0,经济开发区/吾悦广场,上饶,上饶 · 经济开发区/吾悦广场,,,,博物馆&展馆,,否,https://dimg04.c-ctrip.com/images/0106p12000ckp4ssq8471.png,https://you.ctrip.com/sight/shangrao547/4619819.html?scene=onlinesearch,28.434173,117.932644
知识科普型,博物馆,38390029,遂川县博物馆,0.0,0,,遂川,遂川,,,,"博物馆, 博物馆&展馆",,否,https://dimg04.c-ctrip.com/images/0102j12000csl2okp98DE.jpg,https://you.ctrip.com/sight/suichuan2418/2579990.html?scene=onlinesearch,26.32882,114.520134
知识科普型,博物馆,38390048,万安博物馆,0.0,0,,万安,万安,,,,"博物馆, 博物馆&展馆",免费,是,https://dimg04.c-ctrip.com/images/01002120008wbt3042789.png,https://you.ctrip.com/sight/wanan143850/2580009.html?scene=onlinesearch,26.473534,114.786495
知识科普型,博物馆,145251998,分宜麻博物馆,0.0,0,,分宜,分宜,,,,博物馆&展馆,,否,https://dimg04.c-ctrip.com/images/1me3r12000gj9q35iDC4E.jpg,https://you.ctrip.com/sight/fenyi2416/145251998.html?scene=onlinesearch,27.821483,114.709621
知识科普型,博物馆,51711247,新干县森林湿地博物馆,4.0,1,,新干,新干,,,,"博物馆, 博物馆&展馆",,否,https://dimg04.c-ctrip.com/images/0105v12000cpf5h4y14CA.jpg,https://you.ctrip.com/sight/xingan2384/4596178.html?scene=onlinesearch,27.753658,115.41604
知识科普型,博物馆,102563028,奇思妙想减压博物馆,3.0,2,滕王阁/万寿宫,南昌,南昌 · 滕王阁/万寿宫,,,,"特色展馆, 博物馆&展馆",门票,否,https://dimg04.c-ctrip.com/images/0104q120008osxaxhBB1F.png,https://you.ctrip.com/sight/nanchang175/102563028.html?scene=onlinesearch,28.687023,115.893944
知识科普型,博物馆,51655384,井冈山民俗博物馆,0.0,0,市区/井冈山站,井冈山,井冈山 · 市区/井冈山站,,,,博物馆&展馆,,否,https://dimg04.c-ctrip.com/images/0HJ2g12000g64a0oq3F6C.jpg,https://you.ctrip.com/sight/jinggangshan171/4588085.html?scene=onlinesearch,26.757662,114.294484
知识科普型,博物馆,79438468,舒同博物馆,0.0,0,,抚州,抚州,,,,"博物馆, 博物馆&展馆",免费,是,https://dimg04.c-ctrip.com/images/0102j12000dh98as9CFB4.jpg,https://you.ctrip.com/sight/fuzhou875/5704823.html?scene=onlinesearch,28.23721,116.60946
知识科普型,博物馆,105418366,吉水县博物馆,3.5,4,,吉水,吉水,,,,"博物馆, 博物馆&展馆",免费,是,https://dimg04.c-ctrip.com/images/0100w12000dbm66y5BAD9.jpg,https://you.ctrip.com/sight/jishui143849/105418366.html?scene=onlinesearch,27.207807,115.146361
知识科普型,博物馆,79437122,分宜县博物馆,5.0,8,,分宜,分宜,,,,"博物馆, 博物馆&展馆",免费,是,https://dimg04.c-ctrip.com/images/1me3o12000bscfa9f2BF4.jpg,https://you.ctrip.com/sight/fenyi2416/5703478.html?scene=onlinesearch,27.825783,114.695859
知识科普型,博物馆,51848854,世界钨都博物馆,0.0,0,,大余,大余,,,,"博物馆, 博物馆&展馆",,否,https://dimg04.c-ctrip.com/images/0103h12000cesa4a27EF4.jpg,https://you.ctrip.com/sight/dayu2395/4618450.html?scene=onlinesearch,25.444901,114.407957
知识科普型,博物馆,136171264,修水县博物馆,4.0,2,,修水,修水,,,,"博物馆, 博物馆&展馆",免费,是,https://dimg04.c-ctrip.com/images/0101612000d88mjl29164.jpg,https://you.ctrip.com/sight/xiushui2399/136171264.html?scene=onlinesearch,29.007518,114.540884
知识科普型,博物馆,51593893,地质博物馆,0.0,0,,上栗,上栗,,,,"博物馆, 博物馆&展馆",,否,https://dimg04.c-ctrip.com/images/1me3412000efgadiuDFCB.jpg,https://you.ctrip.com/sight/shangli2403/4580242.html?scene=onlinesearch,27.755832,113.856032
知识科普型,博物馆,143750688,吉州窑博物馆,0.0,0,,吉安县,吉安县,,,,"博物馆, 博物馆&展馆",,否,https://dimg04.c-ctrip.com/images/0HJ6n12000g2s1q3a4388.jpg,https://you.ctrip.com/sight/jiancounty2392/143750688.html?scene=onlinesearch,27.032628,115.027187
知识科普型,博物馆,145571906,中国进士博物馆,0.0,0,,吉水,吉水,,,,博物馆&展馆,,否,https://dimg04.c-ctrip.com/images/1me5912000eakmhwr2734.jpg,https://you.ctrip.com/sight/jishui143849/145571906.html?scene=onlinesearch,27.208,115.134406
知识科普型,博物馆,105147295,曾品堂老酒博物馆,4.3,12,,南昌,南昌,,,,"特色展馆, 博物馆",门市价,否,https://dimg04.c-ctrip.com/images/01039120008akrjo4E5C3.jpg,https://you.ctrip.com/sight/nanchang175/105147295.html?scene=onlinesearch,28.645508,115.780528
知识科普型,博物馆,51959678,灌城民国陶瓷艺术博物馆,0.0,0,滕王阁/万寿宫,南昌,南昌 · 滕王阁/万寿宫,,,,"特色展馆, 博物馆&展馆",,否,https://dimg04.c-ctrip.com/images/0106p12000a4ktafoFFEF.png,https://you.ctrip.com/sight/nanchang175/4633642.html?scene=onlinesearch,28.68781,115.888599
知识科普型,博物馆,38388989,赣州市南康区博物馆,0.0,0,南康家具城商圈,赣州,赣州 · 南康家具城商圈,,,,"博物馆, 博物馆&展馆",,否,https://dimg04.c-ctrip.com/images/0104t120009vnhcj2F6FD.jpg,https://you.ctrip.com/sight/ganzhou473/2578950.html?scene=onlinesearch,25.66596,114.763748
知识科普型,博物馆,18163786,新建区博物馆,5.0,11,新建中心区,南昌,南昌 · 新建中心区,,,,"博物馆, 博物馆&展馆",免费,是,https://dimg04.c-ctrip.com/images/0101u12000jvbnoafC57E.png,https://you.ctrip.com/sight/nanchang175/1510524.html?scene=onlinesearch,28.688838,115.832786
知识科普型,博物馆,130843779,古床文化博物馆,5.0,2,,黎川,黎川,,,,"博物馆, 博物馆&展馆",门票,否,https://dimg04.c-ctrip.com/images/0105v120008ymwyhs24FF.jpg,https://you.ctrip.com/sight/lichuan2421/5717657.html?scene=onlinesearch,27.291771,116.925767
知识科普型,博物馆,38391889,九江市民俗博物馆,2.3,3,,九江,九江,,,,"博物馆, 博物馆&展馆",免费,是,https://dimg04.c-ctrip.com/images/0103a12000a0bd6kg8459.jpg,https://you.ctrip.com/sight/jiujiang877/2581850.html?scene=onlinesearch,29.752675,116.044958
知识科普型,博物馆,145512121,中华苏维埃共和国中央革命博物馆旧址,0.0,0,,瑞金,瑞金,,,,博物馆&展馆,,否,https://dimg04.c-ctrip.com/images/0HJ5612000g358tzf4515.jpg,https://you.ctrip.com/sight/ruijin1159/145512121.html?scene=onlinesearch,25.88888,116.004286
知识科普型,博物馆,38390692,会昌县博物馆,5.0,1,,会昌,会昌,,,,"博物馆, 博物馆&展馆",,否,https://dimg04.c-ctrip.com/images/0102l12000cshktd5DE89.jpg,https://you.ctrip.com/sight/huichang143830/2580653.html?scene=onlinesearch,25.617936,115.806233
知识科普型,博物馆,79437112,江西贵溪市博物馆,4.0,1,,贵溪,贵溪,,,,"博物馆, 博物馆&展馆",免费,是,https://dimg04.c-ctrip.com/images/0102l12000ccqkgu910F4.jpg,https://you.ctrip.com/sight/guixi1189/5703469.html?scene=onlinesearch,28.290721,117.225294
知识科普型,博物馆,145189406,中国地质博物馆(赣州分馆),0.0,0,,上犹,上犹,,,,博物馆&展馆,,否,https://dimg04.c-ctrip.com/images/0HJ3012000g8o0qizF2A8.jpg,https://you.ctrip.com/sight/shangyou2411/145189406.html?scene=onlinesearch,25.857163,114.463729
知识科普型,博物馆,79438460,南康民间道教博物馆,4.0,2,南康家具城商圈,赣州,赣州 · 南康家具城商圈,,,,"博物馆, 博物馆&展馆",免费,是,https://dimg04.c-ctrip.com/images/01045120009hfocsiEBA3.jpg,https://you.ctrip.com/sight/ganzhou473/5704797.html?scene=onlinesearch,25.651218,114.757154
知识科普型,博物馆,145381459,景德镇当代陶瓷博物馆,0.0,0,三宝国际陶艺村,景德镇,景德镇 · 三宝国际陶艺村,,,,博物馆&展馆,,否,https://dimg04.c-ctrip.com/images/0HJ2912000g6mxuyl4F19.jpg,https://you.ctrip.com/sight/jingdezhen405/145381459.html?scene=onlinesearch,29.280826,117.26498
知识科普型,博物馆,79437098,南丰县博物馆,0.0,0,,南丰,南丰,,,,"博物馆, 博物馆&展馆",免费,是,https://dimg04.c-ctrip.com/images/0HJ0o12000g6nw5as545A.jpg,https://you.ctrip.com/sight/nanfeng2435/5703456.html?scene=onlinesearch,27.205854,116.542553
知识科普型,博物馆,38389899,新干县博物馆,4.0,1,,新干,新干,,,,"博物馆, 博物馆&展馆",免费,是,https://dimg04.c-ctrip.com/images/0103t120009780lty58F3.png,https://you.ctrip.com/sight/xingan2384/2579860.html?scene=onlinesearch,27.744298,115.395418
知识科普型,博物馆,143756874,万载县博物馆,0.0,0,,万载,万载,,,,"博物馆, 博物馆&展馆",,否,https://dimg04.c-ctrip.com/images/0HJ3612000g34k8i57674.jpg,https://you.ctrip.com/sight/wanzai2430/143756874.html?scene=onlinesearch,28.103985,114.459581
知识科普型,博物馆,38391213,大余博物馆,3.5,2,,大余,大余,,,,"博物馆, 博物馆&展馆",免费,是,https://dimg04.c-ctrip.com/images/0HJ6w12000g8yhezt9157.jpg,https://you.ctrip.com/sight/dayu2395/2581174.html?scene=onlinesearch,25.396393,114.379336
知识科普型,博物馆,51963055,江西服装学院-中华服饰博物馆,4.6,5,,南昌县,南昌县,,,体系较健全的服饰专题博物馆,"博物馆&展馆, 场馆展馆",免费,是,https://dimg04.c-ctrip.com/images/100j19000001873ml783E.jpg,https://you.ctrip.com/sight/nanchangcounty2429/4633480.html?scene=onlinesearch,28.461407,115.9586
知识科普型,博物馆,105418254,庐山诗词博物馆,5.0,1,,庐山,庐山,,,,"博物馆, 博物馆&展馆",免费,是,https://dimg04.c-ctrip.com/images/0106s12000ax8wweaCE50.jpg,https://you.ctrip.com/sight/lushan2390/105418254.html?scene=onlinesearch,29.568208,115.987831
知识科普型,博物馆,24652803,时钟博物馆,0.0,0,,赣州,赣州,,,,"博物馆, 博物馆&展馆",,否,https://dimg04.c-ctrip.com/images/0104y12000cdd6qwyEAF8.jpg,https://you.ctrip.com/sight/ganzhou473/1833656.html?scene=onlinesearch,25.901927,114.951462
知识科普型,博物馆,148725225,九江工业博物馆,1.0,1,九江学院商圈,九江,九江 · 九江学院商圈,,,,博物馆&展馆,,否,https://dimg04.c-ctrip.com/images/0HJ0v12000g2wsw9lB24D.jpg,https://you.ctrip.com/sight/jiujiang877/148725225.html?scene=onlinesearch,29.664497,115.994254
知识科普型,博物馆,145380088,吴城文化博物馆,0.0,0,,樟树,樟树,,,,博物馆&展馆,,否,https://dimg04.c-ctrip.com/images/1me5u12000dyxymr3FB14.jpg,https://you.ctrip.com/sight/zhangshu1160/145380088.html?scene=onlinesearch,27.996308,115.275064
知识科普型,博物馆,51849000,中央苏区红色卫生史院校博物馆,0.0,0,赣州大学城,赣州,赣州 · 赣州大学城,,,,博物馆&展馆,,否,https://dimg04.c-ctrip.com/images/0102s1200096epthf035C.png,https://you.ctrip.com/sight/ganzhou473/4618519.html?scene=onlinesearch,25.780025,114.911118
知识科普型,博物馆,18231668,澡溪乡博物馆,0.0,0,,奉新,奉新,,,,"博物馆, 博物馆&展馆",免费,是,https://dimg04.c-ctrip.com/images/010571200099tt5r96231.png,https://you.ctrip.com/sight/fengxin2413/1512590.html?scene=onlinesearch,28.791716,114.959047
知识科普型,博物馆,38389666,东固革命根据地博物馆,0.0,1,,吉安,吉安,,,,博物馆&展馆,,否,https://dimg04.c-ctrip.com/images/1me5712000b1e6m199EE4.jpg,https://you.ctrip.com/sight/jian876/2579627.html?scene=onlinesearch,26.731812,115.410009
知识科普型,博物馆,52019507,金九福钱币博物馆,0.0,0,红谷滩万达/秋水广场,南昌,南昌 · 红谷滩万达/秋水广场,,,,"博物馆, 博物馆&展馆",,否,https://dimg04.c-ctrip.com/images/0HJ3z12000g8pk1d760BB.jpg,https://you.ctrip.com/sight/nanchang175/4637800.html?scene=onlinesearch,28.692465,115.850542
知识科普型,博物馆,79438459,景德镇陶瓷包装历史博物馆,5.0,3,,浮梁,浮梁,,,,"博物馆, 博物馆&展馆",免费,是,https://dimg04.c-ctrip.com/images/0100b12000cnuhkj688A1.jpg,https://you.ctrip.com/sight/fuliang2420/5704795.html?scene=onlinesearch,29.360766,117.19087
知识科普型,博物馆,52031906,中国府第文化博物馆,0.0,0,,南昌,南昌,,,,"博物馆, 博物馆&展馆",,否,https://dimg04.c-ctrip.com/images/0100j12000co81l2pC1F4.jpg,https://you.ctrip.com/sight/nanchang175/4643223.html?scene=onlinesearch,29.016474,115.916691
知识科普型,博物馆,79437110,峡江县博物馆,1.0,2,,峡江,峡江,,,,"博物馆, 博物馆&展馆",免费,是,https://dimg04.c-ctrip.com/images/100n1f000001fvvpm728D.png,https://you.ctrip.com/sight/xiajiang143848/5703477.html?scene=onlinesearch,27.592887,115.3244
知识科普型,博物馆,38390855,景德镇盆景博物馆,0.0,0,古窑民俗博览区/中国陶瓷博物馆,景德镇,景德镇 · 古窑民俗博览区/中国陶瓷博物馆,,,,"博物馆, 博物馆&展馆",,否,https://dimg04.c-ctrip.com/images/100b1900000183ffl2DA3.jpg,https://you.ctrip.com/sight/jingdezhen405/2580816.html?scene=onlinesearch,29.294767,117.197414
知识科普型,博物馆,145678656,上饶市森林博物馆,0.0,0,云碧峰国家森林公园,上饶,上饶 · 云碧峰国家森林公园,,,,博物馆&展馆,,否,https://dimg04.c-ctrip.com/images/0103y12000k0bg1391AF5.jpg,https://you.ctrip.com/sight/shangrao547/145678656.html?scene=onlinesearch,28.44974,117.995991
知识科普型,博物馆,38387188,乐安县博物馆,5.0,1,,乐安,乐安,,,,"博物馆, 博物馆&展馆",,否,https://dimg04.c-ctrip.com/images/0104i12000cqn8nau69DC.jpg,https://you.ctrip.com/sight/lean2414/2577149.html?scene=onlinesearch,27.430056,115.848964
知识科普型,博物馆,79436506,江西贤母文化博物馆,0.0,0,庐山火车站商圈,九江,九江 · 庐山火车站商圈,,,,"博物馆, 博物馆&展馆",免费,是,https://dimg04.c-ctrip.com/images/0100a120008bwdct7DB08.jpg,https://you.ctrip.com/sight/jiujiang877/5702808.html?scene=onlinesearch,29.625105,115.906247
知识科普型,博物馆,80034748,鹰潭失恋星空博物馆,0.0,0,,鹰潭,鹰潭,,,,"博物馆, 博物馆&展馆",,否,https://dimg04.c-ctrip.com/images/0HJ2h12000g2vtq3p4861.jpg,https://you.ctrip.com/sight/yingtan186/80034748.html?scene=onlinesearch,28.247633,117.040821
知识科普型,博物馆,145318075,信丰失恋博物馆,0.0,0,,信丰,信丰,,,,博物馆&展馆,,否,https://dimg04.c-ctrip.com/images/0HJ2k12000g6ss7y13550.jpg,https://you.ctrip.com/sight/xinfeng2380/145318075.html?scene=onlinesearch,25.392668,114.944443
知识科普型,博物馆,51906906,景泰赏石博物馆,0.0,0,,玉山,玉山,,,,"博物馆, 博物馆&展馆",免费,是,https://dimg04.c-ctrip.com/images/0100j12000ckhvenkE368.jpg,https://you.ctrip.com/sight/yushan1013/4626824.html?scene=onlinesearch,28.6874,118.249
知识科普型,博物馆,94317232,煌上煌酱卤博物馆,5.0,1,,南昌县,南昌县,,,,"博物馆, 博物馆&展馆",,否,https://dimg04.c-ctrip.com/images/0103012000au1i0el9DF1.jpg,https://you.ctrip.com/sight/nanchangcounty2429/94317232.html?scene=onlinesearch,28.560067,115.904593
知识科普型,博物馆,145691657,井冈山革命金融博物馆,0.0,0,,井冈山,井冈山,,,,博物馆&展馆,,否,https://dimg04.c-ctrip.com/images/0HJ6o12000g2vh6u361CD.jpg,https://you.ctrip.com/sight/jinggangshan171/145691657.html?scene=onlinesearch,26.654153,114.234617
知识科普型,博物馆,145113986,南昌县博物馆(新馆),0.0,0,,南昌县,南昌县,,,,博物馆&展馆,,否,https://dimg04.c-ctrip.com/images/0HJ2112000g2wqydeE9CF.jpg,https://you.ctrip.com/sight/nanchangcounty2429/145113986.html?scene=onlinesearch,28.565926,115.850109
知识科普型,博物馆,38342047,江西省消防教育博物馆,0.0,0,红谷滩万达/秋水广场,南昌,南昌 · 红谷滩万达/秋水广场,,,,"博物馆, 博物馆&展馆",,否,https://dimg04.c-ctrip.com/images/0102812000co4szaj0864.jpg,https://you.ctrip.com/sight/nanchang175/2532808.html?scene=onlinesearch,28.682954,115.855028
知识科普型,博物馆,79437146,余江区眼镜文化博物馆,0.0,0,,鹰潭,鹰潭,,,,"博物馆, 博物馆&展馆",免费,是,https://dimg04.c-ctrip.com/images/0103w12000d2nrqfq7228.jpg,https://you.ctrip.com/sight/yingtan186/5703485.html?scene=onlinesearch,28.276817,117.011288
知识科普型,博物馆,79437137,蔡玲玲陶瓷艺术博物馆,4.5,2,,浮梁,浮梁,,,,"特色展馆, 博物馆&展馆",免费,是,https://dimg04.c-ctrip.com/images/100f1f000001gag8xE37C.png,https://you.ctrip.com/sight/fuliang2420/5703502.html?scene=onlinesearch,29.366182,117.195463
知识科普型,博物馆,145342337,乐安县红军标语博物馆,0.0,0,,乐安,乐安,,,,博物馆&展馆,,否,https://dimg04.c-ctrip.com/images/1me0812000l8ije98797E.jpg,https://you.ctrip.com/sight/lean2414/145342337.html?scene=onlinesearch,27.196948,115.76679
知识科普型,博物馆,39523301,博物馆,0.0,0,,横峰,横峰,,,,"博物馆, 博物馆&展馆",,否,https://dimg04.c-ctrip.com/images/0100k12000carhfpiFEA6.jpg,https://you.ctrip.com/sight/hengfeng2382/3702762.html?scene=onlinesearch,28.421502,117.625696
知识科普型,博物馆,145336462,寻乌县博物馆,0.0,0,,寻乌,寻乌,,,,博物馆&展馆,,否,https://dimg04.c-ctrip.com/images/0HJ4e12000g8zxp3oD545.jpg,https://you.ctrip.com/sight/xunwu143831/145336462.html?scene=onlinesearch,24.982111,115.639925
知识科普型,博物馆,24653334,郑氏博物馆,5.0,3,,铜鼓,铜鼓,,,,"博物馆, 博物馆&展馆",,否,https://dimg04.c-ctrip.com/images/0104t12000c8ic1qm6880.jpg,https://you.ctrip.com/sight/tonggu2425/1834079.html?scene=onlinesearch,28.52995,114.3864
知识科普型,博物馆,52012508,江西日报社-博物馆,0.0,0,红谷滩万达/秋水广场,南昌,南昌 · 红谷滩万达/秋水广场,,,,"博物馆, 博物馆&展馆",,否,https://dimg04.c-ctrip.com/images/0104x120009zigf6j94D4.jpg,https://you.ctrip.com/sight/nanchang175/4637649.html?scene=onlinesearch,28.69439,115.864673
知识科普型,博物馆,38492836,瑞昌市非物质文化遗产专题博物馆,0.0,0,,瑞昌,瑞昌,,,,"博物馆, 博物馆&展馆",,否,https://dimg04.c-ctrip.com/images/0HJ2a12000g6g2d3rABD2.jpg,https://you.ctrip.com/sight/ruichang2397/2681997.html?scene=onlinesearch,29.678285,115.686966
知识科普型,博物馆,133898722,庐山宗教博物馆,0.0,0,,庐山,庐山,,,,"博物馆, 博物馆&展馆",,否,https://dimg04.c-ctrip.com/images/0101k12000cg7j8fb1BE4.jpg,https://you.ctrip.com/sight/lushan2390/133898722.html?scene=onlinesearch,29.56815,115.987862
知识科普型,博物馆,79437101,吉安县博物馆展厅,0.0,0,,吉安县,吉安县,,,,"博物馆, 博物馆&展馆",免费,是,https://dimg04.c-ctrip.com/images/01069120008bwda6fD695.jpg,https://you.ctrip.com/sight/jiancounty2392/5703467.html?scene=onlinesearch,27.041661,114.919705
知识科普型,博物馆,51964193,赣剧博物馆,5.0,1,梅岭风景区,南昌,南昌 · 梅岭风景区,,,,"博物馆, 博物馆&展馆",,否,https://dimg04.c-ctrip.com/images/0102e120009a7fzptEA24.png,https://you.ctrip.com/sight/nanchang175/4633758.html?scene=onlinesearch,28.807581,115.73036
知识科普型,博物馆,148618777,瑞昌剪纸博物馆,0.0,0,,瑞昌,瑞昌,,,,博物馆&展馆,,否,https://dimg04.c-ctrip.com/images/0HJ2612000g5zlksjC7A9.jpg,https://you.ctrip.com/sight/ruichang2397/148618777.html?scene=onlinesearch,29.771709,115.548534
知识科普型,博物馆,145600991,中华古锁博物馆,0.0,0,八一广场/王府井,南昌,南昌 · 八一广场/王府井,,,,博物馆&展馆,,否,https://dimg04.c-ctrip.com/images/0HJ6o12000g6415heDA1E.jpg,https://you.ctrip.com/sight/nanchang175/145600991.html?scene=onlinesearch,28.655449,115.920024
知识科普型,博物馆,79437099,瀚道民间艺术博物馆,2.0,3,,宜丰,宜丰,,,,"博物馆, 博物馆&展馆",免费,是,https://dimg04.c-ctrip.com/images/0103u12000axaaaqx620C.jpg,https://you.ctrip.com/sight/yifeng143843/5703457.html?scene=onlinesearch,28.402284,114.807343
知识科普型,博物馆,79437135,林和顺博物馆,0.0,0,上饶师范学院,上饶,上饶 · 上饶师范学院,,,,"博物馆, 博物馆&展馆",免费,是,https://dimg04.c-ctrip.com/images/0100y12000c5wfhdv5670.jpg,https://you.ctrip.com/sight/shangrao547/5703481.html?scene=onlinesearch,28.437818,117.959867
知识科普型,博物馆,145708838,南昌工学院中国工艺美术大师博物馆,0.0,0,,南昌,南昌,,,,博物馆&展馆,,否,https://dimg04.c-ctrip.com/images/0HJ0s12000g8pempcFC33.jpg,https://you.ctrip.com/sight/nanchang175/145708838.html?scene=onlinesearch,28.61686,115.769437
知识科普型,博物馆,38332114,安义县博物馆,3.5,2,,安义,安义,,,,"博物馆, 博物馆&展馆",,否,https://dimg04.c-ctrip.com/images/0102e12000c8aku216F3F.png,https://you.ctrip.com/sight/anyi2378/2522875.html?scene=onlinesearch,28.843817,115.557485
知识科普型,博物馆,145122542,刘光华自然遗产博物馆,0.0,0,梅岭风景区,南昌,南昌 · 梅岭风景区,,,,博物馆&展馆,,否,https://dimg04.c-ctrip.com/images/0HJ5812000g2sotkn4634.jpg,https://you.ctrip.com/sight/nanchang175/145122542.html?scene=onlinesearch,28.67226,115.711622
知识科普型,博物馆,51560763,龙虎山博物馆,0.0,0,,贵溪,贵溪,,,,"历史建筑, 博物馆&展馆",,否,https://dimg04.c-ctrip.com/images/0HJ1x12000g8k53j7779B.jpg,https://you.ctrip.com/sight/guixi1189/4572034.html?scene=onlinesearch,28.126548,116.989048
知识科普型,博物馆,145607592,小蓝汽车博物馆,0.0,0,,南昌县,南昌县,,,,博物馆&展馆,,否,https://dimg04.c-ctrip.com/images/0HJ3112000g6buob611C6.jpg,https://you.ctrip.com/sight/nanchangcounty2429/145607592.html?scene=onlinesearch,28.500246,115.895709
知识科普型,博物馆,145464714,樟树市博物馆,0.0,0,,樟树,樟树,,,,博物馆&展馆,,否,https://dimg04.c-ctrip.com/images/0HJ3v12000g6o9dmb47B0.jpg,https://you.ctrip.com/sight/zhangshu1160/145464714.html?scene=onlinesearch,28.036231,115.508386
知识科普型,博物馆,145514998,赣南客家文化博物馆,0.0,0,,安远,安远,,,,博物馆&展馆,,否,https://dimg04.c-ctrip.com/images/0100p12000exlkwuh9153.jpg,https://you.ctrip.com/sight/anyuan2381/145514998.html?scene=onlinesearch,25.009364,115.334574
知识科普型,博物馆,51560714,抚州市农耕文化博物馆,0.0,0,,抚州,抚州,,,,"博物馆, 博物馆&展馆",,否,https://dimg04.c-ctrip.com/images/0105h12000d3j4lub4D0B.jpg,https://you.ctrip.com/sight/fuzhou875/4572018.html?scene=onlinesearch,28.055268,116.376783
知识科普型,博物馆,145253378,靖安金石世家博物馆,0.0,0,,靖安,靖安,,,,博物馆&展馆,,否,https://dimg04.c-ctrip.com/images/0HJ6i12000g6rdb6p60E4.jpg,https://you.ctrip.com/sight/jingan2396/145253378.html?scene=onlinesearch,29.002134,115.41643
知识科普型,博物馆,145580831,张向东景泰蓝博物馆,0.0,0,人民广场/景德镇陶阳里历史文化旅游区,景德镇,景德镇 · 人民广场/景德镇陶阳里历史文化旅游区,,,,博物馆&展馆,,否,https://dimg04.c-ctrip.com/images/0HJ1o12000g628ooe093A.jpg,https://you.ctrip.com/sight/jingdezhen405/145580831.html?scene=onlinesearch,29.295546,117.219308
知识科普型,博物馆,79436469,精益斋博物馆,3.0,1,,浮梁,浮梁,,,,"博物馆, 博物馆&展馆",免费,是,https://dimg04.c-ctrip.com/images/0103t12000cmqkupl7815.jpg,https://you.ctrip.com/sight/fuliang2420/5702847.html?scene=onlinesearch,29.377806,117.256869
知识科普型,博物馆,148772411,邓希平颜色釉陶瓷博物馆,0.0,0,,浮梁,浮梁,,,,博物馆&展馆,,否,https://dimg04.c-ctrip.com/images/0HJ1412000g8gu3sfDE5A.jpg,https://you.ctrip.com/sight/fuliang2420/148772411.html?scene=onlinesearch,29.365431,117.196249
知识科普型,博物馆,79437127,景德镇人间瓷画当代艺术博物馆,0.0,0,,浮梁,浮梁,,,,"特色展馆, 博物馆&展馆",免费,是,https://dimg04.c-ctrip.com/images/0103i12000d1bxbim1DE9.jpg,https://you.ctrip.com/sight/fuliang2420/5703494.html?scene=onlinesearch,29.375744,117.256994
知识科普型,博物馆,148753625,唐英窑博物馆,0.0,0,,浮梁,浮梁,,,,博物馆&展馆,,否,https://dimg04.c-ctrip.com/images/0101a12000fbtl5pxE51B.png,https://you.ctrip.com/sight/fuliang2420/148753625.html?scene=onlinesearch,29.350641,117.167213
知识科普型,博物馆,145622439,安远县博物馆,0.0,0,,安远,安远,,,,博物馆&展馆,,否,https://dimg04.c-ctrip.com/images/0HJ6212000g90xk8n70F3.jpg,https://you.ctrip.com/sight/anyuan2381/145622439.html?scene=onlinesearch,25.133241,115.402257
知识科普型,博物馆,143752688,陈年美酒博物馆,0.0,0,红谷滩万达/秋水广场,南昌,南昌 · 红谷滩万达/秋水广场,,,,"博物馆, 博物馆&展馆",,否,https://dimg04.c-ctrip.com/images/0HJ5612000g8me40pFEF1.jpg,https://you.ctrip.com/sight/nanchang175/143752688.html?scene=onlinesearch,28.687081,115.864426
知识科普型,博物馆,145320186,修水星空失恋博物馆,0.0,0,,修水,修水,,,,博物馆&展馆,,否,https://dimg04.c-ctrip.com/images/0HJ0a12000g8pjzp24947.jpg,https://you.ctrip.com/sight/xiushui2399/145320186.html?scene=onlinesearch,29.029211,114.555677
知识科普型,博物馆,51560843,黄蜡石博物馆,0.0,0,,鹰潭,鹰潭,,,,"博物馆, 博物馆&展馆",,否,https://dimg04.c-ctrip.com/images/0HJ4i12000g8b4wupAE82.jpg,https://you.ctrip.com/sight/yingtan186/4572065.html?scene=onlinesearch,28.276592,117.110114
知识科普型,博物馆,39512137,武宁剧院(武宁博物馆店),0.0,0,,武宁,武宁,,,,"演出, 场馆展馆",,否,https://dimg04.c-ctrip.com/images/0HJ6s12000g329m3a1E6F.jpg,https://you.ctrip.com/sight/wuning2432/3691598.html?scene=onlinesearch,29.25411,115.103717
知识科普型,博物馆,145113914,福鼎莲峰白茶博物馆,0.0,0,,进贤,进贤,,,,博物馆&展馆,,否,https://dimg04.c-ctrip.com/images/0HJ0c12000g6568dm0C66.jpg,https://you.ctrip.com/sight/jinxian2402/145113914.html?scene=onlinesearch,28.382029,116.253519
知识科普型,博物馆,145460824,鲁班木艺博物馆,0.0,0,,鄱阳,鄱阳,,,,博物馆&展馆,,否,https://dimg04.c-ctrip.com/images/0HJ1t12000g64xxad6F57.jpg,https://you.ctrip.com/sight/poyang2385/145460824.html?scene=onlinesearch,28.985075,116.921266
知识科普型,博物馆,145470323,江西森林生态艺术博物馆,0.0,0,,丰城,丰城,,,,博物馆&展馆,,否,https://dimg04.c-ctrip.com/images/0HJ5r12000g8z4huw544E.jpg,https://you.ctrip.com/sight/fengcheng1839/145470323.html?scene=onlinesearch,28.206388,115.807064
知识科普型,博物馆,145529062,进贤钰铭博物馆,0.0,0,,进贤,进贤,,,,博物馆&展馆,,否,https://dimg04.c-ctrip.com/images/0HJ1q12000g30ergsC509.jpg,https://you.ctrip.com/sight/jinxian2402/145529062.html?scene=onlinesearch,28.370816,116.281667
知识科普型,博物馆,145686748,饶州博物馆,0.0,0,,鄱阳,鄱阳,,,,博物馆&展馆,,否,https://dimg04.c-ctrip.com/images/0HJ4x12000g91ou8f7BD7.jpg,https://you.ctrip.com/sight/poyang2385/145686748.html?scene=onlinesearch,29.007377,116.848923
知识科普型,博物馆,145580882,庐山抗战博物馆-第一展厅,0.0,0,,庐山,庐山,,,,博物馆&展馆,,否,https://dimg04.c-ctrip.com/images/0105j12000g2yqq950D6B.jpg,https://you.ctrip.com/sight/lushan2390/145580882.html?scene=onlinesearch,29.564948,115.983026
知识科普型,博物馆,145312721,金印矿物博物馆,0.0,0,东林大佛/东林寺净土苑,庐山,庐山 · 东林大佛/东林寺净土苑,,,,博物馆&展馆,,否,https://dimg04.c-ctrip.com/images/0HJ3a12000g65bjuq5620.jpg,https://you.ctrip.com/sight/lushan2390/145312721.html?scene=onlinesearch,29.41947,115.897356
知识科普型,博物馆,79176104,南昌市博物馆,4.6,28,滕王阁/万寿宫,南昌,南昌 · 滕王阁/万寿宫,,,,"博物馆, 博物馆&展馆",免费,是,https://dimg04.c-ctrip.com/images/0105h12000f6rppqr5AB3.jpg,https://you.ctrip.com/sight/nanchang175/5701362.html?scene=onlinesearch,28.682679,115.885936
知识科普型,博物馆,51565461,景德镇陶瓷工业遗产博物馆,4.6,12,陶溪川文创街区/景德镇雕塑瓷厂,景德镇,景德镇 · 陶溪川文创街区/景德镇雕塑瓷厂,,,陶溪川标志性建筑,"博物馆, 博物馆&展馆",门市价,否,https://dimg04.c-ctrip.com/images/350e170000011vwmu8E9C.jpg,https://you.ctrip.com/sight/jingdezhen405/4572236.html?scene=onlinesearch,29.302869,117.242598
知识科普型,博物馆,61948243,南昌失恋博物馆,4.4,28,滕王阁/万寿宫,南昌,南昌 · 滕王阁/万寿宫,,,,"特色展馆, 博物馆&展馆",门市价,否,https://dimg04.c-ctrip.com/images/350s15000000ydo2q54A7.jpg,https://you.ctrip.com/sight/nanchang175/5547349.html?scene=onlinesearch,28.686629,115.894029
知识科普型,博物馆,18235817,民窑遗址博物馆,4.6,33,人民广场/景德镇陶阳里历史文化旅游区,景德镇,景德镇 · 人民广场/景德镇陶阳里历史文化旅游区,,,,"博物馆&展馆, 场馆展馆",免费,是,https://dimg04.c-ctrip.com/images/0105q12000a88ad5k62E5.jpg,https://you.ctrip.com/sight/jingdezhen405/1512872.html?scene=onlinesearch,29.290448,117.213139
知识科普型,博物馆,70346726,景德镇老城博物馆,5.0,1,人民广场/景德镇陶阳里历史文化旅游区,景德镇,景德镇 · 人民广场/景德镇陶阳里历史文化旅游区,,,,"博物馆, 博物馆&展馆",免费,是,https://dimg04.c-ctrip.com/images/0105b12000b007m5d2628.jpg,https://you.ctrip.com/sight/jingdezhen405/5616347.html?scene=onlinesearch,29.310226,117.207489
知识科普型,博物馆,102644683,南昌恋爱博物馆,0.0,0,滕王阁/万寿宫,南昌,南昌 · 滕王阁/万寿宫,,,,"特色展馆, 博物馆&展馆",,否,https://dimg04.c-ctrip.com/images/0106d120008equuhz8A09.jpg,https://you.ctrip.com/sight/nanchang175/102644683.html?scene=onlinesearch,28.683684,115.894085
知识科普型,博物馆,38956566,赣州规划馆,0.0,0,赣州万象城/九方购物中心,赣州,赣州 · 赣州万象城/九方购物中心,,,,"博物馆, 博物馆&展馆",,否,https://dimg04.c-ctrip.com/images/0100912000a0fe3ep3C3C.jpg,https://you.ctrip.com/sight/ganzhou473/3141127.html?scene=onlinesearch,25.834441,114.940147
知识科普型,博物馆,38426904,上饶市广丰区博物馆,0.0,0,,上饶,上饶,,,,"博物馆, 博物馆&展馆",,否,https://dimg04.c-ctrip.com/images/0100512000d3a7w1z41FB.jpg,https://you.ctrip.com/sight/shangrao547/2616765.html?scene=onlinesearch,28.442383,118.198155
知识科普型,博物馆,145253088,景德镇中国陶瓷博物馆一楼多功能厅,0.0,0,古窑民俗博览区/中国陶瓷博物馆,景德镇,景德镇 · 古窑民俗博览区/中国陶瓷博物馆,,,,,,否,https://dimg04.c-ctrip.com/images/fd/tg/g1/M06/FC/24/CghzflW7H_iATdynAAA-FlXAIeA738.jpg,https://you.ctrip.com/sight/jingdezhen405/145253088.html?scene=onlinesearch,29.298903,117.182134
知识科普型,博物馆,152807399,万寿宫博物馆,0.0,0,滕王阁/万寿宫,南昌,南昌 · 滕王阁/万寿宫,,,,博物馆&展馆,,否,https://dimg04.c-ctrip.com/images/fd/tg/g1/M06/FC/24/CghzflW7H_iATdynAAA-FlXAIeA738.jpg,https://you.ctrip.com/sight/nanchang175/152807399.html?scene=onlinesearch,28.679958,115.894513
知识科普型,博物馆,152837378,万物虫生南昌活体昆虫博物馆,0.0,0,八一广场/王府井,南昌,南昌 · 八一广场/王府井,,,,博物馆&展馆,,否,https://dimg04.c-ctrip.com/images/fd/tg/g1/M06/FC/24/CghzflW7H_iATdynAAA-FlXAIeA738.jpg,https://you.ctrip.com/sight/nanchang175/152837378.html?scene=onlinesearch,28.681843,115.908949
知识科普型,博物馆,51959655,江西陶瓷文化博物馆,0.0,0,滕王阁/万寿宫,南昌,南昌 · 滕王阁/万寿宫,,,,"博物馆, 博物馆&展馆",,否,https://dimg04.c-ctrip.com/images/fd/tg/g1/M08/AE/87/CghzfVW7IAOAbNKNAABCrs7mUrY425.jpg,https://you.ctrip.com/sight/nanchang175/4633631.html?scene=onlinesearch,28.697731,115.904598
知识科普型,博物馆,148867850,婺女洲度假区茶圣博物馆,0.0,0,婺女洲度假区,婺源,婺源 · 婺女洲度假区,,,,博物馆&展馆,,否,https://dimg04.c-ctrip.com/images/0102u1200086k28vc0A5C.jpg,https://you.ctrip.com/sight/wuyuan446/148867850.html?scene=onlinesearch,29.293911,117.865092
知识科普型,博物馆,149975593,景德镇陶瓷大学(湘湖校区)-景德镇陶瓷大学博物馆,0.0,0,,浮梁,浮梁,,,,博物馆&展馆,,否,https://dimg04.c-ctrip.com/images/fd/tg/g1/M06/FC/24/CghzflW7H_iATdynAAA-FlXAIeA738.jpg,https://you.ctrip.com/sight/fuliang2420/149975593.html?scene=onlinesearch,29.333823,117.323823
知识科普型,博物馆,145361362,月亮湾·青花瓷陶瓷博物馆,0.0,0,李坑度假区,婺源,婺源 · 李坑度假区,,,,博物馆&展馆,,否,https://dimg04.c-ctrip.com/images/fd/tg/g1/M06/FC/24/CghzflW7H_iATdynAAA-FlXAIeA738.jpg,https://you.ctrip.com/sight/wuyuan446/145361362.html?scene=onlinesearch,29.339038,117.929048
知识科普型,博物馆,151283577,庐山市博物馆,0.0,0,,庐山,庐山,,,,博物馆&展馆,,否,https://dimg04.c-ctrip.com/images/fd/tg/g1/M06/FC/24/CghzflW7H_iATdynAAA-FlXAIeA738.jpg,https://you.ctrip.com/sight/lushan2390/151283577.html?scene=onlinesearch,29.46278,116.028158
知识科普型,博物馆,145523971,中国药都樟树健康小镇博物馆,0.0,0,,樟树,樟树,,,,博物馆&展馆,,否,https://dimg04.c-ctrip.com/images/fd/tg/g1/M06/FC/24/CghzflW7H_iATdynAAA-FlXAIeA738.jpg,https://you.ctrip.com/sight/zhangshu1160/145523971.html?scene=onlinesearch,27.981631,115.579645
知识科普型,博物馆,51866496,您身边的咖啡博物馆,5.0,1,县中心/婺源站,婺源,婺源 · 县中心/婺源站,,,,"博物馆, 博物馆&展馆",,否,https://dimg04.c-ctrip.com/images/fd/tg/g1/M08/AE/87/CghzfVW7IAOAbNKNAABCrs7mUrY425.jpg,https://you.ctrip.com/sight/wuyuan446/4619964.html?scene=onlinesearch,29.258973,117.870572
知识科普型,博物馆,145629485,天下第一陶博物馆,0.0,0,,万年,万年,,,,博物馆&展馆,,否,https://dimg04.c-ctrip.com/images/fd/tg/g1/M06/FC/24/CghzflW7H_iATdynAAA-FlXAIeA738.jpg,https://you.ctrip.com/sight/wannian2428/145629485.html?scene=onlinesearch,28.718793,117.061071
知识科普型,博物馆,38393727,井冈山自然博物馆,0.0,0,井冈山旅游区,井冈山,井冈山 · 井冈山旅游区,,,,博物馆&展馆,,否,https://dimg04.c-ctrip.com/images/fd/tg/g1/M03/AF/64/CghzfFW7IBCAUbLaAAAlnuKOkAQ344.jpg,https://you.ctrip.com/sight/jinggangshan171/2583688.html?scene=onlinesearch,26.563896,114.172427
知识科普型,博物馆,145657127,婺源博物馆-票务处,0.0,0,婺女洲度假区,婺源,婺源 · 婺女洲度假区,,,,,,否,https://dimg04.c-ctrip.com/images/fd/tg/g1/M06/FC/24/CghzflW7H_iATdynAAA-FlXAIeA738.jpg,https://you.ctrip.com/sight/wuyuan446/145657127.html?scene=onlinesearch,29.283,117.864194
知识科普型,博物馆,148608900,兴国县三僚堪舆文化博物馆,0.0,0,,兴国,兴国,,,,博物馆&展馆,,否,https://dimg04.c-ctrip.com/images/fd/tg/g1/M06/FC/24/CghzflW7H_iATdynAAA-FlXAIeA738.jpg,https://you.ctrip.com/sight/xingguo2387/148608900.html?scene=onlinesearch,26.367427,115.731888
知识科普型,博物馆,145430668,观宋博物馆(九龙湖馆),0.0,0,南昌绿地国际博览中心/南昌国际体育中心,南昌,南昌 · 南昌绿地国际博览中心/南昌国际体育中心,,,,博物馆&展馆,,否,https://dimg04.c-ctrip.com/images/fd/tg/g1/M06/FC/24/CghzflW7H_iATdynAAA-FlXAIeA738.jpg,https://you.ctrip.com/sight/nanchang175/145430668.html?scene=onlinesearch,28.635399,115.792901
知识科普型,博物馆,145435301,龙南市博物馆,2.0,1,,龙南,龙南,,,,博物馆&展馆,,否,https://dimg04.c-ctrip.com/images/fd/tg/g1/M06/FC/24/CghzflW7H_iATdynAAA-FlXAIeA738.jpg,https://you.ctrip.com/sight/longnan2424/145435301.html?scene=onlinesearch,24.908244,114.803796
知识科普型,博物馆,51866180,鄱阳湖民间民俗博物馆,0.0,0,,余干,余干,,,,"博物馆, 博物馆&展馆",,否,https://dimg04.c-ctrip.com/images/fd/tg/g1/M08/AE/87/CghzfVW7IAOAbNKNAABCrs7mUrY425.jpg,https://you.ctrip.com/sight/yugan2423/4619873.html?scene=onlinesearch,28.7165,116.813
知识科普型,博物馆,149991872,上饶市信江书院博物馆,0.0,0,云碧峰国家森林公园,上饶,上饶 · 云碧峰国家森林公园,,,,博物馆&展馆,,否,https://dimg04.c-ctrip.com/images/fd/tg/g1/M06/FC/24/CghzflW7H_iATdynAAA-FlXAIeA738.jpg,https://you.ctrip.com/sight/shangrao547/149991872.html?scene=onlinesearch,28.442519,117.981161
知识科普型,博物馆,145383373,庐山抗战博物馆-售卖厅,0.0,0,,庐山,庐山,,,,,,否,https://dimg04.c-ctrip.com/images/fd/tg/g1/M06/FC/24/CghzflW7H_iATdynAAA-FlXAIeA738.jpg,https://you.ctrip.com/sight/lushan2390/145383373.html?scene=onlinesearch,29.564932,115.983133
知识科普型,博物馆,145315250,庐山抗战博物馆-第二展厅,0.0,0,,庐山,庐山,,,,博物馆&展馆,,否,https://dimg04.c-ctrip.com/images/fd/tg/g1/M06/FC/24/CghzflW7H_iATdynAAA-FlXAIeA738.jpg,https://you.ctrip.com/sight/lushan2390/145315250.html?scene=onlinesearch,29.56494,115.983018
知识科普型,博物馆,151292403,宜春活体昆虫博物馆,0.0,0,市政府地区,宜春,宜春 · 市政府地区,,,,,,否,https://dimg04.c-ctrip.com/images/fd/tg/g1/M06/FC/24/CghzflW7H_iATdynAAA-FlXAIeA738.jpg,https://you.ctrip.com/sight/yichun743/151292403.html?scene=onlinesearch,27.826315,114.421568
知识科普型,博物馆,145331307,吉安市吉州区博物馆,0.0,0,人民广场/中心人民医院,吉安,吉安 · 人民广场/中心人民医院,,,,博物馆&展馆,,否,https://dimg04.c-ctrip.com/images/fd/tg/g1/M06/FC/24/CghzflW7H_iATdynAAA-FlXAIeA738.jpg,https://you.ctrip.com/sight/jian876/145331307.html?scene=onlinesearch,27.129349,115.002685
知识科普型,博物馆,145469585,武功山地质博物馆2楼,0.0,0,,芦溪,芦溪,,,,,,否,https://dimg04.c-ctrip.com/images/fd/tg/g1/M06/FC/24/CghzflW7H_iATdynAAA-FlXAIeA738.jpg,https://you.ctrip.com/sight/luxi1445977/145469585.html?scene=onlinesearch,27.495426,114.135973
知识科普型,博物馆,145700081,中华古木锁博物馆,0.0,0,,抚州,抚州,,,,博物馆&展馆,,否,https://dimg04.c-ctrip.com/images/fd/tg/g1/M06/FC/24/CghzflW7H_iATdynAAA-FlXAIeA738.jpg,https://you.ctrip.com/sight/fuzhou875/145700081.html?scene=onlinesearch,28.003692,116.373568
知识科普型,博物馆,145312387,景德镇十大瓷厂陶瓷博物馆,0.0,0,,浮梁,浮梁,,,,博物馆&展馆,,否,https://dimg04.c-ctrip.com/images/fd/tg/g1/M06/FC/24/CghzflW7H_iATdynAAA-FlXAIeA738.jpg,https://you.ctrip.com/sight/fuliang2420/145312387.html?scene=onlinesearch,29.318698,117.29209
知识科普型,博物馆,145192984,长征源红色博物馆,0.0,0,,于都,于都,,,,博物馆&展馆,,否,https://dimg04.c-ctrip.com/images/fd/tg/g1/M06/FC/24/CghzflW7H_iATdynAAA-FlXAIeA738.jpg,https://you.ctrip.com/sight/yudu2419/145192984.html?scene=onlinesearch,26.016962,115.433001
知识科普型,博物馆,38392267,修水县历史博物馆,4.0,3,,修水,修水,,,,"博物馆, 博物馆&展馆",,否,https://dimg04.c-ctrip.com/images/fd/tg/g1/M08/AE/87/CghzfVW7IAOAbNKNAABCrs7mUrY425.jpg,https://you.ctrip.com/sight/xiushui2399/2582228.html?scene=onlinesearch,29.034924,114.584685
知识科普型,博物馆,148705051,中国移动手机博物馆,0.0,0,瑶湖大学城/奥体中心,南昌,南昌 · 瑶湖大学城/奥体中心,,,,博物馆&展馆,,否,https://dimg04.c-ctrip.com/images/fd/tg/g1/M06/FC/24/CghzflW7H_iATdynAAA-FlXAIeA738.jpg,https://you.ctrip.com/sight/nanchang175/148705051.html?scene=onlinesearch,28.679746,116.000341
知识科普型,博物馆,51565451,景德镇昌南粉彩瓷博物馆,0.0,0,古窑民俗博览区/中国陶瓷博物馆,景德镇,景德镇 · 古窑民俗博览区/中国陶瓷博物馆,,,,"博物馆, 博物馆&展馆",,否,https://dimg04.c-ctrip.com/images/fd/tg/g1/M08/AE/87/CghzfVW7IAOAbNKNAABCrs7mUrY425.jpg,https://you.ctrip.com/sight/jingdezhen405/4572227.html?scene=onlinesearch,29.29733,117.198412
知识科普型,博物馆,145389156,莲花县森林湿地博物馆,0.0,0,,莲花,莲花,,,,博物馆&展馆,,否,https://dimg04.c-ctrip.com/images/fd/tg/g1/M06/FC/24/CghzflW7H_iATdynAAA-FlXAIeA738.jpg,https://you.ctrip.com/sight/lianhua1445978/145389156.html?scene=onlinesearch,27.118425,113.96014
知识科普型,博物馆,145256782,知青博物馆,0.0,0,,资溪,资溪,,,,博物馆&展馆,,否,https://dimg04.c-ctrip.com/images/fd/tg/g1/M06/FC/24/CghzflW7H_iATdynAAA-FlXAIeA738.jpg,https://you.ctrip.com/sight/zixi2433/145256782.html?scene=onlinesearch,27.631912,116.997755
知识科普型,博物馆,145187043,华泉中华美术博物馆,0.0,0,,贵溪,贵溪,,,,博物馆&展馆,,否,https://dimg04.c-ctrip.com/images/fd/tg/g1/M06/FC/24/CghzflW7H_iATdynAAA-FlXAIeA738.jpg,https://you.ctrip.com/sight/guixi1189/145187043.html?scene=onlinesearch,28.128204,116.994701
知识科普型,博物馆,145311478,上栗博物馆,0.0,0,,上栗,上栗,,,,博物馆&展馆,,否,https://dimg04.c-ctrip.com/images/fd/tg/g1/M06/FC/24/CghzflW7H_iATdynAAA-FlXAIeA738.jpg,https://you.ctrip.com/sight/shangli2403/145311478.html?scene=onlinesearch,27.882748,113.833109
知识科普型,博物馆,145670401,竹科技博物馆,0.0,0,,资溪,资溪,,,,博物馆&展馆,,否,https://dimg04.c-ctrip.com/images/fd/tg/g1/M06/FC/24/CghzflW7H_iATdynAAA-FlXAIeA738.jpg,https://you.ctrip.com/sight/zixi2433/145670401.html?scene=onlinesearch,27.788311,117.060335
知识科普型,博物馆,145674469,安和美居博物馆,0.0,0,,泰和,泰和,,,,博物馆&展馆,,否,https://dimg04.c-ctrip.com/images/fd/tg/g1/M06/FC/24/CghzflW7H_iATdynAAA-FlXAIeA738.jpg,https://you.ctrip.com/sight/taihe2422/145674469.html?scene=onlinesearch,26.797238,114.879994
知识科普型,博物馆,51671756,万载县首家森林博物馆,0.0,0,,万载,万载,,,,"博物馆, 博物馆&展馆",,否,https://dimg04.c-ctrip.com/images/fd/tg/g1/M08/AE/87/CghzfVW7IAOAbNKNAABCrs7mUrY425.jpg,https://you.ctrip.com/sight/wanzai2430/4590058.html?scene=onlinesearch,28.097541,114.475484
知识科普型,博物馆,150314708,景德镇悠栖小栈(古窑民俗博览区/陶瓷博物馆),0.0,0,,景德镇,景德镇,,,,博物馆&展馆,,否,https://dimg04.c-ctrip.com/images/fd/tg/g1/M06/FC/24/CghzflW7H_iATdynAAA-FlXAIeA738.jpg,https://you.ctrip.com/sight/jingdezhen405/150314708.html?scene=onlinesearch,29.271271,117.198831
知识科普型,博物馆,151326381,龙虎山世界地质公园博物馆,0.0,0,,贵溪,贵溪,,,,博物馆&展馆,,否,https://dimg04.c-ctrip.com/images/fd/tg/g1/M06/FC/24/CghzflW7H_iATdynAAA-FlXAIeA738.jpg,https://you.ctrip.com/sight/guixi1189/151326381.html?scene=onlinesearch,28.123559,116.98762
知识科普型,博物馆,145232002,萍乡陶瓷博物馆,0.0,0,,芦溪,芦溪,,,,博物馆&展馆,,否,https://dimg04.c-ctrip.com/images/fd/tg/g1/M06/FC/24/CghzflW7H_iATdynAAA-FlXAIeA738.jpg,https://you.ctrip.com/sight/luxi1445977/145232002.html?scene=onlinesearch,27.611147,114.040339
知识科普型,博物馆,145725647,宜丰县博物馆,0.0,0,,宜丰,宜丰,,,,博物馆&展馆,,否,https://dimg04.c-ctrip.com/images/fd/tg/g1/M06/FC/24/CghzflW7H_iATdynAAA-FlXAIeA738.jpg,https://you.ctrip.com/sight/yifeng143843/145725647.html?scene=onlinesearch,28.40855,114.834228
知识科普型,博物馆,145342275,兴国县非物质文化遗产博物馆,0.0,0,,兴国,兴国,,,,博物馆&展馆,,否,https://dimg04.c-ctrip.com/images/fd/tg/g1/M06/FC/24/CghzflW7H_iATdynAAA-FlXAIeA738.jpg,https://you.ctrip.com/sight/xingguo2387/145342275.html?scene=onlinesearch,26.311628,115.390269
知识科普型,博物馆,149949300,万安县博物馆(新馆),0.0,0,,万安,万安,,,,博物馆&展馆,,否,https://dimg04.c-ctrip.com/images/fd/tg/g1/M06/FC/24/CghzflW7H_iATdynAAA-FlXAIeA738.jpg,https://you.ctrip.com/sight/wanan143850/149949300.html?scene=onlinesearch,26.481866,114.766736
知识科普型,博物馆,150345618,御窑博物馆东司岭40号听涛堂,0.0,0,,景德镇,景德镇,,,,博物馆&展馆,,否,https://dimg04.c-ctrip.com/images/fd/tg/g1/M06/FC/24/CghzflW7H_iATdynAAA-FlXAIeA738.jpg,https://you.ctrip.com/sight/jingdezhen405/150345618.html?scene=onlinesearch,29.300455,117.213166
知识科普型,博物馆,145275205,芦溪博物馆,0.0,0,,芦溪,芦溪,,,,博物馆&展馆,,否,https://dimg04.c-ctrip.com/images/fd/tg/g1/M06/FC/24/CghzflW7H_iATdynAAA-FlXAIeA738.jpg,https://you.ctrip.com/sight/luxi1445977/145275205.html?scene=onlinesearch,27.630769,114.046936
知识科普型,博物馆,145433064,吴楚风博物馆,0.0,0,,芦溪,芦溪,,,,博物馆&展馆,,否,https://dimg04.c-ctrip.com/images/fd/tg/g1/M06/FC/24/CghzflW7H_iATdynAAA-FlXAIeA738.jpg,https://you.ctrip.com/sight/luxi1445977/145433064.html?scene=onlinesearch,27.641866,114.073576
知识科普型,博物馆,145196028,古州窑标本博物馆,0.0,0,,新干,新干,,,,博物馆&展馆,,否,https://dimg04.c-ctrip.com/images/fd/tg/g1/M06/FC/24/CghzflW7H_iATdynAAA-FlXAIeA738.jpg,https://you.ctrip.com/sight/xingan2384/145196028.html?scene=onlinesearch,27.743218,115.39163
知识科普型,博物馆,145132840,宜春市竹文化博物馆,0.0,0,,宜春,宜春,,,,博物馆&展馆,,否,https://dimg04.c-ctrip.com/images/fd/tg/g1/M06/FC/24/CghzflW7H_iATdynAAA-FlXAIeA738.jpg,https://you.ctrip.com/sight/yichun743/145132840.html?scene=onlinesearch,27.814723,114.378483
知识科普型,博物馆,144180061,革命博物馆桐木岭哨口,0.0,0,,井冈山,井冈山,,,,博物馆&展馆,,否,https://dimg04.c-ctrip.com/images/fd/tg/g1/M06/FC/24/CghzflW7H_iATdynAAA-FlXAIeA738.jpg,https://you.ctrip.com/sight/jinggangshan171/144180061.html?scene=onlinesearch,26.623127,114.208952
知识科普型,博物馆,150329744,井冈山革命博物馆黄洋界哨口管理部,0.0,0,,井冈山,井冈山,,,,博物馆&展馆,,否,https://dimg04.c-ctrip.com/images/fd/tg/g1/M06/FC/24/CghzflW7H_iATdynAAA-FlXAIeA738.jpg,https://you.ctrip.com/sight/jinggangshan171/150329744.html?scene=onlinesearch,26.626212,114.12917
知识科普型,博物馆,145381478,天祥号浮梁茶叶博物馆(严台),0.0,0,,浮梁,浮梁,,,,博物馆&展馆,,否,https://dimg04.c-ctrip.com/images/fd/tg/g1/M06/FC/24/CghzflW7H_iATdynAAA-FlXAIeA738.jpg,https://you.ctrip.com/sight/fuliang2420/145381478.html?scene=onlinesearch,29.823141,117.397952
知识科普型,博物馆,145233273,洋港湖森林湿地博物馆,0.0,0,,湖口,湖口,,,,博物馆&展馆,,否,https://dimg04.c-ctrip.com/images/fd/tg/g1/M06/FC/24/CghzflW7H_iATdynAAA-FlXAIeA738.jpg,https://you.ctrip.com/sight/hukou2386/145233273.html?scene=onlinesearch,29.75668,116.24115
知识科普型,博物馆,152907706,东华理工大学地质博物馆,0.0,0,昌北大学城区,南昌,南昌 · 昌北大学城区,,,,博物馆&展馆,,否,https://dimg04.c-ctrip.com/images/fd/tg/g1/M06/FC/24/CghzflW7H_iATdynAAA-FlXAIeA738.jpg,https://you.ctrip.com/sight/nanchang175/152907706.html?scene=onlinesearch,28.728034,115.83393
知识科普型,博物馆,148755204,神农源地质研学博物馆,0.0,0,,万年,万年,,,,博物馆&展馆,,否,https://dimg04.c-ctrip.com/images/fd/tg/g1/M06/FC/24/CghzflW7H_iATdynAAA-FlXAIeA738.jpg,https://you.ctrip.com/sight/wannian2428/148755204.html?scene=onlinesearch,28.732178,117.184344
知识科普型,博物馆,144181318,上犹县博物馆,0.0,0,,上犹,上犹,,,,博物馆&展馆,,否,https://dimg04.c-ctrip.com/images/fd/tg/g1/M06/FC/24/CghzflW7H_iATdynAAA-FlXAIeA738.jpg,https://you.ctrip.com/sight/shangyou2411/144181318.html?scene=onlinesearch,25.788068,114.561468
知识科普型,博物馆,145286632,南城县农耕民俗文化博物馆,0.0,0,,南城,南城,,,,博物馆&展馆,,否,https://dimg04.c-ctrip.com/images/fd/tg/g1/M06/FC/24/CghzflW7H_iATdynAAA-FlXAIeA738.jpg,https://you.ctrip.com/sight/nancheng2431/145286632.html?scene=onlinesearch,27.563469,116.604035
知识科普型,博物馆,145331002,贵溪市民俗博物馆,0.0,0,,贵溪,贵溪,,,,博物馆&展馆,,否,https://dimg04.c-ctrip.com/images/fd/tg/g1/M06/FC/24/CghzflW7H_iATdynAAA-FlXAIeA738.jpg,https://you.ctrip.com/sight/guixi1189/145331002.html?scene=onlinesearch,28.407254,117.225532
知识科普型,博物馆,145441574,鄱阳县星空失恋博物馆,0.0,0,,鄱阳,鄱阳,,,,博物馆&展馆,,否,https://dimg04.c-ctrip.com/images/fd/tg/g1/M06/FC/24/CghzflW7H_iATdynAAA-FlXAIeA738.jpg,https://you.ctrip.com/sight/poyang2385/145441574.html?scene=onlinesearch,29.013935,116.70778
知识科普型,博物馆,145534534,东生围客家博物馆,0.0,0,,安远,安远,,,,博物馆&展馆,,否,https://dimg04.c-ctrip.com/images/fd/tg/g1/M06/FC/24/CghzflW7H_iATdynAAA-FlXAIeA738.jpg,https://you.ctrip.com/sight/anyuan2381/145534534.html?scene=onlinesearch,25.010301,115.337005
知识科普型,博物馆,150307193,地球之光博物馆(原城纪店),0.0,0,,南昌县,南昌县,,,,博物馆&展馆,,否,https://dimg04.c-ctrip.com/images/fd/tg/g1/M06/FC/24/CghzflW7H_iATdynAAA-FlXAIeA738.jpg,https://you.ctrip.com/sight/nanchangcounty2429/150307193.html?scene=onlinesearch,28.528051,115.965703
知识科普型,博物馆,143748319,铅山县民俗博物馆,0.0,0,,铅山,铅山,,,,"博物馆, 博物馆&展馆",,否,https://dimg04.c-ctrip.com/images/fd/tg/g1/M08/AE/87/CghzfVW7IAOAbNKNAABCrs7mUrY425.jpg,https://you.ctrip.com/sight/yanshan2389/143748319.html?scene=onlinesearch,28.320285,117.706412
知识科普型,博物馆,145685118,铭山民信博物馆,0.0,0,,铅山,铅山,,,,博物馆&展馆,,否,https://dimg04.c-ctrip.com/images/fd/tg/g1/M06/FC/24/CghzflW7H_iATdynAAA-FlXAIeA738.jpg,https://you.ctrip.com/sight/yanshan2389/145685118.html?scene=onlinesearch,28.322346,117.720672
知识科普型,博物馆,149974206,江西省铅山县江河奇石博物馆,0.0,0,,铅山,铅山,,,,博物馆&展馆,,否,https://dimg04.c-ctrip.com/images/fd/tg/g1/M06/FC/24/CghzflW7H_iATdynAAA-FlXAIeA738.jpg,https://you.ctrip.com/sight/yanshan2389/149974206.html?scene=onlinesearch,28.322911,117.729805
知识科普型,博物馆,145193722,雅齐博物馆,0.0,0,上饶站,上饶,上饶 · 上饶站,,,,博物馆&展馆,,否,https://dimg04.c-ctrip.com/images/fd/tg/g1/M06/FC/24/CghzflW7H_iATdynAAA-FlXAIeA738.jpg,https://you.ctrip.com/sight/shangrao547/145193722.html?scene=onlinesearch,28.473474,117.989395
知识科普型,博物馆,145569492,九江星空失恋博物馆,0.0,0,浔阳楼/大中路步行街,九江,九江 · 浔阳楼/大中路步行街,,,,博物馆&展馆,,否,https://dimg04.c-ctrip.com/images/fd/tg/g1/M06/FC/24/CghzflW7H_iATdynAAA-FlXAIeA738.jpg,https://you.ctrip.com/sight/jiujiang877/145569492.html?scene=onlinesearch,29.731855,116.000625
知识科普型,博物馆,145371804,上饶市博物馆-物华天宝展厅,0.0,0,万达广场,上饶,上饶 · 万达广场,,,,,,否,https://dimg04.c-ctrip.com/images/fd/tg/g1/M06/FC/24/CghzflW7H_iATdynAAA-FlXAIeA738.jpg,https://you.ctrip.com/sight/shangrao547/145371804.html?scene=onlinesearch,28.45627,117.953814
知识科普型,博物馆,145571064,上饶市博物馆-民俗风情展厅,0.0,0,万达广场,上饶,上饶 · 万达广场,,,,,,否,https://dimg04.c-ctrip.com/images/fd/tg/g1/M06/FC/24/CghzflW7H_iATdynAAA-FlXAIeA738.jpg,https://you.ctrip.com/sight/shangrao547/145571064.html?scene=onlinesearch,28.456325,117.953746
知识科普型,博物馆,151311929,江西管理职业学院翠林校区中医药博物馆,0.0,0,,南昌县,南昌县,,,,博物馆&展馆,,否,https://dimg04.c-ctrip.com/images/fd/tg/g1/M06/FC/24/CghzflW7H_iATdynAAA-FlXAIeA738.jpg,https://you.ctrip.com/sight/nanchangcounty2429/151311929.html?scene=onlinesearch,28.50048,115.937123
知识科普型,博物馆,145226698,农耕博物馆,0.0,0,,贵溪,贵溪,,,,博物馆&展馆,,否,https://dimg04.c-ctrip.com/images/fd/tg/g1/M06/FC/24/CghzflW7H_iATdynAAA-FlXAIeA738.jpg,https://you.ctrip.com/sight/guixi1189/145226698.html?scene=onlinesearch,28.102223,116.969573
知识科普型,博物馆,145271644,观宋博物馆,0.0,0,,上栗,上栗,,,,博物馆&展馆,,否,https://dimg04.c-ctrip.com/images/fd/tg/g1/M06/FC/24/CghzflW7H_iATdynAAA-FlXAIeA738.jpg,https://you.ctrip.com/sight/shangli2403/145271644.html?scene=onlinesearch,27.689061,113.922401
知识科普型,博物馆,145336041,江西变电设备产业博物馆,0.0,0,,崇仁,崇仁,,,,博物馆&展馆,,否,https://dimg04.c-ctrip.com/images/fd/tg/g1/M06/FC/24/CghzflW7H_iATdynAAA-FlXAIeA738.jpg,https://you.ctrip.com/sight/chongren2388/145336041.html?scene=onlinesearch,27.783902,116.139895
知识科普型,博物馆,145578444,高安品正博物馆,0.0,0,,高安,高安,,,,博物馆&展馆,,否,https://dimg04.c-ctrip.com/images/fd/tg/g1/M06/FC/24/CghzflW7H_iATdynAAA-FlXAIeA738.jpg,https://you.ctrip.com/sight/gaoan1165/145578444.html?scene=onlinesearch,28.454766,115.371056
知识科普型,博物馆,145600972,Niankeke高级珠宝(珠宝博物馆),0.0,0,红谷滩万达/秋水广场,南昌,南昌 · 红谷滩万达/秋水广场,,,,博物馆&展馆,,否,https://dimg04.c-ctrip.com/images/fd/tg/g1/M06/FC/24/CghzflW7H_iATdynAAA-FlXAIeA738.jpg,https://you.ctrip.com/sight/nanchang175/145600972.html?scene=onlinesearch,28.691123,115.860922
知识科普型,博物馆,145612193,铜文化艺术博物馆,0.0,0,,丰城,丰城,,,,博物馆&展馆,,否,https://dimg04.c-ctrip.com/images/fd/tg/g1/M06/FC/24/CghzflW7H_iATdynAAA-FlXAIeA738.jpg,https://you.ctrip.com/sight/fengcheng1839/145612193.html?scene=onlinesearch,28.09466,115.795287
知识科普型,博物馆,148738906,宜黄县博物馆,0.0,0,,宜黄,宜黄,,,,博物馆&展馆,,否,https://dimg04.c-ctrip.com/images/fd/tg/g1/M06/FC/24/CghzflW7H_iATdynAAA-FlXAIeA738.jpg,https://you.ctrip.com/sight/yihuang1445979/148738906.html?scene=onlinesearch,27.561352,116.243345
知识科普型,博物馆,149554910,大余县博物馆新馆,0.0,0,,大余,大余,,,,博物馆&展馆,,否,https://dimg04.c-ctrip.com/images/fd/tg/g1/M06/FC/24/CghzflW7H_iATdynAAA-FlXAIeA738.jpg,https://you.ctrip.com/sight/dayu2395/149554910.html?scene=onlinesearch,25.39448,114.374504
知识科普型,博物馆,150352387,静一书院中国毛笔文化博物馆服务点,0.0,0,,进贤,进贤,,,,博物馆&展馆,,否,https://dimg04.c-ctrip.com/images/fd/tg/g1/M06/FC/24/CghzflW7H_iATdynAAA-FlXAIeA738.jpg,https://you.ctrip.com/sight/jinxian2402/150352387.html?scene=onlinesearch,28.293023,116.136165
知识科普型,博物馆,151282583,进贤时光博物馆(南昌进贤吾悦广场中山大道店),0.0,0,,进贤,进贤,,,,博物馆&展馆,,否,https://dimg04.c-ctrip.com/images/fd/tg/g1/M06/FC/24/CghzflW7H_iATdynAAA-FlXAIeA738.jpg,https://you.ctrip.com/sight/jinxian2402/151282583.html?scene=onlinesearch,28.397098,116.249614
知识科普型,博物馆,145393679,江西工业设计博物馆,0.0,0,南昌绿地国际博览中心/南昌国际体育中心,南昌,南昌 · 南昌绿地国际博览中心/南昌国际体育中心,,,,博物馆&展馆,,否,https://dimg04.c-ctrip.com/images/fd/tg/g1/M06/FC/24/CghzflW7H_iATdynAAA-FlXAIeA738.jpg,https://you.ctrip.com/sight/nanchang175/145393679.html?scene=onlinesearch,28.606996,115.818808
知识科普型,博物馆,148636931,余江博物馆,0.0,0,,鹰潭,鹰潭,,,,博物馆&展馆,,否,https://dimg04.c-ctrip.com/images/fd/tg/g1/M06/FC/24/CghzflW7H_iATdynAAA-FlXAIeA738.jpg,https://you.ctrip.com/sight/yingtan186/148636931.html?scene=onlinesearch,28.213974,116.832995
知识科普型,博物馆,152910632,叶鹤贤庄(非遗小吃博物馆),0.0,0,滕王阁/万寿宫,南昌,南昌 · 滕王阁/万寿宫,,,,博物馆&展馆,,否,https://dimg04.c-ctrip.com/images/fd/tg/g1/M06/FC/24/CghzflW7H_iATdynAAA-FlXAIeA738.jpg,https://you.ctrip.com/sight/nanchang175/152910632.html?scene=onlinesearch,28.680192,115.896113
知识科普型,博物馆,143736472,南昌大学生物博物馆(前湖校区),0.0,0,万象城/前湖大学城,南昌,南昌 · 万象城/前湖大学城,,,,"博物馆, 博物馆&展馆",,否,https://dimg04.c-ctrip.com/images/fd/tg/g1/M08/AE/87/CghzfVW7IAOAbNKNAABCrs7mUrY425.jpg,https://you.ctrip.com/sight/nanchang175/143736472.html?scene=onlinesearch,28.665077,115.804731
知识科普型,博物馆,145466006,赣南客家文化博物馆-自助超市,0.0,0,江南宋城/步步高新天地,赣州,赣州 · 江南宋城/步步高新天地,,,,,,否,https://dimg04.c-ctrip.com/images/fd/tg/g1/M06/FC/24/CghzflW7H_iATdynAAA-FlXAIeA738.jpg,https://you.ctrip.com/sight/ganzhou473/145466006.html?scene=onlinesearch,25.861809,114.958732
知识科普型,博物馆,145181433,路溪博物馆,0.0,0,,莲花,莲花,,,,博物馆&展馆,,否,https://dimg04.c-ctrip.com/images/fd/tg/g1/M06/FC/24/CghzflW7H_iATdynAAA-FlXAIeA738.jpg,https://you.ctrip.com/sight/lianhua1445978/145181433.html?scene=onlinesearch,27.278416,114.113846
知识科普型,博物馆,150429730,兴国民俗红色收藏博物馆,0.0,0,,兴国,兴国,,,,博物馆&展馆,,否,https://dimg04.c-ctrip.com/images/fd/tg/g1/M06/FC/24/CghzflW7H_iATdynAAA-FlXAIeA738.jpg,https://you.ctrip.com/sight/xingguo2387/150429730.html?scene=onlinesearch,26.311628,115.390269
知识科普型,博物馆,148610663,紫·博物馆,0.0,0,,兴国,兴国,,,,博物馆&展馆,,否,https://dimg04.c-ctrip.com/images/fd/tg/g1/M06/FC/24/CghzflW7H_iATdynAAA-FlXAIeA738.jpg,https://you.ctrip.com/sight/xingguo2387/148610663.html?scene=onlinesearch,26.33103,115.361249
知识科普型,博物馆,145433360,哈罗德钢琴博物馆,0.0,0,上饶师范学院,上饶,上饶 · 上饶师范学院,,,,博物馆&展馆,,否,https://dimg04.c-ctrip.com/images/fd/tg/g1/M06/FC/24/CghzflW7H_iATdynAAA-FlXAIeA738.jpg,https://you.ctrip.com/sight/shangrao547/145433360.html?scene=onlinesearch,28.423274,117.965332
知识科普型,博物馆,150384810,伦敦贝果博物馆(万达店),0.0,0,,上饶,上饶,,,,博物馆&展馆,,否,https://dimg04.c-ctrip.com/images/fd/tg/g1/M06/FC/24/CghzflW7H_iATdynAAA-FlXAIeA738.jpg,https://you.ctrip.com/sight/shangrao547/150384810.html?scene=onlinesearch,28.450646,117.962178
知识科普型,博物馆,151156519,广誉远中医药文化博物馆,0.0,0,,九江,九江,,,,博物馆&展馆,,否,https://dimg04.c-ctrip.com/images/fd/tg/g1/M06/FC/24/CghzflW7H_iATdynAAA-FlXAIeA738.jpg,https://you.ctrip.com/sight/jiujiang877/151156519.html?scene=onlinesearch,29.729142,115.990208
知识科普型,博物馆,145173778,上饶市博物馆-文脉绵长展厅,0.0,0,万达广场,上饶,上饶 · 万达广场,,,,,,否,https://dimg04.c-ctrip.com/images/fd/tg/g1/M06/FC/24/CghzflW7H_iATdynAAA-FlXAIeA738.jpg,https://you.ctrip.com/sight/shangrao547/145173778.html?scene=onlinesearch,28.456313,117.953789
知识科普型,博物馆,145334030,上饶市博物馆-热血丰碑展厅,0.0,0,万达广场,上饶,上饶 · 万达广场,,,,,,否,https://dimg04.c-ctrip.com/images/fd/tg/g1/M06/FC/24/CghzflW7H_iATdynAAA-FlXAIeA738.jpg,https://you.ctrip.com/sight/shangrao547/145334030.html?scene=onlinesearch,28.456305,117.953758
知识科普型,博物馆,144178002,南昌市博物馆绳金塔文管所,0.0,0,八一广场/王府井,南昌,南昌 · 八一广场/王府井,,,,博物馆&展馆,,否,https://dimg04.c-ctrip.com/images/fd/tg/g1/M06/FC/24/CghzflW7H_iATdynAAA-FlXAIeA738.jpg,https://you.ctrip.com/sight/nanchang175/144178002.html?scene=onlinesearch,28.666643,115.906383
知识科普型,博物馆,145301619,酒博物馆,0.0,0,滕王阁/万寿宫,南昌,南昌 · 滕王阁/万寿宫,,,,博物馆&展馆,,否,https://dimg04.c-ctrip.com/images/fd/tg/g1/M06/FC/24/CghzflW7H_iATdynAAA-FlXAIeA738.jpg,https://you.ctrip.com/sight/nanchang175/145301619.html?scene=onlinesearch,28.715182,115.924353
知识科普型,博物馆,145413803,黄腊石博物馆,0.0,0,,樟树,樟树,,,,博物馆&展馆,,否,https://dimg04.c-ctrip.com/images/fd/tg/g1/M06/FC/24/CghzflW7H_iATdynAAA-FlXAIeA738.jpg,https://you.ctrip.com/sight/zhangshu1160/145413803.html?scene=onlinesearch,28.068797,115.544187
知识科普型,博物馆,145492486,桐青艺术博物馆,0.0,0,新建中心区,南昌,南昌 · 新建中心区,,,,博物馆&展馆,,否,https://dimg04.c-ctrip.com/images/fd/tg/g1/M06/FC/24/CghzflW7H_iATdynAAA-FlXAIeA738.jpg,https://you.ctrip.com/sight/nanchang175/145492486.html?scene=onlinesearch,28.705978,115.800258
知识科普型,博物馆,149975763,永修县博物馆,0.0,0,,永修,永修,,,,博物馆&展馆,,否,https://dimg04.c-ctrip.com/images/fd/tg/g1/M06/FC/24/CghzflW7H_iATdynAAA-FlXAIeA738.jpg,https://you.ctrip.com/sight/yongxiu1848/149975763.html?scene=onlinesearch,29.018094,115.857142
知识科普型,博物馆,151305029,江西余干鄱阳湖民间博物馆,0.0,0,,余干,余干,,,,博物馆&展馆,,否,https://dimg04.c-ctrip.com/images/fd/tg/g1/M06/FC/24/CghzflW7H_iATdynAAA-FlXAIeA738.jpg,https://you.ctrip.com/sight/yugan2423/151305029.html?scene=onlinesearch,28.707885,116.698032
知识科普型,博物馆,152793637,龟文化博物馆,0.0,0,,弋阳,弋阳,,,,博物馆&展馆,,否,https://dimg04.c-ctrip.com/images/fd/tg/g1/M06/FC/24/CghzflW7H_iATdynAAA-FlXAIeA738.jpg,https://you.ctrip.com/sight/yiyang2406/152793637.html?scene=onlinesearch,28.321817,117.43099
知识科普型,博物馆,152834967,江西软件职业技术大学-老相机博物馆,0.0,0,,南昌,南昌,,,,博物馆&展馆,,否,https://dimg04.c-ctrip.com/images/fd/tg/g1/M06/FC/24/CghzflW7H_iATdynAAA-FlXAIeA738.jpg,https://you.ctrip.com/sight/nanchang175/152834967.html?scene=onlinesearch,28.908067,115.824737
知识科普型,博物馆,145602463,义门陈氏农耕博物馆,0.0,0,,抚州,抚州,,,,博物馆&展馆,,否,https://dimg04.c-ctrip.com/images/fd/tg/g1/M06/FC/24/CghzflW7H_iATdynAAA-FlXAIeA738.jpg,https://you.ctrip.com/sight/fuzhou875/145602463.html?scene=onlinesearch,28.095893,116.462511
知识科普型,博物馆,152794229,金九福钱币博物馆红色文物收藏馆,0.0,0,红谷滩万达/秋水广场,南昌,南昌 · 红谷滩万达/秋水广场,,,,博物馆&展馆,,否,https://dimg04.c-ctrip.com/images/fd/tg/g1/M06/FC/24/CghzflW7H_iATdynAAA-FlXAIeA738.jpg,https://you.ctrip.com/sight/nanchang175/152794229.html?scene=onlinesearch,28.692547,115.853654
知识科普型,博物馆,152824296,于都活体昆虫博物馆,0.0,0,,于都,于都,,,,博物馆&展馆,,否,https://dimg04.c-ctrip.com/images/fd/tg/g1/M06/FC/24/CghzflW7H_iATdynAAA-FlXAIeA738.jpg,https://you.ctrip.com/sight/yudu2419/152824296.html?scene=onlinesearch,25.961788,115.414373
知识科普型,博物馆,150148051,老酒博物馆,0.0,0,,南昌,南昌,,,,博物馆&展馆,,否,https://dimg04.c-ctrip.com/images/fd/tg/g1/M06/FC/24/CghzflW7H_iATdynAAA-FlXAIeA738.jpg,https://you.ctrip.com/sight/nanchang175/150148051.html?scene=onlinesearch,28.646394,115.781079
知识科普型,博物馆,151308424,大誉黑茶文化博物院,0.0,0,赣州经济开发区,赣州,赣州 · 赣州经济开发区,,,,,,否,https://dimg04.c-ctrip.com/images/fd/tg/g1/M06/FC/24/CghzflW7H_iATdynAAA-FlXAIeA738.jpg,https://you.ctrip.com/sight/ganzhou473/151308424.html?scene=onlinesearch,25.854138,114.818766
知识科普型,博物馆,145450216,华夏圣旨博物馆,0.0,0,滕王阁/万寿宫,南昌,南昌 · 滕王阁/万寿宫,,,,博物馆&展馆,,否,https://dimg04.c-ctrip.com/images/fd/tg/g1/M06/FC/24/CghzflW7H_iATdynAAA-FlXAIeA738.jpg,https://you.ctrip.com/sight/nanchang175/145450216.html?scene=onlinesearch,28.686387,115.887264
知识科普型,博物馆,65320275,庐山博物馆-花园,0.0,0,,庐山,庐山,,,,博物馆&展馆,,否,https://dimg04.c-ctrip.com/images/fd/tg/g1/M06/FC/24/CghzflW7H_iATdynAAA-FlXAIeA738.jpg,https://you.ctrip.com/sight/lushan2390/65320275.html?scene=onlinesearch,29.556222,115.984087
知识科普型,博物馆,143754249,黎川博物馆,0.0,0,,黎川,黎川,,,,"博物馆, 博物馆&展馆",,否,https://dimg04.c-ctrip.com/images/0HJ3n12000g87peyb011D.jpg,https://you.ctrip.com/sight/lichuan2421/143754249.html?scene=onlinesearch,27.284349,116.923867
知识科普型,博物馆,144179256,广信区博物馆,0.0,0,经济开发区/吾悦广场,上饶,上饶 · 经济开发区/吾悦广场,,,,"博物馆, 博物馆&展馆",,否,https://dimg04.c-ctrip.com/images/fd/tg/g1/M08/AE/87/CghzfVW7IAOAbNKNAABCrs7mUrY425.jpg,https://you.ctrip.com/sight/shangrao547/144179256.html?scene=onlinesearch,28.44138,117.929994
知识科普型,博物馆,145123631,永丰县博物馆,0.0,0,,永丰,永丰,,,,博物馆&展馆,,否,https://dimg04.c-ctrip.com/images/fd/tg/g1/M06/FC/24/CghzflW7H_iATdynAAA-FlXAIeA738.jpg,https://you.ctrip.com/sight/yongfeng2409/145123631.html?scene=onlinesearch,27.320672,115.430307
知识科普型,博物馆,145142991,吉安市刘品三吉州窑陶瓷艺术博物馆,0.0,0,,吉安县,吉安县,,,,博物馆&展馆,,否,https://dimg04.c-ctrip.com/images/fd/tg/g1/M06/FC/24/CghzflW7H_iATdynAAA-FlXAIeA738.jpg,https://you.ctrip.com/sight/jiancounty2392/145142991.html?scene=onlinesearch,27.032442,115.026634
知识科普型,博物馆,145157649,周氏博物馆,0.0,0,,抚州,抚州,,,,博物馆&展馆,,否,https://dimg04.c-ctrip.com/images/0HJ0p12000g90d7wc5CD0.jpg,https://you.ctrip.com/sight/fuzhou875/145157649.html?scene=onlinesearch,28.006786,116.374797
知识科普型,博物馆,145163840,上饶星空失恋博物馆,0.0,0,步行街/万力时代,上饶,上饶 · 步行街/万力时代,,,,博物馆&展馆,,否,https://dimg04.c-ctrip.com/images/fd/tg/g1/M06/FC/24/CghzflW7H_iATdynAAA-FlXAIeA738.jpg,https://you.ctrip.com/sight/shangrao547/145163840.html?scene=onlinesearch,28.448928,117.976441
知识科普型,博物馆,145167609,元丰博物馆,0.0,0,,抚州,抚州,,,,博物馆&展馆,,否,https://dimg04.c-ctrip.com/images/fd/tg/g1/M06/FC/24/CghzflW7H_iATdynAAA-FlXAIeA738.jpg,https://you.ctrip.com/sight/fuzhou875/145167609.html?scene=onlinesearch,28.006686,116.374569
知识科普型,博物馆,145173413,观宋博物馆,0.0,0,,浮梁,浮梁,,,,博物馆&展馆,,否,https://dimg04.c-ctrip.com/images/fd/tg/g1/M06/FC/24/CghzflW7H_iATdynAAA-FlXAIeA738.jpg,https://you.ctrip.com/sight/fuliang2420/145173413.html?scene=onlinesearch,29.367727,117.194589
知识科普型,博物馆,145187539,临川区博物馆,0.0,0,,抚州,抚州,,,,博物馆&展馆,,否,https://dimg04.c-ctrip.com/images/fd/tg/g1/M06/FC/24/CghzflW7H_iATdynAAA-FlXAIeA738.jpg,https://you.ctrip.com/sight/fuzhou875/145187539.html?scene=onlinesearch,27.936517,116.316685
知识科普型,博物馆,145188737,江西客家博物院-自动售卖机,0.0,0,七鲤古镇/梅林古镇,赣州,赣州 · 七鲤古镇/梅林古镇,,,,,,否,https://dimg04.c-ctrip.com/images/fd/tg/g1/M06/FC/24/CghzflW7H_iATdynAAA-FlXAIeA738.jpg,https://you.ctrip.com/sight/ganzhou473/145188737.html?scene=onlinesearch,25.866703,115.036778
知识科普型,博物馆,145198663,客家博物馆(圆围),0.0,0,七鲤古镇/梅林古镇,赣州,赣州 · 七鲤古镇/梅林古镇,,,,博物馆&展馆,,否,https://dimg04.c-ctrip.com/images/fd/tg/g1/M06/FC/24/CghzflW7H_iATdynAAA-FlXAIeA738.jpg,https://you.ctrip.com/sight/ganzhou473/145198663.html?scene=onlinesearch,25.866672,115.034677
知识科普型,博物馆,145205163,中国手博物馆,0.0,0,朝阳西湖万达/动物园/新洪城大市场,南昌,南昌 · 朝阳西湖万达/动物园/新洪城大市场,,,,博物馆&展馆,,否,https://dimg04.c-ctrip.com/images/0HJ6j12000g64penkE9CC.jpg,https://you.ctrip.com/sight/nanchang175/145205163.html?scene=onlinesearch,28.650783,115.874547
知识科普型,博物馆,145215357,庐山抗战博物馆-多功能厅,0.0,0,,庐山,庐山,,,,,,否,https://dimg04.c-ctrip.com/images/fd/tg/g1/M06/FC/24/CghzflW7H_iATdynAAA-FlXAIeA738.jpg,https://you.ctrip.com/sight/lushan2390/145215357.html?scene=onlinesearch,29.564909,115.983124
知识科普型,博物馆,145217393,江西木雕博物馆,0.0,0,,抚州,抚州,,,,博物馆&展馆,,否,https://dimg04.c-ctrip.com/images/fd/tg/g1/M06/FC/24/CghzflW7H_iATdynAAA-FlXAIeA738.jpg,https://you.ctrip.com/sight/fuzhou875/145217393.html?scene=onlinesearch,28.130785,116.54888
知识科普型,博物馆,145222699,吉州窑古茶瓷博物馆,0.0,0,,吉安县,吉安县,,,,博物馆&展馆,,否,https://dimg04.c-ctrip.com/images/0HJ0112000g362y7a8004.jpg,https://you.ctrip.com/sight/jiancounty2392/145222699.html?scene=onlinesearch,27.032255,115.019854
知识科普型,博物馆,145242601,知青印象博物馆,0.0,0,,萍乡,萍乡,,,,博物馆&展馆,,否,https://dimg04.c-ctrip.com/images/fd/tg/g1/M06/FC/24/CghzflW7H_iATdynAAA-FlXAIeA738.jpg,https://you.ctrip.com/sight/pingxiang714/145242601.html?scene=onlinesearch,27.420214,113.709962
知识科普型,博物馆,145262141,三品斋艺术博物馆,0.0,0,,萍乡,萍乡,,,,博物馆&展馆,,否,https://dimg04.c-ctrip.com/images/0HJ3512000g90uegx6C3E.jpg,https://you.ctrip.com/sight/pingxiang714/145262141.html?scene=onlinesearch,27.646332,113.876144
知识科普型,博物馆,145262184,江西森林生态艺术博物馆,0.0,0,,南昌,南昌,,,,博物馆&展馆,,否,https://dimg04.c-ctrip.com/images/fd/tg/g1/M06/FC/24/CghzflW7H_iATdynAAA-FlXAIeA738.jpg,https://you.ctrip.com/sight/nanchang175/145262184.html?scene=onlinesearch,28.704707,115.933941
知识科普型,博物馆,145262209,南昌县森林博物馆,0.0,0,南昌县城区,南昌县,南昌县 · 南昌县城区,,,,博物馆&展馆,,否,https://dimg04.c-ctrip.com/images/fd/tg/g1/M06/FC/24/CghzflW7H_iATdynAAA-FlXAIeA738.jpg,https://you.ctrip.com/sight/nanchangcounty2429/145262209.html?scene=onlinesearch,28.551125,115.951402
知识科普型,博物馆,145284404,七宝VR酒文化博物馆,0.0,0,,南昌县,南昌县,,,,博物馆&展馆,,否,https://dimg04.c-ctrip.com/images/0HJ0c12000g6qrzegB33E.jpg,https://you.ctrip.com/sight/nanchangcounty2429/145284404.html?scene=onlinesearch,28.575789,115.870835
知识科普型,博物馆,145291751,巷道博物馆,0.0,0,,萍乡,萍乡,,,,博物馆&展馆,,否,https://dimg04.c-ctrip.com/images/fd/tg/g1/M06/FC/24/CghzflW7H_iATdynAAA-FlXAIeA738.jpg,https://you.ctrip.com/sight/pingxiang714/145291751.html?scene=onlinesearch,27.629297,113.863144
知识科普型,博物馆,145308216,中国南康甜柚文化博物馆,0.0,0,,赣州,赣州,,,,博物馆&展馆,,否,https://dimg04.c-ctrip.com/images/fd/tg/g1/M06/FC/24/CghzflW7H_iATdynAAA-FlXAIeA738.jpg,https://you.ctrip.com/sight/ganzhou473/145308216.html?scene=onlinesearch,25.661501,114.656658
知识科普型,博物馆,145310977,新余匾额博物馆,0.0,0,,新余,新余,,,,博物馆&展馆,,否,https://dimg04.c-ctrip.com/images/0HJ4k12000g8saga8DF41.jpg,https://you.ctrip.com/sight/xinyu878/145310977.html?scene=onlinesearch,27.802351,114.959788
知识科普型,博物馆,145312385,三雕博物馆,0.0,0,,黎川,黎川,,,,博物馆&展馆,,否,https://dimg04.c-ctrip.com/images/fd/tg/g1/M06/FC/24/CghzflW7H_iATdynAAA-FlXAIeA738.jpg,https://you.ctrip.com/sight/lichuan2421/145312385.html?scene=onlinesearch,27.234861,116.914644
知识科普型,博物馆,145320886,周万顺博物馆,0.0,0,,抚州,抚州,,,,博物馆&展馆,,否,https://dimg04.c-ctrip.com/images/fd/tg/g1/M06/FC/24/CghzflW7H_iATdynAAA-FlXAIeA738.jpg,https://you.ctrip.com/sight/fuzhou875/145320886.html?scene=onlinesearch,28.238933,116.58548
知识科普型,博物馆,145323951,洪州窑青瓷博物馆,0.0,0,南昌县城区,南昌县,南昌县 · 南昌县城区,,,,博物馆&展馆,,否,https://dimg04.c-ctrip.com/images/fd/tg/g1/M06/FC/24/CghzflW7H_iATdynAAA-FlXAIeA738.jpg,https://you.ctrip.com/sight/nanchangcounty2429/145323951.html?scene=onlinesearch,28.563606,115.937497
知识科普型,博物馆,145327374,客家博物馆健走步道,0.0,0,七鲤古镇/梅林古镇,赣州,赣州 · 七鲤古镇/梅林古镇,,,,,,否,https://dimg04.c-ctrip.com/images/fd/tg/g1/M06/FC/24/CghzflW7H_iATdynAAA-FlXAIeA738.jpg,https://you.ctrip.com/sight/ganzhou473/145327374.html?scene=onlinesearch,25.866127,115.03534
知识科普型,博物馆,145345397,金溪传统文化博物馆,0.0,0,,金溪,金溪,,,,博物馆&展馆,,否,https://dimg04.c-ctrip.com/images/fd/tg/g1/M06/FC/24/CghzflW7H_iATdynAAA-FlXAIeA738.jpg,https://you.ctrip.com/sight/jinxi2405/145345397.html?scene=onlinesearch,28.000632,116.767471
知识科普型,博物馆,145350946,竹够昊竹艺文化博物馆,0.0,0,,南昌县,南昌县,,,,博物馆&展馆,,否,https://dimg04.c-ctrip.com/images/fd/tg/g1/M06/FC/24/CghzflW7H_iATdynAAA-FlXAIeA738.jpg,https://you.ctrip.com/sight/nanchangcounty2429/145350946.html?scene=onlinesearch,28.820624,116.001466
知识科普型,博物馆,145351099,渼陂古银器博物馆,0.0,0,,吉安,吉安,,,,博物馆&展馆,,否,https://dimg04.c-ctrip.com/images/fd/tg/g1/M06/FC/24/CghzflW7H_iATdynAAA-FlXAIeA738.jpg,https://you.ctrip.com/sight/jian876/145351099.html?scene=onlinesearch,26.946055,115.126765
知识科普型,博物馆,145352470,安远星空失恋博物馆,0.0,0,,安远,安远,,,,博物馆&展馆,,否,https://dimg04.c-ctrip.com/images/fd/tg/g1/M06/FC/24/CghzflW7H_iATdynAAA-FlXAIeA738.jpg,https://you.ctrip.com/sight/anyuan2381/145352470.html?scene=onlinesearch,25.128898,115.394041
知识科普型,博物馆,145354259,永宁殿(木雕博物馆),0.0,0,,萍乡,萍乡,,,,博物馆&展馆,,否,https://dimg04.c-ctrip.com/images/fd/tg/g1/M06/FC/24/CghzflW7H_iATdynAAA-FlXAIeA738.jpg,https://you.ctrip.com/sight/pingxiang714/145354259.html?scene=onlinesearch,27.61168,113.89916
知识科普型,博物馆,145354345,林和顺博物馆,0.0,0,步行街/万力时代,上饶,上饶 · 步行街/万力时代,,,,博物馆&展馆,,否,https://dimg04.c-ctrip.com/images/fd/tg/g1/M06/FC/24/CghzflW7H_iATdynAAA-FlXAIeA738.jpg,https://you.ctrip.com/sight/shangrao547/145354345.html?scene=onlinesearch,28.446761,117.981602
知识科普型,博物馆,145363440,奉新县博物馆,0.0,0,,奉新,奉新,,,,博物馆&展馆,,否,https://dimg04.c-ctrip.com/images/fd/tg/g1/M06/FC/24/CghzflW7H_iATdynAAA-FlXAIeA738.jpg,https://you.ctrip.com/sight/fengxin2413/145363440.html?scene=onlinesearch,28.703268,115.388741
知识科普型,博物馆,145365713,油槽下围博物馆,0.0,0,,龙南,龙南,,,,博物馆&展馆,,否,https://dimg04.c-ctrip.com/images/0HJ5612000g93aj60B091.jpg,https://you.ctrip.com/sight/longnan2424/145365713.html?scene=onlinesearch,24.639395,114.768191
知识科普型,博物馆,145371099,江西茶叶博物馆,0.0,0,,南昌县,南昌县,,,,博物馆&展馆,,否,https://dimg04.c-ctrip.com/images/fd/tg/g1/M06/FC/24/CghzflW7H_iATdynAAA-FlXAIeA738.jpg,https://you.ctrip.com/sight/nanchangcounty2429/145371099.html?scene=onlinesearch,28.374572,116.011632
知识科普型,博物馆,145390483,长月博物馆,0.0,0,高新技术开发区及昌东商圈,南昌,南昌 · 高新技术开发区及昌东商圈,,,,博物馆&展馆,,否,https://dimg04.c-ctrip.com/images/fd/tg/g1/M06/FC/24/CghzflW7H_iATdynAAA-FlXAIeA738.jpg,https://you.ctrip.com/sight/nanchang175/145390483.html?scene=onlinesearch,28.659457,115.965784
知识科普型,博物馆,145411604,赖德全现代美术博物馆,0.0,0,,浮梁,浮梁,,,,博物馆&展馆,,否,https://dimg04.c-ctrip.com/images/fd/tg/g1/M06/FC/24/CghzflW7H_iATdynAAA-FlXAIeA738.jpg,https://you.ctrip.com/sight/fuliang2420/145411604.html?scene=onlinesearch,29.373102,117.189222
知识科普型,博物馆,145435365,婚书文化博物馆,0.0,0,,抚州,抚州,,,,博物馆&展馆,,否,https://dimg04.c-ctrip.com/images/0HJ3912000g31q91f2915.jpg,https://you.ctrip.com/sight/fuzhou875/145435365.html?scene=onlinesearch,27.997117,116.369469
知识科普型,博物馆,145450119,星空博物馆(茨荸老街店),0.0,0,,贵溪,贵溪,,,,博物馆&展馆,,否,https://dimg04.c-ctrip.com/images/fd/tg/g1/M06/FC/24/CghzflW7H_iATdynAAA-FlXAIeA738.jpg,https://you.ctrip.com/sight/guixi1189/145450119.html?scene=onlinesearch,28.286751,117.212477
知识科普型,博物馆,145462686,中国工艺美术大师博物馆,0.0,0,,南昌,南昌,,,,博物馆&展馆,,否,https://dimg04.c-ctrip.com/images/fd/tg/g1/M06/FC/24/CghzflW7H_iATdynAAA-FlXAIeA738.jpg,https://you.ctrip.com/sight/nanchang175/145462686.html?scene=onlinesearch,28.609826,115.92084
知识科普型,博物馆,145473647,松云博物馆,0.0,0,八一广场/王府井,南昌,南昌 · 八一广场/王府井,,,,博物馆&展馆,,否,https://dimg04.c-ctrip.com/images/0HJ0412000g6xv13nD538.jpg,https://you.ctrip.com/sight/nanchang175/145473647.html?scene=onlinesearch,28.665587,115.912352
知识科普型,博物馆,145474386,金溪县思明博物馆,0.0,0,,金溪,金溪,,,,博物馆&展馆,,否,https://dimg04.c-ctrip.com/images/1me3q12000dx1ouhzD0C1.jpg,https://you.ctrip.com/sight/jinxi2405/145474386.html?scene=onlinesearch,27.924578,116.742807
知识科普型,博物馆,145491280,江西竞道酒文化博物馆,0.0,0,,樟树,樟树,,,,博物馆&展馆,,否,https://dimg04.c-ctrip.com/images/fd/tg/g1/M06/FC/24/CghzflW7H_iATdynAAA-FlXAIeA738.jpg,https://you.ctrip.com/sight/zhangshu1160/145491280.html?scene=onlinesearch,28.070197,115.549118
知识科普型,博物馆,145494680,汝水森林公园-博物馆,0.0,0,,抚州,抚州,,,,博物馆&展馆,,否,https://dimg04.c-ctrip.com/images/0HJ4m12000g6ardebA7DC.jpg,https://you.ctrip.com/sight/fuzhou875/145494680.html?scene=onlinesearch,27.973319,116.388547
知识科普型,博物馆,145503107,博物馆站,0.0,0,,庐山,庐山,,,,,,否,https://dimg04.c-ctrip.com/images/0HJ6o12000g2ugb284FC1.jpg,https://you.ctrip.com/sight/lushan2390/145503107.html?scene=onlinesearch,29.556623,115.983476
知识科普型,博物馆,145529205,富林传世国木文化博物馆,0.0,0,恒茂梦时代周边,南昌,南昌 · 恒茂梦时代周边,,,,博物馆&展馆,,否,https://dimg04.c-ctrip.com/images/0HJ5n12000g2udqvi6C94.jpg,https://you.ctrip.com/sight/nanchang175/145529205.html?scene=onlinesearch,28.655394,115.953279
知识科普型,博物馆,145540198,中华贤母园-博物馆,0.0,0,庐山火车站商圈,九江,九江 · 庐山火车站商圈,,,,,,否,https://dimg04.c-ctrip.com/images/fd/tg/g1/M06/FC/24/CghzflW7H_iATdynAAA-FlXAIeA738.jpg,https://you.ctrip.com/sight/jiujiang877/145540198.html?scene=onlinesearch,29.61624,115.907721
知识科普型,博物馆,145548644,金坪风情小镇骑行道-博物馆,0.0,0,,峡江,峡江,,,,,,否,https://dimg04.c-ctrip.com/images/fd/tg/g1/M06/FC/24/CghzflW7H_iATdynAAA-FlXAIeA738.jpg,https://you.ctrip.com/sight/xiajiang143848/145548644.html?scene=onlinesearch,27.505338,115.29447
知识科普型,博物馆,145548678,欧山村渔耕文化博物馆,0.0,0,,分宜,分宜,,,,博物馆&展馆,,否,https://dimg04.c-ctrip.com/images/fd/tg/g1/M06/FC/24/CghzflW7H_iATdynAAA-FlXAIeA738.jpg,https://you.ctrip.com/sight/fenyi2416/145548678.html?scene=onlinesearch,27.73096,114.754509
知识科普型,博物馆,145549267,丰城市石博物馆,0.0,0,,丰城,丰城,,,,博物馆&展馆,,否,https://dimg04.c-ctrip.com/images/fd/tg/g1/M06/FC/24/CghzflW7H_iATdynAAA-FlXAIeA738.jpg,https://you.ctrip.com/sight/fengcheng1839/145549267.html?scene=onlinesearch,28.184165,115.816742
知识科普型,博物馆,145558047,弋阳县博物馆,0.0,0,,弋阳,弋阳,,,,博物馆&展馆,,否,https://dimg04.c-ctrip.com/images/fd/tg/g1/M06/FC/24/CghzflW7H_iATdynAAA-FlXAIeA738.jpg,https://you.ctrip.com/sight/yiyang2406/145558047.html?scene=onlinesearch,28.379249,117.455686
知识科普型,博物馆,145568407,吉州区博物馆,0.0,0,人民广场/中心人民医院,吉安,吉安 · 人民广场/中心人民医院,,,,博物馆&展馆,,否,https://dimg04.c-ctrip.com/images/fd/tg/g1/M06/FC/24/CghzflW7H_iATdynAAA-FlXAIeA738.jpg,https://you.ctrip.com/sight/jian876/145568407.html?scene=onlinesearch,27.129349,115.002685
知识科普型,博物馆,145571609,南昌宝林博物馆,0.0,0,朝阳西湖万达/动物园/新洪城大市场,南昌,南昌 · 朝阳西湖万达/动物园/新洪城大市场,,,,博物馆&展馆,,否,https://dimg04.c-ctrip.com/images/0HJ1m12000g90i54fC0F9.jpg,https://you.ctrip.com/sight/nanchang175/145571609.html?scene=onlinesearch,28.6378,115.871579
知识科普型,博物馆,145573780,尉廷围博物馆,0.0,0,,安远,安远,,,,博物馆&展馆,,否,https://dimg04.c-ctrip.com/images/fd/tg/g1/M06/FC/24/CghzflW7H_iATdynAAA-FlXAIeA738.jpg,https://you.ctrip.com/sight/anyuan2381/145573780.html?scene=onlinesearch,25.006903,115.332537
知识科普型,博物馆,145586829,永新记忆博物馆,0.0,0,,永新,永新,,,,博物馆&展馆,,否,https://dimg04.c-ctrip.com/images/fd/tg/g1/M06/FC/24/CghzflW7H_iATdynAAA-FlXAIeA738.jpg,https://you.ctrip.com/sight/yongxin2412/145586829.html?scene=onlinesearch,26.826572,114.31234
知识科普型,博物馆,145597654,赣鄱婚俗博物馆,0.0,0,恒茂梦时代周边,南昌,南昌 · 恒茂梦时代周边,,,,博物馆&展馆,,否,https://dimg04.c-ctrip.com/images/fd/tg/g1/M06/FC/24/CghzflW7H_iATdynAAA-FlXAIeA738.jpg,https://you.ctrip.com/sight/nanchang175/145597654.html?scene=onlinesearch,28.673213,115.949625
知识科普型,博物馆,145607395,鹰潭市黄蜡石艺术博物馆,0.0,0,,鹰潭,鹰潭,,,,博物馆&展馆,,否,https://dimg04.c-ctrip.com/images/0HJ5x12000g2xcz3r1BE0.jpg,https://you.ctrip.com/sight/yingtan186/145607395.html?scene=onlinesearch,28.278152,117.011756
知识科普型,博物馆,145607402,黄蜡石博物馆(体验店),0.0,0,,鹰潭,鹰潭,,,,博物馆&展馆,,否,https://dimg04.c-ctrip.com/images/fd/tg/g1/M06/FC/24/CghzflW7H_iATdynAAA-FlXAIeA738.jpg,https://you.ctrip.com/sight/yingtan186/145607402.html?scene=onlinesearch,28.249968,117.036335
知识科普型,博物馆,145607921,陶瓷设计博物馆,0.0,0,,丰城,丰城,,,,博物馆&展馆,,否,https://dimg04.c-ctrip.com/images/fd/tg/g1/M06/FC/24/CghzflW7H_iATdynAAA-FlXAIeA738.jpg,https://you.ctrip.com/sight/fengcheng1839/145607921.html?scene=onlinesearch,28.24203,115.772485
知识科普型,博物馆,145634746,古酒博物馆,0.0,0,,上高,上高,,,,博物馆&展馆,,否,https://dimg04.c-ctrip.com/images/fd/tg/g1/M06/FC/24/CghzflW7H_iATdynAAA-FlXAIeA738.jpg,https://you.ctrip.com/sight/shanggao2400/145634746.html?scene=onlinesearch,28.225164,114.945376
知识科普型,博物馆,145637279,于都县长征源省级湿地公园博物馆,0.0,0,,于都,于都,,,,博物馆&展馆,,否,https://dimg04.c-ctrip.com/images/fd/tg/g1/M06/FC/24/CghzflW7H_iATdynAAA-FlXAIeA738.jpg,https://you.ctrip.com/sight/yudu2419/145637279.html?scene=onlinesearch,25.955241,115.404626
知识科普型,博物馆,145656421,南昌中山艺术博物馆,0.0,0,,南昌县,南昌县,,,,博物馆&展馆,,否,https://dimg04.c-ctrip.com/images/0HJ3f12000g91zfn9506C.jpg,https://you.ctrip.com/sight/nanchangcounty2429/145656421.html?scene=onlinesearch,28.545784,115.860139
知识科普型,博物馆,145685797,庐陵民俗博物馆,0.0,0,人民广场/中心人民医院,吉安,吉安 · 人民广场/中心人民医院,,,,博物馆&展馆,,否,https://dimg04.c-ctrip.com/images/fd/tg/g1/M06/FC/24/CghzflW7H_iATdynAAA-FlXAIeA738.jpg,https://you.ctrip.com/sight/jian876/145685797.html?scene=onlinesearch,27.14453,115.01579
知识科普型,博物馆,145687071,象山心学博物馆,0.0,0,,金溪,金溪,,,,博物馆&展馆,,否,https://dimg04.c-ctrip.com/images/fd/tg/g1/M06/FC/24/CghzflW7H_iATdynAAA-FlXAIeA738.jpg,https://you.ctrip.com/sight/jinxi2405/145687071.html?scene=onlinesearch,27.910397,116.795688
知识科普型,博物馆,145691645,赣南师范大学黄金校区-客家博物馆,0.0,0,赣州大学城,赣州,赣州 · 赣州大学城,,,,博物馆&展馆,,否,https://dimg04.c-ctrip.com/images/fd/tg/g1/M06/FC/24/CghzflW7H_iATdynAAA-FlXAIeA738.jpg,https://you.ctrip.com/sight/ganzhou473/145691645.html?scene=onlinesearch,25.799023,114.890707
知识科普型,博物馆,145701583,美丽山村农耕文化博物馆,0.0,0,,信丰,信丰,,,,博物馆&展馆,,否,https://dimg04.c-ctrip.com/images/fd/tg/g1/M06/FC/24/CghzflW7H_iATdynAAA-FlXAIeA738.jpg,https://you.ctrip.com/sight/xinfeng2380/145701583.html?scene=onlinesearch,25.329851,115.269024
知识科普型,博物馆,145711467,税票博物馆,0.0,0,昌北大学城区,南昌,南昌 · 昌北大学城区,,,,博物馆&展馆,,否,https://dimg04.c-ctrip.com/images/fd/tg/g1/M06/FC/24/CghzflW7H_iATdynAAA-FlXAIeA738.jpg,https://you.ctrip.com/sight/nanchang175/145711467.html?scene=onlinesearch,28.750101,115.860466
知识科普型,博物馆,145720213,都昌县民俗博物馆,0.0,0,,都昌,都昌,,,,博物馆&展馆,,否,https://dimg04.c-ctrip.com/images/fd/tg/g1/M06/FC/24/CghzflW7H_iATdynAAA-FlXAIeA738.jpg,https://you.ctrip.com/sight/duchang2407/145720213.html?scene=onlinesearch,29.256671,116.194168
知识科普型,博物馆,148569223,秀挹三江腌菜博物馆,0.0,0,,南昌县,南昌县,,,,博物馆&展馆,,否,https://dimg04.c-ctrip.com/images/0HJ2n12000g8o6khvA01C.jpg,https://you.ctrip.com/sight/nanchangcounty2429/148569223.html?scene=onlinesearch,28.295211,116.01855
知识科普型,博物馆,148593636,金溪县森林湿地博物馆,0.0,0,,金溪,金溪,,,,博物馆&展馆,,否,https://dimg04.c-ctrip.com/images/fd/tg/g1/M06/FC/24/CghzflW7H_iATdynAAA-FlXAIeA738.jpg,https://you.ctrip.com/sight/jinxi2405/148593636.html?scene=onlinesearch,27.925273,116.758267
知识科普型,博物馆,148598999,穆宫博物馆,0.0,0,,浮梁,浮梁,,,,博物馆&展馆,,否,https://dimg04.c-ctrip.com/images/fd/tg/g1/M06/FC/24/CghzflW7H_iATdynAAA-FlXAIeA738.jpg,https://you.ctrip.com/sight/fuliang2420/148598999.html?scene=onlinesearch,29.345715,117.135598
知识科普型,博物馆,148610382,庶民博物馆,0.0,0,学院区,宜春,宜春 · 学院区,,,,博物馆&展馆,,否,https://dimg04.c-ctrip.com/images/fd/tg/g1/M06/FC/24/CghzflW7H_iATdynAAA-FlXAIeA738.jpg,https://you.ctrip.com/sight/yichun743/148610382.html?scene=onlinesearch,27.801397,114.383755
知识科普型,博物馆,149312713,南昌市西江陶瓷艺术博物馆,0.0,0,八一广场/王府井,南昌,南昌 · 八一广场/王府井,,,,博物馆&展馆,,否,https://dimg04.c-ctrip.com/images/fd/tg/g1/M06/FC/24/CghzflW7H_iATdynAAA-FlXAIeA738.jpg,https://you.ctrip.com/sight/nanchang175/149312713.html?scene=onlinesearch,28.665494,115.911996
知识科普型,博物馆,149355067,若兰旗袍博物馆,0.0,0,梅岭风景区,南昌,南昌 · 梅岭风景区,,,,,,否,https://dimg04.c-ctrip.com/images/fd/tg/g2/M09/B3/FD/CghzgFW7TBOAaqc_AAA9FJcymtg610.jpg,https://you.ctrip.com/sight/nanchang175/149355067.html?scene=onlinesearch,28.791134,115.767869
知识科普型,博物馆,149381927,BLOOMING不落花艺博物馆(恒大御府店),0.0,0,,萍乡,萍乡,,,,,,否,https://dimg04.c-ctrip.com/images/fd/tg/g1/M06/FC/24/CghzflW7H_iATdynAAA-FlXAIeA738.jpg,https://you.ctrip.com/sight/pingxiang714/149381927.html?scene=onlinesearch,27.662754,113.902789
知识科普型,博物馆,149550731,山水涧艺术博物馆,0.0,0,高新技术开发区及昌东商圈,南昌,南昌 · 高新技术开发区及昌东商圈,,,,博物馆&展馆,,否,https://dimg04.c-ctrip.com/images/fd/tg/g1/M06/FC/24/CghzflW7H_iATdynAAA-FlXAIeA738.jpg,https://you.ctrip.com/sight/nanchang175/149550731.html?scene=onlinesearch,28.721108,115.994243
知识科普型,博物馆,149624677,都昌县博物馆,0.0,0,,都昌,都昌,,,,博物馆&展馆,,否,https://dimg04.c-ctrip.com/images/fd/tg/g1/M06/FC/24/CghzflW7H_iATdynAAA-FlXAIeA738.jpg,https://you.ctrip.com/sight/duchang2407/149624677.html?scene=onlinesearch,29.259921,116.201194
知识科普型,博物馆,149645859,江西·华南博物馆,0.0,0,朝阳西湖万达/动物园/新洪城大市场,南昌,南昌 · 朝阳西湖万达/动物园/新洪城大市场,,,,博物馆&展馆,,否,https://dimg04.c-ctrip.com/images/fd/tg/g1/M06/FC/24/CghzflW7H_iATdynAAA-FlXAIeA738.jpg,https://you.ctrip.com/sight/nanchang175/149645859.html?scene=onlinesearch,28.648033,115.899369
知识科普型,博物馆,149952965,石城国家地质公园博物馆,0.0,0,,石城,石城,,,,博物馆&展馆,,否,https://dimg04.c-ctrip.com/images/fd/tg/g1/M06/FC/24/CghzflW7H_iATdynAAA-FlXAIeA738.jpg,https://you.ctrip.com/sight/shicheng2415/149952965.html?scene=onlinesearch,26.282864,116.375745
知识科普型,博物馆,149955830,安源国家矿山公园博物馆,0.0,0,,萍乡,萍乡,,,,博物馆&展馆,,否,https://dimg04.c-ctrip.com/images/fd/tg/g1/M06/FC/24/CghzflW7H_iATdynAAA-FlXAIeA738.jpg,https://you.ctrip.com/sight/pingxiang714/149955830.html?scene=onlinesearch,27.609072,113.900344
知识科普型,博物馆,149971455,信丰县博物馆,0.0,0,,信丰,信丰,,,,博物馆&展馆,,否,https://dimg04.c-ctrip.com/images/fd/tg/g1/M06/FC/24/CghzflW7H_iATdynAAA-FlXAIeA738.jpg,https://you.ctrip.com/sight/xinfeng2380/149971455.html?scene=onlinesearch,25.372245,114.952599
知识科普型,博物馆,149989010,艺术博物馆,0.0,0,,安义,安义,,,,"博物馆&展馆, 美术馆&艺术馆",,否,https://dimg04.c-ctrip.com/images/fd/tg/g1/M06/FC/24/CghzflW7H_iATdynAAA-FlXAIeA738.jpg,https://you.ctrip.com/sight/anyi2378/149989010.html?scene=onlinesearch,28.754169,115.615267
知识科普型,博物馆,150149291,青铜博物馆草莓采摘园,0.0,0,,新干,新干,,,,,,否,https://dimg04.c-ctrip.com/images/0102u1200086k28vc0A5C.jpg,https://you.ctrip.com/sight/xingan2384/150149291.html?scene=onlinesearch,27.922232,115.459366
知识科普型,博物馆,150157871,湖景兄弟酒庄中国-萍乡雷锋文化博物馆馆长工作站,0.0,0,,上栗,上栗,,,,博物馆&展馆,,否,https://dimg04.c-ctrip.com/images/fd/tg/g1/M06/FC/24/CghzflW7H_iATdynAAA-FlXAIeA738.jpg,https://you.ctrip.com/sight/shangli2403/150157871.html?scene=onlinesearch,27.883829,113.800266
知识科普型,博物馆,150197193,分宜麻博物馆E栋,0.0,0,,分宜,分宜,,,,博物馆&展馆,,否,https://dimg04.c-ctrip.com/images/fd/tg/g1/M06/FC/24/CghzflW7H_iATdynAAA-FlXAIeA738.jpg,https://you.ctrip.com/sight/fenyi2416/150197193.html?scene=onlinesearch,27.821674,114.707837
知识科普型,博物馆,150208906,赣州市经开区世客街客家非遗博物馆,0.0,0,,赣州,赣州,,,,博物馆&展馆,,否,https://dimg04.c-ctrip.com/images/fd/tg/g1/M06/FC/24/CghzflW7H_iATdynAAA-FlXAIeA738.jpg,https://you.ctrip.com/sight/ganzhou473/150208906.html?scene=onlinesearch,25.85989,114.902527
知识科普型,博物馆,150239751,缘音之恋恋爱博物馆(赣州店),0.0,0,,赣州,赣州,,,,博物馆&展馆,,否,https://dimg04.c-ctrip.com/images/fd/tg/g1/M06/FC/24/CghzflW7H_iATdynAAA-FlXAIeA738.jpg,https://you.ctrip.com/sight/ganzhou473/150239751.html?scene=onlinesearch,25.855763,114.946749
知识科普型,博物馆,150246437,亿森源精油芳香博物馆,0.0,0,,吉安,吉安,,,,博物馆&展馆,,否,https://dimg04.c-ctrip.com/images/fd/tg/g1/M06/FC/24/CghzflW7H_iATdynAAA-FlXAIeA738.jpg,https://you.ctrip.com/sight/jian876/150246437.html?scene=onlinesearch,26.94477,115.124017
知识科普型,博物馆,150355873,景德镇老年大学-中国陶瓷博物馆,0.0,0,,景德镇,景德镇,,,,博物馆&展馆,,否,https://dimg04.c-ctrip.com/images/fd/tg/g1/M06/FC/24/CghzflW7H_iATdynAAA-FlXAIeA738.jpg,https://you.ctrip.com/sight/jingdezhen405/150355873.html?scene=onlinesearch,29.322234,117.22365
知识科普型,博物馆,150384780,黎珂省医研肤博物馆,0.0,0,,南昌,南昌,,,,博物馆&展馆,,否,https://dimg04.c-ctrip.com/images/fd/tg/g1/M06/FC/24/CghzflW7H_iATdynAAA-FlXAIeA738.jpg,https://you.ctrip.com/sight/nanchang175/150384780.html?scene=onlinesearch,28.698279,115.873864
知识科普型,博物馆,150402794,字节基地个人计算机博物馆,0.0,0,,南昌,南昌,,,,博物馆&展馆,,否,https://dimg04.c-ctrip.com/images/fd/tg/g1/M06/FC/24/CghzflW7H_iATdynAAA-FlXAIeA738.jpg,https://you.ctrip.com/sight/nanchang175/150402794.html?scene=onlinesearch,28.657462,115.945414
知识科普型,博物馆,151347006,景泰蓝·瓷舍(景德镇中国陶瓷博物馆店),0.0,0,古窑民俗博览区/中国陶瓷博物馆,景德镇,景德镇 · 古窑民俗博览区/中国陶瓷博物馆,,,,,,否,https://dimg04.c-ctrip.com/images/fd/tg/g1/M06/FC/24/CghzflW7H_iATdynAAA-FlXAIeA738.jpg,https://you.ctrip.com/sight/jingdezhen405/151347006.html?scene=onlinesearch,29.279798,117.181971
知识科普型,博物馆,152790842,世界灌溉工程遗产博物馆,0.0,0,,崇义,崇义,,,,博物馆&展馆,,否,https://dimg04.c-ctrip.com/images/fd/tg/g1/M06/FC/24/CghzflW7H_iATdynAAA-FlXAIeA738.jpg,https://you.ctrip.com/sight/chongyi2391/152790842.html?scene=onlinesearch,25.761768,114.052298
知识科普型,博物馆,152825166,软件博物馆,0.0,0,,南昌,南昌,,,,博物馆&展馆,,否,https://dimg04.c-ctrip.com/images/fd/tg/g1/M06/FC/24/CghzflW7H_iATdynAAA-FlXAIeA738.jpg,https://you.ctrip.com/sight/nanchang175/152825166.html?scene=onlinesearch,28.908183,115.824407
知识科普型,博物馆,152834425,蒙古大营(陶瓷博物馆店),0.0,0,古窑民俗博览区/中国陶瓷博物馆,景德镇,景德镇 · 古窑民俗博览区/中国陶瓷博物馆,,,,,,否,https://dimg04.c-ctrip.com/images/fd/tg/g1/M06/FC/24/CghzflW7H_iATdynAAA-FlXAIeA738.jpg,https://you.ctrip.com/sight/jingdezhen405/152834425.html?scene=onlinesearch,29.269386,117.187204
知识科普型,博物馆,152842302,婺源歙砚文化博物馆,0.0,0,,婺源,婺源,,,,,,否,https://dimg04.c-ctrip.com/images/fd/tg/g1/M06/FC/24/CghzflW7H_iATdynAAA-FlXAIeA738.jpg,https://you.ctrip.com/sight/wuyuan446/152842302.html?scene=onlinesearch,29.382635,118.129399
知识科普型,博物馆,152873960,伦敦贝果博物馆(赣州经开店),0.0,0,经开万达/赣南科技学院,赣州,赣州 · 经开万达/赣南科技学院,,,,,,否,https://dimg04.c-ctrip.com/images/fd/tg/g1/M06/FC/24/CghzflW7H_iATdynAAA-FlXAIeA738.jpg,https://you.ctrip.com/sight/ganzhou473/152873960.html?scene=onlinesearch,25.84682,114.907584
知识科普型,博物馆,152907635,伦敦贝果博物馆(南昌首店),0.0,0,八一广场/王府井,南昌,南昌 · 八一广场/王府井,,,,博物馆&展馆,,否,https://dimg04.c-ctrip.com/images/fd/tg/g1/M06/FC/24/CghzflW7H_iATdynAAA-FlXAIeA738.jpg,https://you.ctrip.com/sight/nanchang175/152907635.html?scene=onlinesearch,28.675815,115.918966
知识科普型,博物馆,153128012,中国印刷博物馆浒湾书铺街分馆,0.0,0,,金溪,金溪,,,,,,否,https://dimg04.c-ctrip.com/images/fd/tg/g1/M06/FC/24/CghzflW7H_iATdynAAA-FlXAIeA738.jpg,https://you.ctrip.com/sight/jinxi2405/153128012.html?scene=onlinesearch,27.924173,116.546048
知识科普型,博物馆,153137862,金溪县思明博物馆,0.0,0,,金溪,金溪,,,,,,否,https://dimg04.c-ctrip.com/images/fd/tg/g1/M06/FC/24/CghzflW7H_iATdynAAA-FlXAIeA738.jpg,https://you.ctrip.com/sight/jinxi2405/153137862.html?scene=onlinesearch,27.909099,116.789726
知识科普型,博物馆,153138707,景德镇蔡玲玲陶瓷艺术博物馆,0.0,0,古窑民俗博览区/中国陶瓷博物馆,景德镇,景德镇 · 古窑民俗博览区/中国陶瓷博物馆,,,,,,否,https://dimg04.c-ctrip.com/images/fd/tg/g1/M06/FC/24/CghzflW7H_iATdynAAA-FlXAIeA738.jpg,https://you.ctrip.com/sight/jingdezhen405/153138707.html?scene=onlinesearch,29.262613,117.16628
知识科普型,科技馆,135316365,景德镇市科技馆,5.0,5,,景德镇,景德镇,,,,"科技馆, 博物馆&展馆",免费预约,是,https://dimg04.c-ctrip.com/images/0105j12000a41jk4l11EF.png,https://you.ctrip.com/sight/jingdezhen405/135316365.html?scene=onlinesearch,29.243925,117.132298
知识科普型,科技馆,36693733,江西直升机科技馆,4.5,540,,景德镇,景德镇,景德镇亲子景点榜 No.5,4A,体验驾驶趣味了解飞机历史,"展馆展览, 遛娃宝藏地",门票,否,https://dimg04.c-ctrip.com/images/0103c120008ti9j9b67AC.png,https://you.ctrip.com/sight/jingdezhen405/2514684.html?scene=onlinesearch,29.260867,117.126589
知识科普型,科技馆,38397708,赣州科技馆,4.0,2,赣州万象城/九方购物中心,赣州,赣州 · 赣州万象城/九方购物中心,,,,"科技馆, 博物馆&展馆",免费,是,https://dimg04.c-ctrip.com/images/0101j12000f6u0xhz864F.jpg,https://you.ctrip.com/sight/ganzhou473/2587669.html?scene=onlinesearch,25.84344,114.946016
知识科普型,科技馆,142204211,鹰潭市科技馆,5.0,1,,鹰潭,鹰潭,,,,"科技馆, 博物馆&展馆",免费,是,https://dimg04.c-ctrip.com/images/0101g12000cgly3z3BA54.webp,https://you.ctrip.com/sight/yingtan186/142204211.html?scene=onlinesearch,28.255005,117.047465
知识科普型,科技馆,38487009,吉安市科技馆,5.0,1,市政府/城南天虹购物中心,吉安,吉安 · 市政府/城南天虹购物中心,,,,"科技馆, 博物馆&展馆",,否,https://dimg04.c-ctrip.com/images/0102a12000bx08mes540F.jpg,https://you.ctrip.com/sight/jian876/2676170.html?scene=onlinesearch,27.093101,114.972487
知识科普型,科技馆,143365335,吴城航天科技馆,0.0,0,,永修,永修,,,,"科技馆, 博物馆&展馆",门市价,否,https://dimg04.c-ctrip.com/images/1lo1y12000jgu36ha5A5B.jpg,https://you.ctrip.com/sight/yongxiu1848/143365335.html?scene=onlinesearch,29.173989,116.00186
知识科普型,科技馆,145225094,南昌市青少年宫-科技馆,0.0,0,南昌绿地国际博览中心/南昌国际体育中心,南昌,南昌 · 南昌绿地国际博览中心/南昌国际体育中心,,,,博物馆&展馆,,否,https://dimg04.c-ctrip.com/images/0HJ6f12000g2xyxt1DB72.jpg,https://you.ctrip.com/sight/nanchang175/145225094.html?scene=onlinesearch,28.625662,115.820566
知识科普型,科技馆,111989660,VRAR科技馆,0.0,0,南昌绿地国际博览中心/南昌国际体育中心,南昌,南昌 · 南昌绿地国际博览中心/南昌国际体育中心,,,,"科技馆, 博物馆&展馆",,否,https://dimg04.c-ctrip.com/images/0105m120009zvxie7341A.jpg,https://you.ctrip.com/sight/nanchang175/111989660.html?scene=onlinesearch,28.613361,115.80566
知识科普型,科技馆,50646945,上饶市科技馆,0.0,0,万达广场,上饶,上饶 · 万达广场,,,,"科技馆, 博物馆&展馆",免费,是,https://dimg04.c-ctrip.com/images/0106112000a257rrs31E7.png,https://you.ctrip.com/sight/shangrao547/4511130.html?scene=onlinesearch,28.463719,117.951878
知识科普型,科技馆,124906557,云谷田园生态小镇-农业科技馆,0.0,0,,上饶,上饶,,,,"科技馆, 博物馆&展馆",,否,https://dimg04.c-ctrip.com/images/0102k120009cu17eq7C7F.png,https://you.ctrip.com/sight/shangrao547/124906557.html?scene=onlinesearch,28.380775,118.03464
知识科普型,科技馆,111989246,江西省科学技术馆,3.8,41,红谷滩万达/秋水广场,南昌,南昌 · 红谷滩万达/秋水广场,,,,"科技馆, 博物馆&展馆",免费,是,https://dimg04.c-ctrip.com/images/0102h12000nhfv5a0863A.jpg,https://you.ctrip.com/sight/nanchang175/111989246.html?scene=onlinesearch,28.707682,115.886151
知识科普型,科技馆,51671462,宜春科技之窗,5.0,1,市政府地区,宜春,宜春 · 市政府地区,,,,历史建筑,,否,https://dimg04.c-ctrip.com/images/0101012000d37zebqAD00.webp,https://you.ctrip.com/sight/yichun743/4589976.html?scene=onlinesearch,27.822424,114.420164
知识科普型,科技馆,56215160,遨天一号太空科技馆,4.2,93,,南昌,南昌,,,设有VR体验区,"展馆展览, 遛娃宝藏地",门市价,否,https://dimg04.c-ctrip.com/images/0101812000f6uc3frFBA7.jpg,https://you.ctrip.com/sight/nanchang175/4992350.html?scene=onlinesearch,28.643014,115.780752
知识科普型,科技馆,77466913,鄱阳湖湿地科学馆,0.0,0,,鄱阳,鄱阳,,,,,,否,https://dimg04.c-ctrip.com/images/350b1900000183e6v05BC.jpg,https://you.ctrip.com/sight/poyang2385/5678344.html?scene=onlinesearch,29.162243,116.623063
知识科普型,科技馆,145449787,瑞金科技馆,0.0,0,,瑞金,瑞金,,,,博物馆&展馆,,否,https://dimg04.c-ctrip.com/images/0HJ3b12000g65fsx8F73C.jpg,https://you.ctrip.com/sight/ruijin1159/145449787.html?scene=onlinesearch,25.898164,116.056107
知识科普型,科技馆,38389833,吉安市青少年活动中心,0.0,0,市政府/城南天虹购物中心,吉安,吉安 · 市政府/城南天虹购物中心,,,,,免费,是,https://dimg04.c-ctrip.com/images/0102a12000cld86mi6A7A.jpg,https://you.ctrip.com/sight/jian876/2579794.html?scene=onlinesearch,27.093474,114.972648
知识科普型,科技馆,144178149,南昌市青少年宫,0.0,0,滕王阁/万寿宫,南昌,南昌 · 滕王阁/万寿宫,,,,,,否,https://dimg04.c-ctrip.com/images/0HJ6r12000g38cv8e9F7D.jpg,https://you.ctrip.com/sight/nanchang175/144178149.html?scene=onlinesearch,28.681973,115.902484
知识科普型,科技馆,145433008,美好生活科技馆,0.0,0,,新余,新余,,,,博物馆&展馆,,否,https://dimg04.c-ctrip.com/images/0HJ6r12000g312zkb1C81.jpg,https://you.ctrip.com/sight/xinyu878/145433008.html?scene=onlinesearch,27.832705,114.946482
知识科普型,科技馆,143327062,新余市青少年宫,0.0,0,,新余,新余,,,,,,否,https://dimg04.c-ctrip.com/images/0HJ2612000g90ofotAFE0.jpg,https://you.ctrip.com/sight/xinyu878/143327062.html?scene=onlinesearch,27.806157,114.952301
知识科普型,科技馆,145363230,瑞金禁毒教育科技馆,0.0,0,,瑞金,瑞金,,,,博物馆&展馆,,否,https://dimg04.c-ctrip.com/images/0HJ1p12000g8mm921E1BF.jpg,https://you.ctrip.com/sight/ruijin1159/145363230.html?scene=onlinesearch,25.889552,116.05876
知识科普型,科技馆,145289458,富硒有机果蔬科技馆,0.0,0,,万载,万载,,,,,,否,https://dimg04.c-ctrip.com/images/0HJ4012000g8zc1b2DD96.jpg,https://you.ctrip.com/sight/wanzai2430/145289458.html?scene=onlinesearch,28.228405,114.488494
知识科普型,科技馆,148755757,步力宝智能穿戴科技馆,0.0,0,,信丰,信丰,,,,博物馆&展馆,,否,https://dimg04.c-ctrip.com/images/0HJ6i12000g8n9ij90546.jpg,https://you.ctrip.com/sight/xinfeng2380/148755757.html?scene=onlinesearch,25.373482,114.93669
知识科普型,科技馆,143702270,北星小学-少年宫,0.0,0,,萍乡,萍乡,,,,,,否,https://dimg04.c-ctrip.com/images/0HJ0j12000g6ns2fz2BC7.jpg,https://you.ctrip.com/sight/pingxiang714/143702270.html?scene=onlinesearch,27.629684,113.864308
知识科普型,科技馆,143307018,南昌市青少年宫(象湖分部),0.0,0,朝阳西湖万达/动物园/新洪城大市场,南昌县,南昌县 · 朝阳西湖万达/动物园/新洪城大市场,,,,,,否,https://dimg04.c-ctrip.com/images/0HJ5i12000g8j3qwp684E.jpg,https://you.ctrip.com/sight/nanchangcounty2429/143307018.html?scene=onlinesearch,28.611853,115.880235
知识科普型,科技馆,79989445,瑞金市青少年宫,5.0,1,,瑞金,瑞金,,,,,,否,https://dimg04.c-ctrip.com/images/0101712000dr2qc8u399A.jpg,https://you.ctrip.com/sight/ruijin1159/79989445.html?scene=onlinesearch,25.88152,116.029115
