大类,子类关键词,景点ID,名称,评分,评论数,区域,城市,地址,分类,等级,特色,标签,门票说明,是否免费,图片链接,详情链接,纬度,经度
知识科普型,博物馆,82328,三峡博物馆,4.6,1056,上清寺/人民大礼堂/李子坝,重庆,上清寺/人民大礼堂/李子坝,重庆亲子景点榜 No.6,4A,了解山城历史和三峡风貌,"博物馆, 博物馆&展馆",免费,是,https://dimg04.c-ctrip.com/images/0105h12000h4c65gx5C31.jpg,https://you.ctrip.com/sight/chongqing158/45804.html?scene=onlinesearch,29.568347,106.556883
知识科普型,博物馆,128621409,重庆建川海疆博物馆（166舰）,4.5,942,杨家坪/重庆动物园,重庆,杨家坪/重庆动物园,重庆亲子景点榜 No.16,,近距离接触大国重器,"展馆展览, 遛娃宝藏地",门票,否,https://dimg04.c-ctrip.com/images/1lo3312000et21pr404A5.jpg,https://you.ctrip.com/sight/chongqing158/5716423.html?scene=onlinesearch,29.52135,106.535835
知识科普型,博物馆,89785,白鹤梁水下博物馆,4.6,989,涪陵商业中心区,重庆,涪陵商业中心区,重庆亲子景点榜 No.9,4A,观赏水下千年古迹,"博物馆, 博物馆&展馆",门票,否,https://dimg04.c-ctrip.com/images/0104d12000iirs1kpB53C.jpg,https://you.ctrip.com/sight/chongqing158/76543.html?scene=onlinesearch,29.718473,107.398829
知识科普型,博物馆,10521419,重庆抗战遗址博物馆,0.0,251,南山度假区,重庆,南山度假区,,4A,综合性抗战遗址博物馆景区,"历史建筑, 博物馆&展馆",门票,否,https://dimg04.c-ctrip.com/images/01071120009hlolvf2EDE.jpg,https://you.ctrip.com/sight/chongqing158/145487.html?scene=onlinesearch,29.572787,106.624299
知识科普型,博物馆,145699202,重庆中国三峡博物馆-接待中心,5.0,3,上清寺/人民大礼堂/李子坝,重庆,上清寺/人民大礼堂/李子坝,,,,,,否,https://dimg04.c-ctrip.com/images/0101p12000gkeoxs1B430.jpg,https://you.ctrip.com/sight/chongqing158/145699202.html?scene=onlinesearch,29.568522,106.557097
知识科普型,博物馆,52528404,重庆建川博物馆聚落,4.7,526,大坪/时代天街,重庆,大坪/时代天街,,4A,洞穴抗战博物馆聚落,"博物馆, 博物馆&展馆",门票,否,https://dimg04.c-ctrip.com/images/0106212000h4g7me23C87.jpg,https://you.ctrip.com/sight/chongqing158/4684348.html?scene=onlinesearch,29.527222,106.528761
知识科普型,博物馆,24032365,重庆自然博物馆（新馆）,4.8,488,西南大学/缙云山度假区,重庆,西南大学/缙云山度假区,,4A,有丰富的恐龙化石和标本,"展馆展览, 遛娃宝藏地",免费,是,https://dimg04.c-ctrip.com/images/0101t12000ikvo94l3991.jpg,https://you.ctrip.com/sight/chongqing158/1790963.html?scene=onlinesearch,29.825275,106.414141
知识科普型,博物馆,69145298,重庆红岩革命历史博物馆,0.0,0,大坪/时代天街,重庆,大坪/时代天街,,4A,,博物馆&展馆,免费,是,https://dimg04.c-ctrip.com/images/0101u1200098oxdm3110E.jpg,https://you.ctrip.com/sight/chongqing158/69145298.html?scene=onlinesearch,29.559641,106.505783
知识科普型,博物馆,48612772,大圆祥博物馆,4.7,48,,重庆,,,,"巴渝古建筑构件博物馆, 中国民间博物馆, 重庆祖屋博物馆","博物馆, 博物馆&展馆",,否,https://dimg04.c-ctrip.com/images/0100t12000isgtalf8CF5.jpg,https://you.ctrip.com/sight/chongqing158/4356342.html?scene=onlinesearch,29.391115,106.228586
知识科普型,博物馆,69142902,大足石刻博物馆,4.7,35,大足石刻度假区,重庆,大足石刻度假区,,,,"博物馆, 博物馆&展馆",,否,https://dimg04.c-ctrip.com/images/01042120006t6vtoq7273.jpg,https://you.ctrip.com/sight/chongqing158/69142902.html?scene=onlinesearch,29.751451,105.801186
知识科普型,博物馆,38366644,万州区博物馆,0.0,7,万州万达广场,重庆,万州万达广场,,4A,"万州区标志性建筑, 三峡移民集体记忆空间",博物馆&展馆,免费,是,https://dimg04.c-ctrip.com/images/0103k120008ouxy15329F.jpg,https://you.ctrip.com/sight/chongqing158/2557005.html?scene=onlinesearch,30.814576,108.408338
知识科普型,博物馆,38371261,巫山县博物馆,4.3,10,,巫山,巫山,,4A,,"博物馆, 博物馆&展馆",免费,是,https://dimg04.c-ctrip.com/images/0104l12000ijgwat61F5B.jpg,https://you.ctrip.com/sight/wushancounty2025187/2561522.html?scene=onlinesearch,31.079048,109.889304
知识科普型,博物馆,151934108,幻觉博物馆 - 重庆店,0.0,0,解放碑/洪崖洞,重庆,解放碑/洪崖洞,,,,博物馆&展馆,,否,https://dimg04.c-ctrip.com/images/0104p12000m2c7xyn802E.jpg,https://you.ctrip.com/sight/chongqing158/151934108.html?scene=onlinesearch,29.565978,106.588017
知识科普型,博物馆,56806959,重庆金融历史博物馆,4.7,12,解放碑/洪崖洞,重庆,解放碑/洪崖洞,,,,"历史建筑, 博物馆&展馆",免费,是,https://dimg04.c-ctrip.com/images/0106812000f6te0a8D228.jpg,https://you.ctrip.com/sight/chongqing158/5068278.html?scene=onlinesearch,29.567152,106.590387
知识科普型,博物馆,121151964,巴蜀古代建筑博物馆,4.6,5,大学城/融创文旅城,重庆,大学城/融创文旅城,,,,"博物馆, 博物馆&展馆",免费,是,https://dimg04.c-ctrip.com/images/0106o12000f6q3hwg774D.jpg,https://you.ctrip.com/sight/chongqing158/121151964.html?scene=onlinesearch,29.610136,106.33911
知识科普型,博物馆,67627706,永川博物馆,4.5,12,茶山竹海度假区,重庆,茶山竹海度假区,,,,"博物馆, 博物馆&展馆",免费,是,https://dimg04.c-ctrip.com/images/350q160000010cfry79F9.jpg,https://you.ctrip.com/sight/chongqing158/5591402.html?scene=onlinesearch,29.385768,105.940578
知识科普型,博物馆,111324978,巴渝文化博物馆,4.7,6,解放碑/洪崖洞,重庆,解放碑/洪崖洞,,,,"博物馆, 博物馆&展馆",免费,是,https://dimg04.c-ctrip.com/images/01073120008i1gb0bB224.jpg,https://you.ctrip.com/sight/chongqing158/5714628.html?scene=onlinesearch,29.556742,106.583459
知识科普型,博物馆,144890735,重庆德庄火锅博物馆(德庄工厂火锅),5.0,2,茶园,重庆,茶园,,,,博物馆&展馆,,否,https://dimg04.c-ctrip.com/images/1lo5o12000d9onl8gE98B.jpg,https://you.ctrip.com/sight/chongqing158/144890735.html?scene=onlinesearch,29.479329,106.643122
知识科普型,博物馆,15063496,重庆巴渝民俗博物馆民俗馆,4.6,62,江北国际机场地区,重庆,江北国际机场地区,,,了解很有特色的巴渝民俗,"博物馆, 博物馆&展馆",免费,是,https://dimg04.c-ctrip.com/images/100k1f000001guednFD8E.jpg,https://you.ctrip.com/sight/chongqing158/1482822.html?scene=onlinesearch,29.717175,106.636293
知识科普型,博物馆,79438825,夔州博物馆,5.0,4,奉节白帝城,奉节,奉节白帝城,,4A,,"博物馆, 博物馆&展馆",免费,是,https://dimg04.c-ctrip.com/images/1me2l12000e123yep77E9.jpg,https://you.ctrip.com/sight/fengjiecounty2025223/5705192.html?scene=onlinesearch,31.047899,109.555027
知识科普型,博物馆,69143941,钓鱼城古战场遗址博物馆,5.0,1,,重庆,,,,,"博物馆, 博物馆&展馆",,否,https://dimg04.c-ctrip.com/images/0101d12000bl5yczp37D5.jpg,https://you.ctrip.com/sight/chongqing158/69143941.html?scene=onlinesearch,30.010825,106.322672
知识科普型,博物馆,77417424,奉节县白帝城博物馆,4.5,6,奉节白帝城,奉节,奉节白帝城,,,,"博物馆, 博物馆&展馆",,否,https://dimg04.c-ctrip.com/images/010301200099zlr8m4D5A.jpg,https://you.ctrip.com/sight/fengjiecounty2025223/5675354.html?scene=onlinesearch,31.052568,109.57952
知识科普型,博物馆,78147,钓鱼城,4.5,453,,重庆,,,4A,改变世界格局的古战场,历史建筑,,否,https://dimg04.c-ctrip.com/images/0100212000kkjz67mD4EC.jpg,https://you.ctrip.com/sight/chongqing158/10354.html?scene=onlinesearch,30.009655,106.318318
知识科普型,博物馆,79438821,重庆工业博物馆,4.5,11,大渡口商业中心区,重庆,大渡口商业中心区,,,,"博物馆, 博物馆&展馆",免费,是,https://dimg04.c-ctrip.com/images/01A49120008r9p2oq939B.jpg,https://you.ctrip.com/sight/chongqing158/5705201.html?scene=onlinesearch,29.475895,106.499246
知识科普型,博物馆,36583546,重庆史迪威博物馆,4.6,11,上清寺/人民大礼堂/李子坝,重庆,上清寺/人民大礼堂/李子坝,,,,博物馆&展馆,免费,是,https://dimg04.c-ctrip.com/images/0101a120008gfkzmgD345.jpg,https://you.ctrip.com/sight/chongqing158/2511328.html?scene=onlinesearch,29.5566,106.539568
知识科普型,博物馆,90498680,重庆记忆博物馆,1.3,3,沙坪坝站/三峡广场,重庆,沙坪坝站/三峡广场,,,,"博物馆, 博物馆&展馆",,否,https://dimg04.c-ctrip.com/images/01054120009lrmhqnA707.jpg,https://you.ctrip.com/sight/chongqing158/90498680.html?scene=onlinesearch,29.586276,106.456413
知识科普型,博物馆,30233783,川剧博物馆,4.5,21,大竹林/光电园,重庆,大竹林/光电园,,,,"博物馆, 博物馆&展馆",免费,是,https://dimg04.c-ctrip.com/images/0101v120009419fzn3C45.jpg,https://you.ctrip.com/sight/chongqing158/1979724.html?scene=onlinesearch,29.630757,106.532082
知识科普型,博物馆,150007036,《国宝的长征：故宫文物南迁纪念展》重庆中国三峡博物馆特展,0.0,0,上清寺/人民大礼堂/李子坝,重庆,上清寺/人民大礼堂/李子坝,,,,"特色展馆, 展览",,否,https://dimg04.c-ctrip.com/images/0102812000ir6libv4D90.jpg,https://you.ctrip.com/sight/chongqing158/150007036.html?scene=onlinesearch,29.568347,106.556883
知识科普型,博物馆,79437654,涪陵区博物馆,0.0,0,涪陵商业中心区,重庆,涪陵商业中心区,,,,"博物馆, 博物馆&展馆",免费,是,https://dimg04.c-ctrip.com/images/1me0c12000kxozd5z2130.jpg,https://you.ctrip.com/sight/chongqing158/5703993.html?scene=onlinesearch,29.710547,107.394385
知识科普型,博物馆,111989226,湖广填四川移民博物馆,4.8,4,解放碑/洪崖洞,重庆,解放碑/洪崖洞,,,,"博物馆, 博物馆&展馆",,否,https://dimg04.c-ctrip.com/images/0101h12000c6y9m855A02.jpg,https://you.ctrip.com/sight/chongqing158/111989226.html?scene=onlinesearch,29.564068,106.593749
知识科普型,博物馆,145739937,武隆喀斯特世界自然遗产博物馆,0.0,0,武隆区人民政府/武隆喀斯特旅游区,重庆,武隆区人民政府/武隆喀斯特旅游区,,,,博物馆&展馆,,否,https://dimg04.c-ctrip.com/images/0100v12000f52ltbp86C4.png,https://you.ctrip.com/sight/chongqing158/145739937.html?scene=onlinesearch,29.342271,107.771841
知识科普型,博物馆,145638719,涪陵邱家榨菜博物馆,5.0,1,涪陵商业中心区,重庆,涪陵商业中心区,,,,博物馆&展馆,,否,https://dimg04.c-ctrip.com/images/0106j12000dwo1v729EB8.jpg,https://you.ctrip.com/sight/chongqing158/145638719.html?scene=onlinesearch,29.718425,107.386442
知识科普型,博物馆,52067874,重庆火锅博物馆,4.9,8,海兰云天温泉度假区,重庆,海兰云天温泉度假区,,,,"博物馆, 博物馆&展馆",免费,是,https://dimg04.c-ctrip.com/images/01041120009z8q24jB406.jpg,https://you.ctrip.com/sight/chongqing158/4649663.html?scene=onlinesearch,29.520634,106.31856
知识科普型,博物馆,79437637,重庆市华岩寺佛教博物馆,4.0,4,重庆火车西站/巴国城,重庆,重庆火车西站/巴国城,,,,"博物馆, 博物馆&展馆",免费,是,https://dimg04.c-ctrip.com/images/0100612000c08k7iz217C.jpg,https://you.ctrip.com/sight/chongqing158/5703978.html?scene=onlinesearch,29.496346,106.452507
知识科普型,博物馆,108734407,二厂记忆博物馆,4.5,4,上清寺/人民大礼堂/李子坝,重庆,上清寺/人民大礼堂/李子坝,,,,"博物馆, 博物馆&展馆",免费,是,https://dimg04.c-ctrip.com/images/0106l12000apff865B442.jpg,https://you.ctrip.com/sight/chongqing158/5714460.html?scene=onlinesearch,29.557289,106.547364
知识科普型,博物馆,111989128,巴人博物馆,4.5,2,重庆火车西站/巴国城,重庆,重庆火车西站/巴国城,,,,"博物馆, 博物馆&展馆",免费,是,https://dimg04.c-ctrip.com/images/0106m1200098ov70d61AC.jpg,https://you.ctrip.com/sight/chongqing158/111989128.html?scene=onlinesearch,29.505769,106.479588
知识科普型,博物馆,79438811,武隆博物馆(新馆),5.0,1,武隆区人民政府/武隆喀斯特旅游区,重庆,武隆区人民政府/武隆喀斯特旅游区,,,,"博物馆, 博物馆&展馆",门票,否,https://dimg04.c-ctrip.com/images/0100w12000bsbmqa90AD4.jpg,https://you.ctrip.com/sight/chongqing158/5705179.html?scene=onlinesearch,29.332645,107.775349
知识科普型,博物馆,145532545,618海军博物馆,0.0,0,杨家坪/重庆动物园,重庆,杨家坪/重庆动物园,,,,博物馆&展馆,,否,https://dimg04.c-ctrip.com/images/0107312000nw1ahqr7620.jpg,https://you.ctrip.com/sight/chongqing158/145532545.html?scene=onlinesearch,29.521262,106.535951
知识科普型,博物馆,82314,铜梁博物馆,4.3,48,铜梁商业中心区,重庆,铜梁商业中心区,,,铜梁标志性建筑,"博物馆, 博物馆&展馆",免费,是,https://dimg04.c-ctrip.com/images/01020120009cwllvaC245.jpg,https://you.ctrip.com/sight/chongqing158/45770.html?scene=onlinesearch,29.842353,106.061381
知识科普型,博物馆,148778159,重庆海洋博物馆,0.0,0,江北国际机场地区,重庆,江北国际机场地区,,,,博物馆&展馆,,否,https://dimg04.c-ctrip.com/images/0HJ6f12000g323uja4A98.jpg,https://you.ctrip.com/sight/chongqing158/148778159.html?scene=onlinesearch,29.664217,106.625127
知识科普型,博物馆,134011250,重庆红岩重型汽车博物馆,3.0,2,龙水湖旅游度假区,重庆,龙水湖旅游度假区,,,,博物馆&展馆,免费,是,https://dimg04.c-ctrip.com/images/0106y120009ys51fx6CEC.jpg,https://you.ctrip.com/sight/chongqing158/134011250.html?scene=onlinesearch,29.497023,105.783478
知识科普型,博物馆,38371556,荣昌陶博物馆,4.0,6,,重庆,,,,,"博物馆, 博物馆&展馆",,否,https://dimg04.c-ctrip.com/images/01071120008i42bhhA076.jpg,https://you.ctrip.com/sight/chongqing158/2561817.html?scene=onlinesearch,29.368382,105.472769
知识科普型,博物馆,79436468,忠州博物馆,5.0,3,,忠县,忠县,,,,"博物馆, 博物馆&展馆",免费,是,https://dimg04.c-ctrip.com/images/0106m12000az8w96k1317.jpg,https://you.ctrip.com/sight/zhongcounty2025198/5702881.html?scene=onlinesearch,30.290417,108.030131
知识科普型,博物馆,149825917,沙坪坝地质博物馆,0.0,0,沙坪坝站/三峡广场,重庆,沙坪坝站/三峡广场,,,,博物馆&展馆,免费,是,https://dimg04.c-ctrip.com/images/0101o12000hrtne2t096B.jpg,https://you.ctrip.com/sight/chongqing158/149825917.html?scene=onlinesearch,29.545233,106.446256
知识科普型,博物馆,79438824,梁平博物馆,5.0,1,梁平双桂湖度假区,重庆,梁平双桂湖度假区,,,,"博物馆, 博物馆&展馆",免费,是,https://dimg04.c-ctrip.com/images/0101h120009ec3n0uC25D.jpg,https://you.ctrip.com/sight/chongqing158/5705178.html?scene=onlinesearch,30.659524,107.777815
知识科普型,博物馆,51963755,北碚博物馆,4.5,10,西南大学/缙云山度假区,重庆,西南大学/缙云山度假区,,,"发掘文化历史精髓, 爱国主义教育基地, 国家三级博物馆","博物馆, 博物馆&展馆",免费,是,https://dimg04.c-ctrip.com/images/350g1d000001eht8b7F43.jpg,https://you.ctrip.com/sight/chongqing158/4634292.html?scene=onlinesearch,29.811299,106.399966
知识科普型,博物馆,79437610,开州博物馆,4.1,15,汉丰湖度假区,重庆,汉丰湖度假区,,4A,,"博物馆, 博物馆&展馆",免费,是,https://dimg04.c-ctrip.com/images/0105h12000aub8nidC1F5.jpg,https://you.ctrip.com/sight/chongqing158/5704001.html?scene=onlinesearch,31.172766,108.395885
知识科普型,博物馆,79438812,巫溪博物馆,5.0,1,,巫溪,巫溪,,,,"博物馆, 博物馆&展馆",免费,是,https://dimg04.c-ctrip.com/images/0104112000dj6bd9i5396.jpg,https://you.ctrip.com/sight/wuxicounty2025261/5705186.html?scene=onlinesearch,31.40146,109.578141
知识科普型,博物馆,52026878,重庆市民族博物馆,3.9,25,黔江商业中心区,重庆,黔江商业中心区,,,,"博物馆, 博物馆&展馆",免费,是,https://dimg04.c-ctrip.com/images/0101012000asakwb99E69.jpg,https://you.ctrip.com/sight/chongqing158/4638281.html?scene=onlinesearch,29.536538,108.783816
知识科普型,博物馆,148642876,大自然博物馆,5.0,1,巴南万达/华熙鱼洞,重庆,巴南万达/华熙鱼洞,,,,博物馆&展馆,,否,https://dimg04.c-ctrip.com/images/0HJ2112000g342woaFE08.jpg,https://you.ctrip.com/sight/chongqing158/148642876.html?scene=onlinesearch,29.405482,106.554149
知识科普型,博物馆,145427508,长寿区博物馆,5.0,1,长寿古镇,重庆,长寿古镇,,,,博物馆&展馆,免费,是,https://dimg04.c-ctrip.com/images/0106s12000kq35yox2396.jpg,https://you.ctrip.com/sight/chongqing158/145427508.html?scene=onlinesearch,29.870273,107.072331
知识科普型,博物馆,145466575,重庆飞虎队博物馆,0.0,0,上清寺/人民大礼堂/李子坝,重庆,上清寺/人民大礼堂/李子坝,,,,博物馆&展馆,,否,https://dimg04.c-ctrip.com/images/0102m12000gg8op2gDF79.jpg,https://you.ctrip.com/sight/chongqing158/145466575.html?scene=onlinesearch,29.556424,106.539865
知识科普型,博物馆,79436461,云阳县博物馆,0.0,0,,云阳,云阳,,,,"博物馆, 博物馆&展馆",免费,是,https://dimg04.c-ctrip.com/images/01022120008bwdewbAEC3.png,https://you.ctrip.com/sight/yunyangcounty2025226/5702890.html?scene=onlinesearch,30.945516,108.688239
知识科普型,博物馆,148786831,海底博物馆,0.0,0,大学城/融创文旅城,重庆,大学城/融创文旅城,,,,博物馆&展馆,,否,https://dimg04.c-ctrip.com/images/0102712000nxacz9578C8.jpg,https://you.ctrip.com/sight/chongqing158/148786831.html?scene=onlinesearch,29.630928,106.364372
知识科普型,博物馆,145145919,度·世界精酿啤酒博物馆(重庆店),0.0,0,江北嘴/北滨路,重庆,江北嘴/北滨路,,,,博物馆&展馆,,否,https://dimg04.c-ctrip.com/images/1me2f12000gp9j8s6F1E6.jpg,https://you.ctrip.com/sight/chongqing158/145145919.html?scene=onlinesearch,29.576672,106.568729
知识科普型,博物馆,38367542,綦江博物馆,4.8,4,古剑山度假区,重庆,古剑山度假区,,,,"博物馆, 博物馆&展馆",免费,是,https://dimg04.c-ctrip.com/images/01036120007smeis6C86D.jpg,https://you.ctrip.com/sight/chongqing158/2557803.html?scene=onlinesearch,29.02295,106.660078
知识科普型,博物馆,38518162,重庆云阳龙缸国家地质公园博物馆,4.3,4,龙缸度假区,云阳,龙缸度假区,,,,"博物馆, 博物馆&展馆",,否,https://dimg04.c-ctrip.com/images/0101t120008245iwi8E55.jpg,https://you.ctrip.com/sight/yunyangcounty2025226/2707023.html?scene=onlinesearch,30.677875,109.010476
知识科普型,博物馆,145217728,南泉自然博物馆,0.0,0,重庆理工大学花溪校区,重庆,重庆理工大学花溪校区,,,,博物馆&展馆,,否,https://dimg04.c-ctrip.com/images/0100112000nqh4caqDF66.jpg,https://you.ctrip.com/sight/chongqing158/145217728.html?scene=onlinesearch,29.429809,106.585153
知识科普型,博物馆,143753643,武隆博物馆,0.0,0,武隆区人民政府/武隆喀斯特旅游区,重庆,武隆区人民政府/武隆喀斯特旅游区,,,,"博物馆, 博物馆&展馆",免费,是,https://dimg04.c-ctrip.com/images/0100512000dew8cmu2027.jpg,https://you.ctrip.com/sight/chongqing158/143753643.html?scene=onlinesearch,29.327237,107.751673
知识科普型,博物馆,51965414,国民政府军事委员会旧址-重庆行营,0.0,3,解放碑/洪崖洞,重庆,解放碑/洪崖洞,,,,历史建筑,,否,https://dimg04.c-ctrip.com/images/0102m12000f6u9w4u7DE2.jpg,https://you.ctrip.com/sight/chongqing158/4634049.html?scene=onlinesearch,29.556776,106.583512
知识科普型,博物馆,145217660,江津博物馆,0.0,0,江津客运中心商圈,重庆,江津客运中心商圈,,,,博物馆&展馆,,否,https://dimg04.c-ctrip.com/images/0102l12000dw7lv3k3244.jpg,https://you.ctrip.com/sight/chongqing158/145217660.html?scene=onlinesearch,29.323811,106.271642
知识科普型,博物馆,52116931,重庆自然博物馆-西广场,0.0,0,西南大学/缙云山度假区,重庆,西南大学/缙云山度假区,,,,地标观景,,否,https://dimg04.c-ctrip.com/images/01065120009yzex990FB7.jpg,https://you.ctrip.com/sight/chongqing158/4657600.html?scene=onlinesearch,29.82396,106.414135
知识科普型,博物馆,79438808,大渡口区博物馆,4.5,4,大渡口商业中心区,重庆,大渡口商业中心区,,,,"博物馆, 博物馆&展馆",免费,是,https://dimg04.c-ctrip.com/images/1mh2q12000bmvp4stFE7E.jpg,https://you.ctrip.com/sight/chongqing158/5705175.html?scene=onlinesearch,29.491653,106.495497
知识科普型,博物馆,145555239,重庆抗战遗址博物馆-售票处,0.0,0,南山度假区,重庆,南山度假区,,,,,,否,https://dimg04.c-ctrip.com/images/0101r12000gcqew2sEA76.jpg,https://you.ctrip.com/sight/chongqing158/145555239.html?scene=onlinesearch,29.569845,106.625463
知识科普型,博物馆,51963537,重庆火锅天下宴博物馆,4.3,3,龙兴度假区,重庆,龙兴度假区,,,,"博物馆, 博物馆&展馆",,否,https://dimg04.c-ctrip.com/images/01014120008ouzz2iF5FA.png,https://you.ctrip.com/sight/chongqing158/4634227.html?scene=onlinesearch,29.6887,106.83
知识科普型,博物馆,145302163,重庆中国三峡博物馆巫山分馆,0.0,0,,巫山,巫山,,,,博物馆&展馆,,否,https://dimg04.c-ctrip.com/images/0106d12000nvzh5t42B3D.jpg,https://you.ctrip.com/sight/wushancounty2025187/145302163.html?scene=onlinesearch,31.078579,109.889153
知识科普型,博物馆,150184205,重庆抗战魔术博物馆--魔法戏院剧场,0.0,0,,重庆,,,,,博物馆&展馆,,否,https://dimg04.c-ctrip.com/images/0106612000nwmvg1tE42C.jpg,https://you.ctrip.com/sight/chongqing158/150184205.html?scene=onlinesearch,29.55756,106.545721
知识科普型,博物馆,145383469,华生园博物馆,5.0,1,大渡口商业中心区,重庆,大渡口商业中心区,,,,博物馆&展馆,,否,https://dimg04.c-ctrip.com/images/0HJ0w12000g2v30p181AB.jpg,https://you.ctrip.com/sight/chongqing158/145383469.html?scene=onlinesearch,29.472414,106.47347
知识科普型,博物馆,79437617,瞿塘关遗址博物馆,3.0,1,奉节白帝城,奉节,奉节白帝城,,,,"博物馆, 博物馆&展馆",免费,是,https://dimg04.c-ctrip.com/images/0103a12000d6w9ahb3B22.jpg,https://you.ctrip.com/sight/fengjiecounty2025223/5703977.html?scene=onlinesearch,31.044827,109.587333
知识科普型,博物馆,51670094,九龙沉香博物馆,0.0,0,大坪/时代天街,重庆,大坪/时代天街,,,"全国三大沉香博物馆之一, 专业博物馆, 非遗文化体验","博物馆, 博物馆&展馆",,否,https://dimg04.c-ctrip.com/images/35091d000001ekldo96CD.jpg,https://you.ctrip.com/sight/chongqing158/4590402.html?scene=onlinesearch,29.533566,106.534067
知识科普型,博物馆,96318829,重庆抗战戏剧博物馆,0.0,0,解放碑/洪崖洞,重庆,解放碑/洪崖洞,,,,博物馆&展馆,免费,是,https://dimg04.c-ctrip.com/images/0105d1200081z72dm26DD.jpg,https://you.ctrip.com/sight/chongqing158/5711728.html?scene=onlinesearch,29.561562,106.567518
知识科普型,博物馆,36776065,重庆露天温泉博物馆,4.6,9,沙坪坝站/三峡广场,重庆,沙坪坝站/三峡广场,,,,"博物馆, 博物馆&展馆",免费,是,https://dimg04.c-ctrip.com/images/0105u120009ny0zky9D9B.jpg,https://you.ctrip.com/sight/chongqing158/2515423.html?scene=onlinesearch,29.548543,106.445615
知识科普型,博物馆,143728745,西南大学(北碚校区)-博物馆,0.0,0,西南大学/缙云山度假区,重庆,西南大学/缙云山度假区,,,,"博物馆, 博物馆&展馆",,否,https://dimg04.c-ctrip.com/images/0101112000dfgmz7eD0A2.jpg,https://you.ctrip.com/sight/chongqing158/143728745.html?scene=onlinesearch,29.824336,106.42836
知识科普型,博物馆,150344167,麻将博物馆(磁悦里店),4.0,1,磁器口古镇,重庆,磁器口古镇,,,,博物馆&展馆,,否,https://dimg04.c-ctrip.com/images/1mh4q12000m629f8t65AA.jpg,https://you.ctrip.com/sight/chongqing158/150344167.html?scene=onlinesearch,29.585036,106.453623
知识科普型,博物馆,140543486,巴南博物馆,0.0,0,巴南万达/华熙鱼洞,重庆,巴南万达/华熙鱼洞,,,,"博物馆, 博物馆&展馆",免费,是,https://dimg04.c-ctrip.com/images/0HJ1b12000g2t61as4ED1.jpg,https://you.ctrip.com/sight/chongqing158/140543486.html?scene=onlinesearch,29.401326,106.547923
知识科普型,博物馆,79438844,重庆市南川区蝶语昆虫博物馆,5.0,1,金佛山度假区,重庆,金佛山度假区,,,,"博物馆, 博物馆&展馆",,否,https://dimg04.c-ctrip.com/images/0105g12000crmynd1ABBF.jpg,https://you.ctrip.com/sight/chongqing158/5705212.html?scene=onlinesearch,29.054546,107.132266
知识科普型,博物馆,79438826,秀山博物馆,4.0,1,秀山火车站,秀山,秀山火车站,,,,"博物馆, 博物馆&展馆",免费,是,https://dimg04.c-ctrip.com/images/0103212000b6izrh4CDBF.jpg,https://you.ctrip.com/sight/xiushancounty2025253/5705187.html?scene=onlinesearch,28.443406,108.991231
知识科普型,博物馆,143732743,黄桷坪钢琴博物馆,0.0,0,杨家坪/重庆动物园,重庆,杨家坪/重庆动物园,,,,"博物馆, 博物馆&展馆",,否,https://dimg04.c-ctrip.com/images/0100y12000db98qnd6449.jpg,https://you.ctrip.com/sight/chongqing158/143732743.html?scene=onlinesearch,29.513651,106.530522
知识科普型,博物馆,10795124,诗城博物馆,4.0,6,奉节白帝城,奉节,奉节白帝城,,,主要展示三峡的历史文化,"博物馆, 博物馆&展馆",,否,https://dimg04.c-ctrip.com/images/0103212000a4nxxex91C5.png,https://you.ctrip.com/sight/fengjiecounty2025223/70177.html?scene=onlinesearch,31.049952,109.552659
知识科普型,博物馆,148569294,巫山博物馆(自然遗产馆),0.0,0,,巫山,巫山,,,,博物馆&展馆,,否,https://dimg04.c-ctrip.com/images/0104r12000f8c3cciAE7D.jpg,https://you.ctrip.com/sight/wushancounty2025187/148569294.html?scene=onlinesearch,31.095394,109.916778
知识科普型,博物馆,145405406,兵工署第一工厂旧址博物馆,0.0,0,杨家坪/重庆动物园,重庆,杨家坪/重庆动物园,,,,博物馆&展馆,,否,https://dimg04.c-ctrip.com/images/0102b12000nvzwawa110A.jpg,https://you.ctrip.com/sight/chongqing158/145405406.html?scene=onlinesearch,29.525961,106.528634
知识科普型,博物馆,145257309,中国麻花博物馆,0.0,0,磁器口古镇,重庆,磁器口古镇,,,,博物馆&展馆,,否,https://dimg04.c-ctrip.com/images/1me4f12000dsijd8sE668.jpg,https://you.ctrip.com/sight/chongqing158/145257309.html?scene=onlinesearch,29.585794,106.454516
知识科普型,博物馆,50617970,重庆警察博物馆,0.0,0,石桥铺/陈家坪,重庆,石桥铺/陈家坪,,,,"博物馆, 博物馆&展馆",,否,https://dimg04.c-ctrip.com/images/0HJ2812000g907ejj8ECF.jpg,https://you.ctrip.com/sight/chongqing158/4480156.html?scene=onlinesearch,29.538149,106.50513
知识科普型,博物馆,81663696,红酒博物馆,0.0,0,汽博中心,重庆,汽博中心,,,,"博物馆, 博物馆&展馆",免费,是,https://dimg04.c-ctrip.com/images/1A071d000001ex7qx4D40.jpg,https://you.ctrip.com/sight/chongqing158/5706657.html?scene=onlinesearch,29.639495,106.577311
知识科普型,博物馆,145347609,重庆抗战遗址博物馆-陈列室,5.0,1,南山度假区,重庆,南山度假区,,,,博物馆&展馆,,否,https://dimg04.c-ctrip.com/images/1mh1j12000gh5xr62274E.jpg,https://you.ctrip.com/sight/chongqing158/145347609.html?scene=onlinesearch,29.572526,106.625763
知识科普型,博物馆,143744102,酉阳民族博物馆,0.0,0,,酉阳,酉阳,,,,"博物馆, 博物馆&展馆",,否,https://dimg04.c-ctrip.com/images/0102z12000dewash0E650.png,https://you.ctrip.com/sight/youyangcounty2025213/143744102.html?scene=onlinesearch,28.86554,108.772313
知识科普型,博物馆,94317288,中国大足五金博物馆,0.0,0,龙水湖旅游度假区,重庆,龙水湖旅游度假区,,,,"博物馆, 博物馆&展馆",,否,https://dimg04.c-ctrip.com/images/0106d120009yrfyod1E6E.jpg,https://you.ctrip.com/sight/chongqing158/94317288.html?scene=onlinesearch,29.580095,105.770406
知识科普型,博物馆,51965444,重庆市中药研究院,3.7,7,南山度假区,重庆,南山度假区,,,,"博物馆, 博物馆&展馆",免费,是,https://dimg04.c-ctrip.com/images/0105912000at8pop7FD89.jpg,https://you.ctrip.com/sight/chongqing158/4634059.html?scene=onlinesearch,29.534446,106.609093
知识科普型,博物馆,51669886,石门寺石刻博物馆,0.0,0,古剑山度假区,重庆,古剑山度假区,,,,"博物馆, 博物馆&展馆",,否,https://dimg04.c-ctrip.com/images/0106112000dsvfxdi4030.jpg,https://you.ctrip.com/sight/chongqing158/4590326.html?scene=onlinesearch,29.022606,106.66008
知识科普型,博物馆,145255616,兵器发展史博物馆,0.0,0,杨家坪/重庆动物园,重庆,杨家坪/重庆动物园,,,,博物馆&展馆,,否,https://dimg04.c-ctrip.com/images/0103y12000nvy6g57B573.jpg,https://you.ctrip.com/sight/chongqing158/145255616.html?scene=onlinesearch,29.525285,106.529041
知识科普型,博物馆,79438829,王琦美术博物馆,4.2,6,上清寺/人民大礼堂/李子坝,重庆,上清寺/人民大礼堂/李子坝,,,,"特色展馆, 博物馆&展馆",免费,是,https://dimg04.c-ctrip.com/images/0103v12000aps5rheD0FD.jpg,https://you.ctrip.com/sight/chongqing158/5705202.html?scene=onlinesearch,29.569861,106.553887
知识科普型,博物馆,148629157,重庆抗战魔术博物馆,4.0,2,上清寺/人民大礼堂/李子坝,重庆,上清寺/人民大礼堂/李子坝,,,,博物馆&展馆,,否,https://dimg04.c-ctrip.com/images/0HJ3q12000g8zn8zt1EDA.jpg,https://you.ctrip.com/sight/chongqing158/148629157.html?scene=onlinesearch,29.55739,106.545686
知识科普型,博物馆,145377286,南山植物园自然博物馆,0.0,0,南山度假区,重庆,南山度假区,,,,"博物馆&展馆, 公园&植物园",,否,https://dimg04.c-ctrip.com/images/0105m12000nwidfr55FCD.jpg,https://you.ctrip.com/sight/chongqing158/145377286.html?scene=onlinesearch,29.560493,106.632879
知识科普型,博物馆,145354431,重庆金融博物馆,4.5,2,江北嘴/北滨路,重庆,江北嘴/北滨路,,,,博物馆&展馆,,否,https://dimg04.c-ctrip.com/images/0HJ2f12000g2u3hdh3CE7.jpg,https://you.ctrip.com/sight/chongqing158/145354431.html?scene=onlinesearch,29.579723,106.575566
知识科普型,博物馆,145638335,潼南博物馆,0.0,0,,重庆,,,,,博物馆&展馆,免费,是,https://dimg04.c-ctrip.com/images/0102012000h96s9cbCBBC.jpg,https://you.ctrip.com/sight/chongqing158/145638335.html?scene=onlinesearch,30.191539,105.816768
知识科普型,博物馆,90498735,重庆万灵提琴博物馆,2.5,2,,重庆,,,,,"博物馆, 博物馆&展馆",,否,https://dimg04.c-ctrip.com/images/0104w12000cmss2gd765D.jpg,https://you.ctrip.com/sight/chongqing158/90498735.html?scene=onlinesearch,29.492919,105.655506
知识科普型,博物馆,145711528,重庆体育博物馆,5.0,1,上清寺/人民大礼堂/李子坝,重庆,上清寺/人民大礼堂/李子坝,,,,博物馆&展馆,免费,是,https://dimg04.c-ctrip.com/images/1mh1012000mf3r36a4EB1.jpg,https://you.ctrip.com/sight/chongqing158/145711528.html?scene=onlinesearch,29.559623,106.55364
知识科普型,博物馆,148591993,重庆工业博物馆-飞机广场,5.0,1,大渡口商业中心区,重庆,大渡口商业中心区,,,,博物馆&展馆,,否,https://dimg04.c-ctrip.com/images/1mh2412000ld3mox5112C.jpg,https://you.ctrip.com/sight/chongqing158/148591993.html?scene=onlinesearch,29.477306,106.498048
知识科普型,博物馆,145590785,璧山区博物馆,0.0,0,璧山商业中心区,重庆,璧山商业中心区,,,,博物馆&展馆,,否,https://dimg04.c-ctrip.com/images/0102d12000nwkw96jC75F.jpg,https://you.ctrip.com/sight/chongqing158/145590785.html?scene=onlinesearch,29.588878,106.226062
知识科普型,博物馆,136622884,峡砚博物馆,5.0,1,合川学院区,重庆,合川学院区,,,,"博物馆, 博物馆&展馆",,否,https://dimg04.c-ctrip.com/images/1lo5b12000b0r7olv197C.jpg,https://you.ctrip.com/sight/chongqing158/136622884.html?scene=onlinesearch,29.988551,106.278865
知识科普型,博物馆,79438827,万盛博物馆,0.0,0,万盛商业中心区,重庆,万盛商业中心区,,,,"博物馆, 博物馆&展馆",免费,是,https://dimg04.c-ctrip.com/images/0106t12000b6kne4n5974.jpg,https://you.ctrip.com/sight/chongqing158/5705188.html?scene=onlinesearch,28.961222,106.918463
知识科普型,博物馆,150174463,重庆嘉陵江索道博物馆,3.0,1,,重庆,,,,,博物馆&展馆,,否,https://dimg04.c-ctrip.com/images/0107112000kijjgn5832A.jpg,https://you.ctrip.com/sight/chongqing158/150174463.html?scene=onlinesearch,29.574942,106.585253
知识科普型,博物馆,79437618,宝林博物馆,0.0,0,汽博中心,重庆,汽博中心,,,,"博物馆, 博物馆&展馆",免费,是,https://dimg04.c-ctrip.com/images/01A5d120009wh86q88F32.png,https://you.ctrip.com/sight/chongqing158/5703995.html?scene=onlinesearch,29.671137,106.569626
知识科普型,博物馆,145734709,vintage奢品博物馆(观音桥店),0.0,0,观音桥/九街,重庆,观音桥/九街,,,,博物馆&展馆,,否,https://dimg04.c-ctrip.com/images/0HJ2i12000g8harrxC828.jpg,https://you.ctrip.com/sight/chongqing158/145734709.html?scene=onlinesearch,29.586304,106.541632
知识科普型,博物馆,38366519,重庆市巴渝名匾文化艺术博物馆,5.0,3,上清寺/人民大礼堂/李子坝,重庆,上清寺/人民大礼堂/李子坝,,,,"特色展馆, 博物馆&展馆",,否,https://dimg04.c-ctrip.com/images/0102q120009lx5xkx9704.jpg,https://you.ctrip.com/sight/chongqing158/2556880.html?scene=onlinesearch,29.556507,106.536556
知识科普型,博物馆,79437656,重庆友军辣椒博物馆,4.0,3,,重庆,,,,,"博物馆, 博物馆&展馆",免费,是,https://dimg04.c-ctrip.com/images/0106m120009c2lk6009A0.png,https://you.ctrip.com/sight/chongqing158/5704012.html?scene=onlinesearch,30.195793,106.460045
知识科普型,博物馆,145473613,龙泉宝剑青瓷重庆博物馆,0.0,0,南滨路/弹子石,重庆,南滨路/弹子石,,,,博物馆&展馆,,否,https://dimg04.c-ctrip.com/images/0HJ2g12000g36ew6n0E25.jpg,https://you.ctrip.com/sight/chongqing158/145473613.html?scene=onlinesearch,29.548299,106.588596
知识科普型,博物馆,145703423,重庆抗战遗址博物馆-望江亭,5.0,1,南山度假区,重庆,南山度假区,,,,,免费,是,https://dimg04.c-ctrip.com/images/1mh6v12000ghy2ap2E52F.jpg,https://you.ctrip.com/sight/chongqing158/145703423.html?scene=onlinesearch,29.573241,106.621622
知识科普型,博物馆,140549429,遇见博物馆（重庆）,0.0,0,礼嘉/欢乐谷,重庆,礼嘉/欢乐谷,,,,"博物馆, 博物馆&展馆",,否,https://dimg04.c-ctrip.com/images/0104712000bnuffv51488.jpg,https://you.ctrip.com/sight/chongqing158/140549429.html?scene=onlinesearch,29.684152,106.491474
知识科普型,博物馆,145286845,永川堃航博物馆,0.0,0,茶山竹海度假区,重庆,茶山竹海度假区,,,,博物馆&展馆,,否,https://dimg04.c-ctrip.com/images/0101412000e7adkjw6159.jpg,https://you.ctrip.com/sight/chongqing158/145286845.html?scene=onlinesearch,29.372007,105.912496
知识科普型,博物馆,145187674,大足冬菜博物馆,0.0,0,,重庆,,,,,博物馆&展馆,,否,https://dimg04.c-ctrip.com/images/0HJ6012000g75i3985EE4.jpg,https://you.ctrip.com/sight/chongqing158/145187674.html?scene=onlinesearch,29.628464,105.764069
知识科普型,博物馆,69103983,重庆彭水阿依河景区鱼类博物馆,5.0,1,,彭水,彭水,,,,"博物馆, 博物馆&展馆",,否,https://dimg04.c-ctrip.com/images/0105t12000gdzqh21C210.jpg,https://you.ctrip.com/sight/pengshuicounty2025231/69103983.html?scene=onlinesearch,29.158086,108.126506
知识科普型,博物馆,79438834,渝都古典相机缝纫机博物馆,0.0,0,龙兴度假区,重庆,龙兴度假区,,,,"博物馆, 博物馆&展馆",免费,是,https://dimg04.c-ctrip.com/images/100t1f000001g67xc7C05.png,https://you.ctrip.com/sight/chongqing158/5705205.html?scene=onlinesearch,29.691099,106.829572
知识科普型,博物馆,52067716,重庆长江石文化艺术博物馆,0.0,0,巴南万达/华熙鱼洞,重庆,巴南万达/华熙鱼洞,,,,"特色展馆, 博物馆&展馆",,否,https://dimg04.c-ctrip.com/images/0HJ0v12000g2u4flvA07A.jpg,https://you.ctrip.com/sight/chongqing158/4649613.html?scene=onlinesearch,29.393261,106.524711
知识科普型,博物馆,145628759,重庆抗战遗址博物馆-委员长侍从室,5.0,1,南山度假区,重庆,南山度假区,,,,,,否,https://dimg04.c-ctrip.com/images/1mh6y12000gggnssnC6A1.jpg,https://you.ctrip.com/sight/chongqing158/145628759.html?scene=onlinesearch,29.57255,106.625781
知识科普型,博物馆,148737667,气球博物馆乐园,0.0,0,观音桥/九街,重庆,观音桥/九街,,,,博物馆&展馆,,否,https://dimg04.c-ctrip.com/images/0HJ0712000g93mn7h0999.jpg,https://you.ctrip.com/sight/chongqing158/148737667.html?scene=onlinesearch,29.58326,106.537418
知识科普型,博物馆,145138090,三耳民俗博物馆,0.0,0,海兰云天温泉度假区,重庆,海兰云天温泉度假区,,,,博物馆&展馆,,否,https://dimg04.c-ctrip.com/images/0HJ5y12000g89xjb88142.jpg,https://you.ctrip.com/sight/chongqing158/145138090.html?scene=onlinesearch,29.520261,106.319297
知识科普型,博物馆,144093998,西南大学(北碚校区)-自然博物馆,0.0,0,西南大学/缙云山度假区,重庆,西南大学/缙云山度假区,,,,博物馆&展馆,,否,https://dimg04.c-ctrip.com/images/0HJ3212000g6gedi73C67.jpg,https://you.ctrip.com/sight/chongqing158/144093998.html?scene=onlinesearch,29.828551,106.43387
知识科普型,博物馆,145334162,中国喜文化博物馆,0.0,0,大坪/时代天街,重庆,大坪/时代天街,,,,博物馆&展馆,,否,https://dimg04.c-ctrip.com/images/0HJ2412000g8wfv0wEB39.jpg,https://you.ctrip.com/sight/chongqing158/145334162.html?scene=onlinesearch,29.52699,106.52875
知识科普型,博物馆,145818571,重庆抗战遗址博物馆-广场,0.0,0,南山度假区,重庆,南山度假区,,,,博物馆&展馆,,否,https://dimg04.c-ctrip.com/images/0104p12000gcq88m32D43.jpg,https://you.ctrip.com/sight/chongqing158/145818571.html?scene=onlinesearch,29.57256,106.625404
知识科普型,博物馆,145352723,重庆抗战遗址博物馆-草亭,5.0,1,南山度假区,重庆,南山度假区,,,,博物馆&展馆,免费,是,https://dimg04.c-ctrip.com/images/0103912000gcsgo4e13A7.jpg,https://you.ctrip.com/sight/chongqing158/145352723.html?scene=onlinesearch,29.572228,106.62323
知识科普型,博物馆,145728803,重庆抗战遗址博物馆-周至柔旧居,5.0,1,南山度假区,重庆,南山度假区,,,,博物馆&展馆,免费,是,https://dimg04.c-ctrip.com/images/1mh3a12000gk0r6zfFDE8.jpg,https://you.ctrip.com/sight/chongqing158/145728803.html?scene=onlinesearch,29.571448,106.622272
知识科普型,博物馆,39712416,少林堂中国民间医药博物馆,5.0,1,上清寺/人民大礼堂/李子坝,重庆,上清寺/人民大礼堂/李子坝,,,,"博物馆, 博物馆&展馆",,否,https://dimg04.c-ctrip.com/images/0104f120009lx5bdq58A4.jpg,https://you.ctrip.com/sight/chongqing158/3890077.html?scene=onlinesearch,29.556494,106.536622
知识科普型,博物馆,145443328,重庆工业博物馆钢魂馆,5.0,1,大渡口商业中心区,重庆,大渡口商业中心区,,,,博物馆&展馆,,否,https://dimg04.c-ctrip.com/images/0105l12000lb9jptm1F5F.jpg,https://you.ctrip.com/sight/chongqing158/145443328.html?scene=onlinesearch,29.476974,106.497788
知识科普型,博物馆,145552338,佛像艺术博物馆,5.0,1,重庆火车西站/巴国城,重庆,重庆火车西站/巴国城,,,,博物馆&展馆,,否,https://dimg04.c-ctrip.com/images/1mh2512000ljpkxvxF72A.jpg,https://you.ctrip.com/sight/chongqing158/145552338.html?scene=onlinesearch,29.495481,106.454077
知识科普型,博物馆,145174228,巴人博物馆-三展区,0.0,0,重庆火车西站/巴国城,重庆,重庆火车西站/巴国城,,,,博物馆&展馆,,否,https://dimg04.c-ctrip.com/images/0100l12000lmfcqgvAC91.jpg,https://you.ctrip.com/sight/chongqing158/145174228.html?scene=onlinesearch,29.505907,106.479678
知识科普型,博物馆,148554821,重庆黎香湖农耕博物馆,0.0,0,,重庆,,,,,博物馆&展馆,,否,https://dimg04.c-ctrip.com/images/0HJ3o12000g2swqc60B2E.jpg,https://you.ctrip.com/sight/chongqing158/148554821.html?scene=onlinesearch,29.36688,106.982086
知识科普型,博物馆,51963861,天府镇文星场彭勇博物馆,0.0,0,,重庆,,,,,"博物馆, 博物馆&展馆",,否,https://dimg04.c-ctrip.com/images/0105q12000cmtr8izC89B.jpg,https://you.ctrip.com/sight/chongqing158/4634313.html?scene=onlinesearch,29.869836,106.50567
知识科普型,博物馆,145327561,中国重庆缝纫机博物馆,0.0,0,龙兴度假区,重庆,龙兴度假区,,,,博物馆&展馆,,否,https://dimg04.c-ctrip.com/images/0HJ0l12000g6xyhgt2ADA.jpg,https://you.ctrip.com/sight/chongqing158/145327561.html?scene=onlinesearch,29.690727,106.829369
知识科普型,博物馆,145486283,重庆乡愁博物馆,0.0,0,,重庆,,,,,博物馆&展馆,,否,https://dimg04.c-ctrip.com/images/0HJ2d12000g6jn27iD31C.jpg,https://you.ctrip.com/sight/chongqing158/145486283.html?scene=onlinesearch,29.885605,106.724917
知识科普型,博物馆,145524158,江津花椒博物馆,0.0,0,,重庆,,,,,博物馆&展馆,,否,https://dimg04.c-ctrip.com/images/0HJ3812000g8yy3ucCA08.jpg,https://you.ctrip.com/sight/chongqing158/145524158.html?scene=onlinesearch,29.251974,106.226286
知识科普型,博物馆,145541849,冷皂博物馆,0.0,0,西南大学/缙云山度假区,重庆,西南大学/缙云山度假区,,,,博物馆&展馆,,否,https://dimg04.c-ctrip.com/images/0105h12000lnj5hzr0F0C.jpg,https://you.ctrip.com/sight/chongqing158/145541849.html?scene=onlinesearch,29.83505,106.451542
知识科普型,博物馆,145167804,中国大足五金博物馆-B馆,0.0,0,大足石刻度假区,重庆,大足石刻度假区,,,,博物馆&展馆,,否,https://dimg04.c-ctrip.com/images/0HJ1g12000g30snulBA55.jpg,https://you.ctrip.com/sight/chongqing158/145167804.html?scene=onlinesearch,29.733083,105.758428
知识科普型,博物馆,148786715,綦江博物馆-地质厅,0.0,0,古剑山度假区,重庆,古剑山度假区,,,,,,否,https://dimg04.c-ctrip.com/images/0HJ5a12000g2vhycxE66E.jpg,https://you.ctrip.com/sight/chongqing158/148786715.html?scene=onlinesearch,29.022793,106.659963
知识科普型,博物馆,124906594,綦岸盐运文化博物馆,0.0,0,,重庆,,,,,"博物馆, 博物馆&展馆",,否,https://dimg04.c-ctrip.com/images/0104q12000cxs2k0qF220.jpg,https://you.ctrip.com/sight/chongqing158/124906594.html?scene=onlinesearch,28.771751,106.674806
知识科普型,博物馆,145267264,重庆四面山生态博物馆,0.0,0,四面山度假区,重庆,四面山度假区,,,,博物馆&展馆,,否,https://dimg04.c-ctrip.com/images/0HJ5r12000g65nbh6E792.jpg,https://you.ctrip.com/sight/chongqing158/145267264.html?scene=onlinesearch,28.614724,106.439745
知识科普型,博物馆,145604193,重庆抗战遗址博物馆-听松台,5.0,1,南山度假区,重庆,南山度假区,,,,博物馆&展馆,,否,https://dimg04.c-ctrip.com/images/1mh0y12000gluw0y5AD6C.jpg,https://you.ctrip.com/sight/chongqing158/145604193.html?scene=onlinesearch,29.571384,106.625292
知识科普型,博物馆,145643367,重庆抗战遗址博物馆-古树园,5.0,1,南山度假区,重庆,南山度假区,,,,博物馆&展馆,,否,https://dimg04.c-ctrip.com/images/1mh3812000geq3daxAD0E.jpg,https://you.ctrip.com/sight/chongqing158/145643367.html?scene=onlinesearch,29.57245,106.625911
知识科普型,博物馆,145456702,重庆抗战遗址博物馆-松籁阁,5.0,1,南山度假区,重庆,南山度假区,,,,博物馆&展馆,免费,是,https://dimg04.c-ctrip.com/images/1mh3u12000gl9ves46A93.jpg,https://you.ctrip.com/sight/chongqing158/145456702.html?scene=onlinesearch,29.571182,106.625494
知识科普型,博物馆,145362572,重庆抗战遗址博物馆-云峰楼,5.0,1,南山度假区,重庆,南山度假区,,,,博物馆&展馆,免费,是,https://dimg04.c-ctrip.com/images/0103o12000gctfpth5A3A.jpg,https://you.ctrip.com/sight/chongqing158/145362572.html?scene=onlinesearch,29.57159,106.625585
知识科普型,博物馆,145451665,中国重庆抗战纺织博物馆,0.0,0,沙坪坝站/三峡广场,重庆,沙坪坝站/三峡广场,,,,博物馆&展馆,,否,https://dimg04.c-ctrip.com/images/1me6q12000ifgoi425162.jpg,https://you.ctrip.com/sight/chongqing158/145451665.html?scene=onlinesearch,29.560251,106.483311
知识科普型,博物馆,148612557,重庆故事博物馆,0.0,0,大坪/时代天街,重庆,大坪/时代天街,,,,博物馆&展馆,,否,https://dimg04.c-ctrip.com/images/0HJ5312000g91tfboEE07.jpg,https://you.ctrip.com/sight/chongqing158/148612557.html?scene=onlinesearch,29.527664,106.528444
知识科普型,博物馆,148682794,朱炳仁艺术博物馆,0.0,0,解放碑/洪崖洞,重庆,解放碑/洪崖洞,,,,博物馆&展馆,,否,https://dimg04.c-ctrip.com/images/1me5312000fij3xl195A0.jpg,https://you.ctrip.com/sight/chongqing158/148682794.html?scene=onlinesearch,29.557383,106.579087
知识科普型,博物馆,145481537,重庆抗战遗址博物馆-莲青楼,0.0,0,南山度假区,重庆,南山度假区,,,,博物馆&展馆,免费,是,https://dimg04.c-ctrip.com/images/0HJ2y12000g6oqihvA3F6.jpg,https://you.ctrip.com/sight/chongqing158/145481537.html?scene=onlinesearch,29.571676,106.623484
知识科普型,博物馆,145614012,南山盆景博物馆,0.0,0,南山度假区,重庆,南山度假区,,,,博物馆&展馆,,否,https://dimg04.c-ctrip.com/images/1me0n12000lzdi2yeF929.jpg,https://you.ctrip.com/sight/chongqing158/145614012.html?scene=onlinesearch,29.55929,106.631879
知识科普型,博物馆,145669076,民间祈福文化博物馆,0.0,0,大坪/时代天街,重庆,大坪/时代天街,,,,博物馆&展馆,,否,https://dimg04.c-ctrip.com/images/0HJ1v12000g2veam703B8.jpg,https://you.ctrip.com/sight/chongqing158/145669076.html?scene=onlinesearch,29.52708,106.528712
知识科普型,博物馆,52071489,小南海景区后坝民俗生态博物馆,4.5,2,,重庆,,,,,"博物馆, 博物馆&展馆",,否,https://dimg04.c-ctrip.com/images/1mh6m12000c485gyq5F93.jpg,https://you.ctrip.com/sight/chongqing158/4649911.html?scene=onlinesearch,29.658347,108.69264
知识科普型,博物馆,145573189,秀山博物馆-多功能厅,0.0,0,秀山火车站,秀山,秀山火车站,,,,,,否,https://dimg04.c-ctrip.com/images/0HJ6612000g8rin845A64.jpg,https://you.ctrip.com/sight/xiushancounty2025253/145573189.html?scene=onlinesearch,28.443246,108.991506
知识科普型,博物馆,145690470,中国乌江奇石博物馆,0.0,0,,彭水,彭水,,,,博物馆&展馆,,否,https://dimg04.c-ctrip.com/images/0HJ6512000g92stnr4530.jpg,https://you.ctrip.com/sight/pengshuicounty2025231/145690470.html?scene=onlinesearch,29.291252,108.167374
知识科普型,博物馆,145566697,重庆市万州区博物馆(西山碑管理处),0.0,0,万州万达广场,重庆,万州万达广场,,,,博物馆&展馆,,否,https://dimg04.c-ctrip.com/images/0103412000ew974inF920.jpg,https://you.ctrip.com/sight/chongqing158/145566697.html?scene=onlinesearch,30.816582,108.38427
知识科普型,博物馆,52071203,重庆抗战遗址博物馆-防空洞,1.0,1,南山度假区,重庆,南山度假区,,,,"历史建筑, 博物馆&展馆",,否,https://dimg04.c-ctrip.com/images/0101p120009pidsob095D.jpg,https://you.ctrip.com/sight/chongqing158/4649792.html?scene=onlinesearch,29.573186,106.623751
知识科普型,博物馆,135610025,钓鱼城历史文化博物馆,5.0,2,合川学院区,重庆,合川学院区,,,,"博物馆, 博物馆&展馆",免费,是,https://dimg04.c-ctrip.com/images/1mh0o12000kxina770844.jpg,https://you.ctrip.com/sight/chongqing158/135610025.html?scene=onlinesearch,30.007448,106.250461
知识科普型,博物馆,70539896,重庆恋爱博物馆,4.2,5,沙坪坝站/三峡广场,重庆,沙坪坝站/三峡广场,,,,"特色展馆, 博物馆&展馆",,否,https://dimg04.c-ctrip.com/images/10021g000001h9ybp2E66.jpg,https://you.ctrip.com/sight/chongqing158/5622414.html?scene=onlinesearch,29.564183,106.467989
知识科普型,博物馆,135985972,重庆抗战遗址博物馆-孔园,5.0,2,南山度假区,重庆,南山度假区,,,,"博物馆&展馆, 公园&植物园",,否,https://dimg04.c-ctrip.com/images/0101r12000dfc0u0u217A.jpg,https://you.ctrip.com/sight/chongqing158/135985972.html?scene=onlinesearch,29.573793,106.625395
知识科普型,博物馆,111989210,重庆市人类生命与健康博物馆,0.0,0,大学城/融创文旅城,重庆,大学城/融创文旅城,,,,"博物馆, 博物馆&展馆",,否,https://dimg04.c-ctrip.com/images/0HJ5e12000g2wcvlf809D.jpg,https://you.ctrip.com/sight/chongqing158/111989210.html?scene=onlinesearch,29.630988,106.31484
知识科普型,博物馆,52032422,良公祠民俗博物馆,0.0,0,,重庆,,,,,"博物馆, 博物馆&展馆",免费,是,https://dimg04.c-ctrip.com/images/0104d12000ccww02v00D1.jpg,https://you.ctrip.com/sight/chongqing158/4643360.html?scene=onlinesearch,30.792874,108.570194
知识科普型,博物馆,145209126,大礼堂博物馆,0.0,0,上清寺/人民大礼堂/李子坝,重庆,上清寺/人民大礼堂/李子坝,,,,博物馆&展馆,,否,https://dimg04.c-ctrip.com/images/fd/tg/g1/M06/FC/24/CghzflW7H_iATdynAAA-FlXAIeA738.jpg,https://you.ctrip.com/sight/chongqing158/145209126.html?scene=onlinesearch,29.568365,106.55985
知识科普型,博物馆,145215563,重庆观音桥初念博物馆,0.0,0,观音桥/九街,重庆,观音桥/九街,,,,博物馆&展馆,,否,https://dimg04.c-ctrip.com/images/fd/tg/g1/M06/FC/24/CghzflW7H_iATdynAAA-FlXAIeA738.jpg,https://you.ctrip.com/sight/chongqing158/145215563.html?scene=onlinesearch,29.578832,106.53959
知识科普型,博物馆,145453033,中国夏布博物馆,0.0,0,荣昌商业中心区,重庆,荣昌商业中心区,,,,博物馆&展馆,,否,https://dimg04.c-ctrip.com/images/fd/tg/g1/M06/FC/24/CghzflW7H_iATdynAAA-FlXAIeA738.jpg,https://you.ctrip.com/sight/chongqing158/145453033.html?scene=onlinesearch,29.426078,105.603369
知识科普型,博物馆,38371965,汉墓博物馆,5.0,1,丰都鬼城,丰都,丰都鬼城,,,,"博物馆, 博物馆&展馆",,否,https://dimg04.c-ctrip.com/images/fd/tg/g1/M08/AE/87/CghzfVW7IAOAbNKNAABCrs7mUrY425.jpg,https://you.ctrip.com/sight/fengducounty2025250/2562226.html?scene=onlinesearch,29.875323,107.739246
知识科普型,博物馆,145218826,钓鱼城古战场遗址博物馆基本陈列-第四陈列厅,0.0,0,,重庆,,,,,,,否,https://dimg04.c-ctrip.com/images/fd/tg/g1/M06/FC/24/CghzflW7H_iATdynAAA-FlXAIeA738.jpg,https://you.ctrip.com/sight/chongqing158/145218826.html?scene=onlinesearch,30.010934,106.322465
知识科普型,博物馆,149283893,全息动物园(重庆自然博物馆店),0.0,0,西南大学/缙云山度假区,重庆,西南大学/缙云山度假区,,,,,,否,https://dimg04.c-ctrip.com/images/fd/tg/g1/M06/FC/24/CghzflW7H_iATdynAAA-FlXAIeA738.jpg,https://you.ctrip.com/sight/chongqing158/149283893.html?scene=onlinesearch,29.825574,106.415022
知识科普型,博物馆,145109142,古镇瓷器博物馆,4.0,1,磁器口古镇,重庆,磁器口古镇,,,,博物馆&展馆,免费,是,https://dimg04.c-ctrip.com/images/fd/tg/g1/M06/FC/24/CghzflW7H_iATdynAAA-FlXAIeA738.jpg,https://you.ctrip.com/sight/chongqing158/145109142.html?scene=onlinesearch,29.586485,106.461521
知识科普型,博物馆,145334738,重庆红岩革命历史博物馆-篮球场,0.0,0,大坪/时代天街,重庆,大坪/时代天街,,,,,,否,https://dimg04.c-ctrip.com/images/0102u1200086k28vc0A5C.jpg,https://you.ctrip.com/sight/chongqing158/145334738.html?scene=onlinesearch,29.557312,106.503528
知识科普型,博物馆,130368177,金佛山喀斯特地质博物馆,0.0,0,金佛山度假区,重庆,金佛山度假区,,,,"博物馆, 博物馆&展馆",,否,https://dimg04.c-ctrip.com/images/fd/tg/g1/M08/AE/87/CghzfVW7IAOAbNKNAABCrs7mUrY425.jpg,https://you.ctrip.com/sight/chongqing158/130368177.html?scene=onlinesearch,29.058921,107.116991
知识科普型,博物馆,152894433,幻觉博物馆,0.0,0,解放碑/洪崖洞,重庆,解放碑/洪崖洞,,,,博物馆&展馆,,否,https://dimg04.c-ctrip.com/images/fd/tg/g1/M06/FC/24/CghzflW7H_iATdynAAA-FlXAIeA738.jpg,https://you.ctrip.com/sight/chongqing158/152894433.html?scene=onlinesearch,29.566393,106.587532
知识科普型,博物馆,145255170,家风家训博物馆,0.0,0,解放碑/洪崖洞,重庆,解放碑/洪崖洞,,,,博物馆&展馆,,否,https://dimg04.c-ctrip.com/images/fd/tg/g1/M06/FC/24/CghzflW7H_iATdynAAA-FlXAIeA738.jpg,https://you.ctrip.com/sight/chongqing158/145255170.html?scene=onlinesearch,29.558147,106.579856
知识科普型,博物馆,145292165,巫山博物馆-观景台,0.0,0,,巫山,巫山,,,,博物馆&展馆,,否,https://dimg04.c-ctrip.com/images/fd/tg/g1/M06/FC/24/CghzflW7H_iATdynAAA-FlXAIeA738.jpg,https://you.ctrip.com/sight/wushancounty2025187/145292165.html?scene=onlinesearch,31.079134,109.889759
知识科普型,博物馆,145687447,茶文化博物馆,0.0,0,解放碑/洪崖洞,重庆,解放碑/洪崖洞,,,,博物馆&展馆,,否,https://dimg04.c-ctrip.com/images/fd/tg/g1/M06/FC/24/CghzflW7H_iATdynAAA-FlXAIeA738.jpg,https://you.ctrip.com/sight/chongqing158/145687447.html?scene=onlinesearch,29.561861,106.584416
知识科普型,博物馆,145135923,雕刻博物馆,0.0,0,解放碑/洪崖洞,重庆,解放碑/洪崖洞,,,,博物馆&展馆,,否,https://dimg04.c-ctrip.com/images/fd/tg/g1/M06/FC/24/CghzflW7H_iATdynAAA-FlXAIeA738.jpg,https://you.ctrip.com/sight/chongqing158/145135923.html?scene=onlinesearch,29.563697,106.593602
知识科普型,博物馆,146110718,重庆自然博物馆-东广场,0.0,0,西南大学/缙云山度假区,重庆,西南大学/缙云山度假区,,,,博物馆&展馆,,否,https://dimg04.c-ctrip.com/images/0102u1200086k28vc0A5C.jpg,https://you.ctrip.com/sight/chongqing158/146110718.html?scene=onlinesearch,29.825552,106.415868
知识科普型,博物馆,51965419,汉马博物馆,0.0,0,解放碑/洪崖洞,重庆,解放碑/洪崖洞,,,,"博物馆, 博物馆&展馆",,否,https://dimg04.c-ctrip.com/images/fd/tg/g1/M08/AE/87/CghzfVW7IAOAbNKNAABCrs7mUrY425.jpg,https://you.ctrip.com/sight/chongqing158/4634051.html?scene=onlinesearch,29.563828,106.580709
知识科普型,博物馆,149266772,重庆旅游纪念品博物馆,0.0,0,龙兴度假区,重庆,龙兴度假区,,,,博物馆&展馆,,否,https://dimg04.c-ctrip.com/images/fd/tg/g1/M06/FC/24/CghzflW7H_iATdynAAA-FlXAIeA738.jpg,https://you.ctrip.com/sight/chongqing158/149266772.html?scene=onlinesearch,29.690092,106.829432
知识科普型,博物馆,145542585,抗战文物博物馆,0.0,0,杨家坪/重庆动物园,重庆,杨家坪/重庆动物园,,,,博物馆&展馆,,否,https://dimg04.c-ctrip.com/images/fd/tg/g1/M06/FC/24/CghzflW7H_iATdynAAA-FlXAIeA738.jpg,https://you.ctrip.com/sight/chongqing158/145542585.html?scene=onlinesearch,29.525709,106.528501
知识科普型,博物馆,145277071,中医药文化博物馆,0.0,0,杨家坪/重庆动物园,重庆,杨家坪/重庆动物园,,,,博物馆&展馆,,否,https://dimg04.c-ctrip.com/images/fd/tg/g1/M06/FC/24/CghzflW7H_iATdynAAA-FlXAIeA738.jpg,https://you.ctrip.com/sight/chongqing158/145277071.html?scene=onlinesearch,29.525541,106.528584
知识科普型,博物馆,145475980,渝酒博物馆,0.0,0,龙兴度假区,重庆,龙兴度假区,,,,博物馆&展馆,,否,https://dimg04.c-ctrip.com/images/fd/tg/g1/M06/FC/24/CghzflW7H_iATdynAAA-FlXAIeA738.jpg,https://you.ctrip.com/sight/chongqing158/145475980.html?scene=onlinesearch,29.690621,106.82915
知识科普型,博物馆,151342588,可以玩的博物馆(重庆来福士店),0.0,0,解放碑/洪崖洞,重庆,解放碑/洪崖洞,,,,,,否,https://dimg04.c-ctrip.com/images/fd/tg/g1/M06/FC/24/CghzflW7H_iATdynAAA-FlXAIeA738.jpg,https://you.ctrip.com/sight/chongqing158/151342588.html?scene=onlinesearch,29.571581,106.593163
知识科普型,博物馆,145285528,票证生活博物馆,0.0,0,杨家坪/重庆动物园,重庆,杨家坪/重庆动物园,,,,博物馆&展馆,,否,https://dimg04.c-ctrip.com/images/fd/tg/g1/M06/FC/24/CghzflW7H_iATdynAAA-FlXAIeA738.jpg,https://you.ctrip.com/sight/chongqing158/145285528.html?scene=onlinesearch,29.525333,106.528762
知识科普型,博物馆,145206061,成渝金融司法博物馆,0.0,0,解放碑/洪崖洞,重庆,解放碑/洪崖洞,,,,博物馆&展馆,,否,https://dimg04.c-ctrip.com/images/fd/tg/g1/M06/FC/24/CghzflW7H_iATdynAAA-FlXAIeA738.jpg,https://you.ctrip.com/sight/chongqing158/145206061.html?scene=onlinesearch,29.567139,106.590476
知识科普型,博物馆,148740429,重庆抗战遗址博物馆-松厅,0.0,0,南山度假区,重庆,南山度假区,,,,,免费,是,https://dimg04.c-ctrip.com/images/fd/tg/g1/M06/FC/24/CghzflW7H_iATdynAAA-FlXAIeA738.jpg,https://you.ctrip.com/sight/chongqing158/148740429.html?scene=onlinesearch,29.57364,106.624973
知识科普型,博物馆,145317708,钓鱼城古战场遗址博物馆基本陈列-第三陈列厅,0.0,0,,重庆,,,,,,,否,https://dimg04.c-ctrip.com/images/fd/tg/g1/M06/FC/24/CghzflW7H_iATdynAAA-FlXAIeA738.jpg,https://you.ctrip.com/sight/chongqing158/145317708.html?scene=onlinesearch,30.010935,106.322833
知识科普型,博物馆,145396517,钓鱼城古战场遗址博物馆基本陈列-第五陈列厅,0.0,0,,重庆,,,,,,,否,https://dimg04.c-ctrip.com/images/fd/tg/g1/M06/FC/24/CghzflW7H_iATdynAAA-FlXAIeA738.jpg,https://you.ctrip.com/sight/chongqing158/145396517.html?scene=onlinesearch,30.010799,106.322468
知识科普型,博物馆,145525477,钓鱼城古战场遗址博物馆基本陈列-第二陈列厅,0.0,0,,重庆,,,,,,,否,https://dimg04.c-ctrip.com/images/fd/tg/g1/M06/FC/24/CghzflW7H_iATdynAAA-FlXAIeA738.jpg,https://you.ctrip.com/sight/chongqing158/145525477.html?scene=onlinesearch,30.010801,106.322836
知识科普型,博物馆,145777318,大足石刻博物馆-北门广场,0.0,0,大足石刻度假区,重庆,大足石刻度假区,,,,博物馆&展馆,,否,https://dimg04.c-ctrip.com/images/0102u1200086k28vc0A5C.jpg,https://you.ctrip.com/sight/chongqing158/145777318.html?scene=onlinesearch,29.751677,105.800805
知识科普型,博物馆,145392124,钓鱼城古战场遗址博物馆基本陈列-第一陈列厅,0.0,0,,重庆,,,,,,,否,https://dimg04.c-ctrip.com/images/fd/tg/g1/M06/FC/24/CghzflW7H_iATdynAAA-FlXAIeA738.jpg,https://you.ctrip.com/sight/chongqing158/145392124.html?scene=onlinesearch,30.010636,106.322648
知识科普型,博物馆,145514690,地质博物馆,0.0,0,黑山谷/奥陶纪度假区,重庆,黑山谷/奥陶纪度假区,,,,博物馆&展馆,,否,https://dimg04.c-ctrip.com/images/fd/tg/g1/M06/FC/24/CghzflW7H_iATdynAAA-FlXAIeA738.jpg,https://you.ctrip.com/sight/chongqing158/145514690.html?scene=onlinesearch,28.841888,106.923975
知识科普型,博物馆,145356005,大足石刻博物馆-序厅,0.0,0,大足石刻度假区,重庆,大足石刻度假区,,,,,,否,https://dimg04.c-ctrip.com/images/fd/tg/g1/M06/FC/24/CghzflW7H_iATdynAAA-FlXAIeA738.jpg,https://you.ctrip.com/sight/chongqing158/145356005.html?scene=onlinesearch,29.751418,105.801245
知识科普型,博物馆,145599501,中国苴却砚精品博物馆,0.0,0,长寿古镇,重庆,长寿古镇,,,,博物馆&展馆,,否,https://dimg04.c-ctrip.com/images/fd/tg/g1/M06/FC/24/CghzflW7H_iATdynAAA-FlXAIeA738.jpg,https://you.ctrip.com/sight/chongqing158/145599501.html?scene=onlinesearch,29.863239,107.073119
知识科普型,博物馆,145682573,根石文化博物馆,0.0,0,长寿古镇,重庆,长寿古镇,,,,博物馆&展馆,,否,https://dimg04.c-ctrip.com/images/fd/tg/g1/M06/FC/24/CghzflW7H_iATdynAAA-FlXAIeA738.jpg,https://you.ctrip.com/sight/chongqing158/145682573.html?scene=onlinesearch,29.863302,107.073111
知识科普型,博物馆,148705185,周宏博尸体博物馆,0.0,0,,云阳,云阳,,,,博物馆&展馆,,否,https://dimg04.c-ctrip.com/images/fd/tg/g1/M06/FC/24/CghzflW7H_iATdynAAA-FlXAIeA738.jpg,https://you.ctrip.com/sight/yunyangcounty2025226/148705185.html?scene=onlinesearch,31.208309,108.823582
知识科普型,博物馆,152789252,重庆活体昆虫博物馆(万达广场重庆江津店),0.0,0,江津客运中心商圈,重庆,江津客运中心商圈,,,,博物馆&展馆,,否,https://dimg04.c-ctrip.com/images/fd/tg/g1/M06/FC/24/CghzflW7H_iATdynAAA-FlXAIeA738.jpg,https://you.ctrip.com/sight/chongqing158/152789252.html?scene=onlinesearch,29.320058,106.269913
知识科普型,博物馆,150005882,南岸区博物馆,0.0,0,茶园,重庆,茶园,,,,博物馆&展馆,,否,https://dimg04.c-ctrip.com/images/fd/tg/g1/M06/FC/24/CghzflW7H_iATdynAAA-FlXAIeA738.jpg,https://you.ctrip.com/sight/chongqing158/150005882.html?scene=onlinesearch,29.505179,106.65228
知识科普型,博物馆,150358419,红色江山博物馆,0.0,0,,重庆,,,,,博物馆&展馆,,否,https://dimg04.c-ctrip.com/images/fd/tg/g1/M06/FC/24/CghzflW7H_iATdynAAA-FlXAIeA738.jpg,https://you.ctrip.com/sight/chongqing158/150358419.html?scene=onlinesearch,29.925924,106.292708
知识科普型,博物馆,145355872,10月关爱女性博物馆,0.0,0,秀山火车站,秀山,秀山火车站,,,,博物馆&展馆,,否,https://dimg04.c-ctrip.com/images/fd/tg/g1/M06/FC/24/CghzflW7H_iATdynAAA-FlXAIeA738.jpg,https://you.ctrip.com/sight/xiushancounty2025253/145355872.html?scene=onlinesearch,28.450023,109.013355
知识科普型,博物馆,148862649,南川博物馆,0.0,0,金佛山度假区,重庆,金佛山度假区,,,,博物馆&展馆,,否,https://dimg04.c-ctrip.com/images/fd/tg/g1/M06/FC/24/CghzflW7H_iATdynAAA-FlXAIeA738.jpg,https://you.ctrip.com/sight/chongqing158/148862649.html?scene=onlinesearch,29.161677,107.109717
知识科普型,博物馆,146106020,龙兴博物馆,0.0,0,龙兴度假区,重庆,龙兴度假区,,,,博物馆&展馆,,否,https://dimg04.c-ctrip.com/images/fd/tg/g1/M06/FC/24/CghzflW7H_iATdynAAA-FlXAIeA738.jpg,https://you.ctrip.com/sight/chongqing158/146106020.html?scene=onlinesearch,29.702207,106.799819
知识科普型,博物馆,145451646,黄埔军校博物馆,0.0,0,,重庆,,,,,博物馆&展馆,,否,https://dimg04.c-ctrip.com/images/fd/tg/g1/M06/FC/24/CghzflW7H_iATdynAAA-FlXAIeA738.jpg,https://you.ctrip.com/sight/chongqing158/145451646.html?scene=onlinesearch,29.979564,106.03048
知识科普型,博物馆,145227556,巴人博物馆-一展区,0.0,0,重庆火车西站/巴国城,重庆,重庆火车西站/巴国城,,,,博物馆&展馆,,否,https://dimg04.c-ctrip.com/images/fd/tg/g1/M06/FC/24/CghzflW7H_iATdynAAA-FlXAIeA738.jpg,https://you.ctrip.com/sight/chongqing158/145227556.html?scene=onlinesearch,29.505722,106.47971
知识科普型,博物馆,150071973,南风知意如是国风体验馆(宝林博物馆店),0.0,0,汽博中心,重庆,汽博中心,,,,,,否,https://dimg04.c-ctrip.com/images/0102u1200086k28vc0A5C.jpg,https://you.ctrip.com/sight/chongqing158/150071973.html?scene=onlinesearch,29.671097,106.569607
知识科普型,博物馆,52071665,川江号子音乐博物馆,0.0,0,长寿湖度假区,重庆,长寿湖度假区,,,,"博物馆, 博物馆&展馆",,否,https://dimg04.c-ctrip.com/images/fd/tg/g1/M08/AE/87/CghzfVW7IAOAbNKNAABCrs7mUrY425.jpg,https://you.ctrip.com/sight/chongqing158/4650012.html?scene=onlinesearch,29.919744,107.242704
知识科普型,博物馆,148550332,江碧波艺术博物馆,0.0,0,重庆理工大学花溪校区,重庆,重庆理工大学花溪校区,,,,博物馆&展馆,,否,https://dimg04.c-ctrip.com/images/fd/tg/g1/M06/FC/24/CghzflW7H_iATdynAAA-FlXAIeA738.jpg,https://you.ctrip.com/sight/chongqing158/148550332.html?scene=onlinesearch,29.412698,106.562238
知识科普型,博物馆,148758321,小伴天·实景解密闯关·科普剧本探案·亲子游乐(自然博物馆店),0.0,0,西南大学/缙云山度假区,重庆,西南大学/缙云山度假区,,,,,,否,https://dimg04.c-ctrip.com/images/0102u1200086k28vc0A5C.jpg,https://you.ctrip.com/sight/chongqing158/148758321.html?scene=onlinesearch,29.808455,106.40446
知识科普型,博物馆,145127981,龙脉博物馆,0.0,0,重庆交通大学双福校区,重庆,重庆交通大学双福校区,,,,博物馆&展馆,,否,https://dimg04.c-ctrip.com/images/fd/tg/g1/M06/FC/24/CghzflW7H_iATdynAAA-FlXAIeA738.jpg,https://you.ctrip.com/sight/chongqing158/145127981.html?scene=onlinesearch,29.436787,106.277388
知识科普型,博物馆,145136697,巴人博物馆-五展区,0.0,0,重庆火车西站/巴国城,重庆,重庆火车西站/巴国城,,,,博物馆&展馆,,否,https://dimg04.c-ctrip.com/images/fd/tg/g1/M06/FC/24/CghzflW7H_iATdynAAA-FlXAIeA738.jpg,https://you.ctrip.com/sight/chongqing158/145136697.html?scene=onlinesearch,29.505721,106.479816
知识科普型,博物馆,145184323,上战武学博物馆,0.0,0,璧山商业中心区,重庆,璧山商业中心区,,,,博物馆&展馆,,否,https://dimg04.c-ctrip.com/images/fd/tg/g1/M06/FC/24/CghzflW7H_iATdynAAA-FlXAIeA738.jpg,https://you.ctrip.com/sight/chongqing158/145184323.html?scene=onlinesearch,29.590871,106.225006
知识科普型,博物馆,145225401,巴人博物馆-四展区,0.0,0,重庆火车西站/巴国城,重庆,重庆火车西站/巴国城,,,,博物馆&展馆,,否,https://dimg04.c-ctrip.com/images/fd/tg/g1/M06/FC/24/CghzflW7H_iATdynAAA-FlXAIeA738.jpg,https://you.ctrip.com/sight/chongqing158/145225401.html?scene=onlinesearch,29.505902,106.479796
知识科普型,博物馆,145278121,天子窖酒文化博物馆,0.0,0,,重庆,,,,,博物馆&展馆,,否,https://dimg04.c-ctrip.com/images/fd/tg/g1/M06/FC/24/CghzflW7H_iATdynAAA-FlXAIeA738.jpg,https://you.ctrip.com/sight/chongqing158/145278121.html?scene=onlinesearch,29.851278,106.789613
知识科普型,博物馆,145613598,北碚区古镇博物馆,0.0,0,金刀峡度假区,重庆,金刀峡度假区,,,,博物馆&展馆,,否,https://dimg04.c-ctrip.com/images/fd/tg/g1/M06/FC/24/CghzflW7H_iATdynAAA-FlXAIeA738.jpg,https://you.ctrip.com/sight/chongqing158/145613598.html?scene=onlinesearch,30.005928,106.662809
知识科普型,博物馆,145671257,巴人博物馆-二展区,0.0,0,重庆火车西站/巴国城,重庆,重庆火车西站/巴国城,,,,博物馆&展馆,,否,https://dimg04.c-ctrip.com/images/fd/tg/g1/M06/FC/24/CghzflW7H_iATdynAAA-FlXAIeA738.jpg,https://you.ctrip.com/sight/chongqing158/145671257.html?scene=onlinesearch,29.505802,106.479731
知识科普型,博物馆,145677659,重庆江北博物馆,0.0,0,观音桥/九街,重庆,观音桥/九街,,,,博物馆&展馆,,否,https://dimg04.c-ctrip.com/images/fd/tg/g1/M06/FC/24/CghzflW7H_iATdynAAA-FlXAIeA738.jpg,https://you.ctrip.com/sight/chongqing158/145677659.html?scene=onlinesearch,29.565846,106.535411
知识科普型,博物馆,148602245,梵华博物馆,0.0,0,南滨路/弹子石,重庆,南滨路/弹子石,,,,博物馆&展馆,,否,https://dimg04.c-ctrip.com/images/fd/tg/g1/M06/FC/24/CghzflW7H_iATdynAAA-FlXAIeA738.jpg,https://you.ctrip.com/sight/chongqing158/148602245.html?scene=onlinesearch,29.571541,106.601373
知识科普型,博物馆,152817043,重庆爱情博物馆,0.0,0,解放碑/洪崖洞,重庆,解放碑/洪崖洞,,,,博物馆&展馆,,否,https://dimg04.c-ctrip.com/images/fd/tg/g1/M06/FC/24/CghzflW7H_iATdynAAA-FlXAIeA738.jpg,https://you.ctrip.com/sight/chongqing158/152817043.html?scene=onlinesearch,29.561228,106.583066
知识科普型,博物馆,145697150,重庆巴渝诗词博物馆,0.0,0,解放碑/洪崖洞,重庆,解放碑/洪崖洞,,,,博物馆&展馆,,否,https://dimg04.c-ctrip.com/images/fd/tg/g1/M06/FC/24/CghzflW7H_iATdynAAA-FlXAIeA738.jpg,https://you.ctrip.com/sight/chongqing158/145697150.html?scene=onlinesearch,29.558288,106.573382
知识科普型,博物馆,150376552,趣博物馆,0.0,0,,重庆,,,,,博物馆&展馆,,否,https://dimg04.c-ctrip.com/images/fd/tg/g1/M06/FC/24/CghzflW7H_iATdynAAA-FlXAIeA738.jpg,https://you.ctrip.com/sight/chongqing158/150376552.html?scene=onlinesearch,29.596188,106.422442
知识科普型,博物馆,152892790,华兴镇团林村乡情博物馆,0.0,0,,重庆,,,,,博物馆&展馆,,否,https://dimg04.c-ctrip.com/images/fd/tg/g1/M06/FC/24/CghzflW7H_iATdynAAA-FlXAIeA738.jpg,https://you.ctrip.com/sight/chongqing158/152892790.html?scene=onlinesearch,29.580998,106.09986
知识科普型,博物馆,145208824,柳荫艺库乡村美育博物馆,0.0,0,金刀峡度假区,重庆,金刀峡度假区,,,,博物馆&展馆,,否,https://dimg04.c-ctrip.com/images/fd/tg/g1/M06/FC/24/CghzflW7H_iATdynAAA-FlXAIeA738.jpg,https://you.ctrip.com/sight/chongqing158/145208824.html?scene=onlinesearch,29.966081,106.61853
知识科普型,博物馆,145332764,重庆高新区长江文化博物馆聚落,0.0,0,海兰云天温泉度假区,重庆,海兰云天温泉度假区,,,,博物馆&展馆,,否,https://dimg04.c-ctrip.com/images/fd/tg/g1/M06/FC/24/CghzflW7H_iATdynAAA-FlXAIeA738.jpg,https://you.ctrip.com/sight/chongqing158/145332764.html?scene=onlinesearch,29.521021,106.31957
知识科普型,博物馆,145466265,农耕文化博物馆,0.0,0,,重庆,,,,,博物馆&展馆,,否,https://dimg04.c-ctrip.com/images/fd/tg/g1/M06/FC/24/CghzflW7H_iATdynAAA-FlXAIeA738.jpg,https://you.ctrip.com/sight/chongqing158/145466265.html?scene=onlinesearch,29.869704,106.702538
知识科普型,博物馆,145583238,金凤乡情博物馆,0.0,0,海兰云天温泉度假区,重庆,海兰云天温泉度假区,,,,博物馆&展馆,,否,https://dimg04.c-ctrip.com/images/fd/tg/g1/M06/FC/24/CghzflW7H_iATdynAAA-FlXAIeA738.jpg,https://you.ctrip.com/sight/chongqing158/145583238.html?scene=onlinesearch,29.520294,106.319309
知识科普型,博物馆,145690661,北碚磨滩农耕文明博物馆,0.0,0,西南大学/缙云山度假区,重庆,西南大学/缙云山度假区,,,,博物馆&展馆,,否,https://dimg04.c-ctrip.com/images/fd/tg/g1/M06/FC/24/CghzflW7H_iATdynAAA-FlXAIeA738.jpg,https://you.ctrip.com/sight/chongqing158/145690661.html?scene=onlinesearch,29.764732,106.410466
知识科普型,博物馆,149969980,巴人博物馆-养生字书堂,0.0,0,重庆火车西站/巴国城,重庆,重庆火车西站/巴国城,,,,博物馆&展馆,,否,https://dimg04.c-ctrip.com/images/fd/tg/g1/M06/FC/24/CghzflW7H_iATdynAAA-FlXAIeA738.jpg,https://you.ctrip.com/sight/chongqing158/149969980.html?scene=onlinesearch,29.506108,106.479888
知识科普型,博物馆,150193824,云山博物馆2号楼,0.0,0,,重庆,,,,,博物馆&展馆,,否,https://dimg04.c-ctrip.com/images/fd/tg/g1/M06/FC/24/CghzflW7H_iATdynAAA-FlXAIeA738.jpg,https://you.ctrip.com/sight/chongqing158/150193824.html?scene=onlinesearch,29.671298,106.569833
知识科普型,博物馆,150203612,两江贝岭博物馆,0.0,0,汽博中心,重庆,汽博中心,,,,博物馆&展馆,,否,https://dimg04.c-ctrip.com/images/fd/tg/g1/M06/FC/24/CghzflW7H_iATdynAAA-FlXAIeA738.jpg,https://you.ctrip.com/sight/chongqing158/150203612.html?scene=onlinesearch,29.671458,106.569773
知识科普型,博物馆,151258646,玖黎苗族博物馆,0.0,0,磁器口古镇,重庆,磁器口古镇,,,,,,否,https://dimg04.c-ctrip.com/images/fd/tg/g1/M06/FC/24/CghzflW7H_iATdynAAA-FlXAIeA738.jpg,https://you.ctrip.com/sight/chongqing158/151258646.html?scene=onlinesearch,29.585773,106.454308
知识科普型,博物馆,153129141,木洞水驿博物馆,0.0,0,东温泉度假区,重庆,东温泉度假区,,,,,,否,https://dimg04.c-ctrip.com/images/fd/tg/g1/M06/FC/24/CghzflW7H_iATdynAAA-FlXAIeA738.jpg,https://you.ctrip.com/sight/chongqing158/153129141.html?scene=onlinesearch,29.578803,106.849849
知识科普型,博物馆,149959911,荣昌历史陶博物馆,0.0,0,,重庆,,,,,博物馆&展馆,,否,https://dimg04.c-ctrip.com/images/fd/tg/g1/M06/FC/24/CghzflW7H_iATdynAAA-FlXAIeA738.jpg,https://you.ctrip.com/sight/chongqing158/149959911.html?scene=onlinesearch,29.364537,105.480289
知识科普型,博物馆,38368709,武陵山民俗生态博物馆,0.0,0,,重庆,,,,,"博物馆, 博物馆&展馆",,否,https://dimg04.c-ctrip.com/images/fd/tg/g1/M08/AE/87/CghzfVW7IAOAbNKNAABCrs7mUrY425.jpg,https://you.ctrip.com/sight/chongqing158/2558970.html?scene=onlinesearch,29.657362,108.692838
知识科普型,博物馆,150403240,重庆抗战戏剧博物馆,0.0,0,,重庆,,,,,博物馆&展馆,,否,https://dimg04.c-ctrip.com/images/fd/tg/g1/M06/FC/24/CghzflW7H_iATdynAAA-FlXAIeA738.jpg,https://you.ctrip.com/sight/chongqing158/150403240.html?scene=onlinesearch,29.56683,106.579825
知识科普型,博物馆,149275133,遗憾博物馆(重庆总店),0.0,0,南坪商业中心区,重庆,南坪商业中心区,,,,博物馆&展馆,,否,https://dimg04.c-ctrip.com/images/0102u1200086k28vc0A5C.jpg,https://you.ctrip.com/sight/chongqing158/149275133.html?scene=onlinesearch,29.536191,106.571036
知识科普型,博物馆,52079231,万州武陵镇民营博物馆,0.0,0,,重庆,,,,,"博物馆, 博物馆&展馆",,否,https://dimg04.c-ctrip.com/images/fd/tg/g1/M08/AE/87/CghzfVW7IAOAbNKNAABCrs7mUrY425.jpg,https://you.ctrip.com/sight/chongqing158/4647905.html?scene=onlinesearch,30.511,108.261
知识科普型,博物馆,150133504,名师博物馆,0.0,0,杨家坪/重庆动物园,重庆,杨家坪/重庆动物园,,,,博物馆&展馆,,否,https://dimg04.c-ctrip.com/images/fd/tg/g1/M06/FC/24/CghzflW7H_iATdynAAA-FlXAIeA738.jpg,https://you.ctrip.com/sight/chongqing158/150133504.html?scene=onlinesearch,29.492967,106.547321
知识科普型,博物馆,145207715,初恋颜色博物馆,0.0,0,沙坪坝站/三峡广场,重庆,沙坪坝站/三峡广场,,,,博物馆&展馆,,否,https://dimg04.c-ctrip.com/images/fd/tg/g1/M06/FC/24/CghzflW7H_iATdynAAA-FlXAIeA738.jpg,https://you.ctrip.com/sight/chongqing158/145207715.html?scene=onlinesearch,29.564135,106.467882
知识科普型,博物馆,145275631,重庆师范大学(沙坪坝校区)-博物馆,0.0,0,沙坪坝站/三峡广场,重庆,沙坪坝站/三峡广场,,,,博物馆&展馆,,否,https://dimg04.c-ctrip.com/images/fd/tg/g1/M06/FC/24/CghzflW7H_iATdynAAA-FlXAIeA738.jpg,https://you.ctrip.com/sight/chongqing158/145275631.html?scene=onlinesearch,29.561831,106.464587
知识科普型,博物馆,145308126,美心红酒博物馆-3号厅,0.0,0,汽博中心,重庆,汽博中心,,,,,,否,https://dimg04.c-ctrip.com/images/fd/tg/g1/M06/FC/24/CghzflW7H_iATdynAAA-FlXAIeA738.jpg,https://you.ctrip.com/sight/chongqing158/145308126.html?scene=onlinesearch,29.639533,106.576737
知识科普型,博物馆,145354657,重庆缝纫机博物馆,0.0,0,沙坪坝站/三峡广场,重庆,沙坪坝站/三峡广场,,,,博物馆&展馆,,否,https://dimg04.c-ctrip.com/images/fd/tg/g1/M06/FC/24/CghzflW7H_iATdynAAA-FlXAIeA738.jpg,https://you.ctrip.com/sight/chongqing158/145354657.html?scene=onlinesearch,29.57213,106.478123
知识科普型,博物馆,148582596,小萌探侦探社(博物馆店),0.0,0,观音桥/九街,重庆,观音桥/九街,,,,,,否,https://dimg04.c-ctrip.com/images/0102u1200086k28vc0A5C.jpg,https://you.ctrip.com/sight/chongqing158/148582596.html?scene=onlinesearch,29.576916,106.501194
知识科普型,博物馆,79438822,巫山长康博物馆,0.0,0,,巫山,巫山,,,,"博物馆, 博物馆&展馆",免费,是,https://dimg04.c-ctrip.com/images/fd/tg/g1/M08/AE/87/CghzfVW7IAOAbNKNAABCrs7mUrY425.jpg,https://you.ctrip.com/sight/wushancounty2025187/5705213.html?scene=onlinesearch,31.110678,109.89207
知识科普型,博物馆,145353954,渝商博物馆,0.0,0,观音桥/九街,重庆,观音桥/九街,,,,博物馆&展馆,,否,https://dimg04.c-ctrip.com/images/fd/tg/g1/M06/FC/24/CghzflW7H_iATdynAAA-FlXAIeA738.jpg,https://you.ctrip.com/sight/chongqing158/145353954.html?scene=onlinesearch,29.5884,106.568984
知识科普型,博物馆,150291717,无届游戏博物馆,0.0,0,,重庆,,,,,博物馆&展馆,,否,https://dimg04.c-ctrip.com/images/fd/tg/g1/M06/FC/24/CghzflW7H_iATdynAAA-FlXAIeA738.jpg,https://you.ctrip.com/sight/chongqing158/150291717.html?scene=onlinesearch,29.579934,106.535983
知识科普型,博物馆,152843672,宠胖胖奇幻动物博物馆(龙湖重庆时代天街C馆店),0.0,0,大坪/时代天街,重庆,大坪/时代天街,,,,博物馆&展馆,,否,https://dimg04.c-ctrip.com/images/fd/tg/g1/M06/FC/24/CghzflW7H_iATdynAAA-FlXAIeA738.jpg,https://you.ctrip.com/sight/chongqing158/152843672.html?scene=onlinesearch,29.542379,106.518631
知识科普型,博物馆,150279403,重庆知青博物馆陈列室,0.0,0,,重庆,,,,,博物馆&展馆,,否,https://dimg04.c-ctrip.com/images/fd/tg/g1/M06/FC/24/CghzflW7H_iATdynAAA-FlXAIeA738.jpg,https://you.ctrip.com/sight/chongqing158/150279403.html?scene=onlinesearch,29.528148,106.564912
知识科普型,博物馆,153135922,楠神博物馆,0.0,0,解放碑/洪崖洞,重庆,解放碑/洪崖洞,,,,,,否,https://dimg04.c-ctrip.com/images/fd/tg/g1/M06/FC/24/CghzflW7H_iATdynAAA-FlXAIeA738.jpg,https://you.ctrip.com/sight/chongqing158/153135922.html?scene=onlinesearch,29.555729,106.578582
知识科普型,博物馆,153136436,贵州小吃博物馆,0.0,0,大坪/时代天街,重庆,大坪/时代天街,,,,,,否,https://dimg04.c-ctrip.com/images/fd/tg/g1/M06/FC/24/CghzflW7H_iATdynAAA-FlXAIeA738.jpg,https://you.ctrip.com/sight/chongqing158/153136436.html?scene=onlinesearch,29.542911,106.518321
知识科普型,博物馆,152891354,爱的博物馆(渝中馆),0.0,0,解放碑/洪崖洞,重庆,解放碑/洪崖洞,,,,博物馆&展馆,,否,https://dimg04.c-ctrip.com/images/fd/tg/g1/M06/FC/24/CghzflW7H_iATdynAAA-FlXAIeA738.jpg,https://you.ctrip.com/sight/chongqing158/152891354.html?scene=onlinesearch,29.5669,106.573117
知识科普型,博物馆,145693828,汉马博物馆,0.0,0,万州万达广场,重庆,万州万达广场,,,,博物馆&展馆,,否,https://dimg04.c-ctrip.com/images/fd/tg/g1/M06/FC/24/CghzflW7H_iATdynAAA-FlXAIeA738.jpg,https://you.ctrip.com/sight/chongqing158/145693828.html?scene=onlinesearch,30.807664,108.38568
知识科普型,博物馆,145248433,酉阳桃源丝绸博物馆,0.0,0,,酉阳,酉阳,,,,博物馆&展馆,,否,https://dimg04.c-ctrip.com/images/fd/tg/g1/M06/FC/24/CghzflW7H_iATdynAAA-FlXAIeA738.jpg,https://you.ctrip.com/sight/youyangcounty2025213/145248433.html?scene=onlinesearch,28.866509,108.772814
知识科普型,博物馆,150249765,雨青博物馆陈列布展工程EPC总承包广州珠江建筑装饰有限公司承建,0.0,0,,重庆,,,,,博物馆&展馆,,否,https://dimg04.c-ctrip.com/images/fd/tg/g1/M06/FC/24/CghzflW7H_iATdynAAA-FlXAIeA738.jpg,https://you.ctrip.com/sight/chongqing158/150249765.html?scene=onlinesearch,31.186347,108.448973
知识科普型,博物馆,145466240,合川桃片博物馆,0.0,0,,重庆,,,,,博物馆&展馆,,否,https://dimg04.c-ctrip.com/images/fd/tg/g1/M06/FC/24/CghzflW7H_iATdynAAA-FlXAIeA738.jpg,https://you.ctrip.com/sight/chongqing158/145466240.html?scene=onlinesearch,30.031556,106.292603
知识科普型,博物馆,145506206,重庆市威力纳尔车艺术博物馆,0.0,0,汽博中心,重庆,汽博中心,,,,博物馆&展馆,,否,https://dimg04.c-ctrip.com/images/fd/tg/g1/M06/FC/24/CghzflW7H_iATdynAAA-FlXAIeA738.jpg,https://you.ctrip.com/sight/chongqing158/145506206.html?scene=onlinesearch,29.635708,106.582634
知识科普型,博物馆,148614794,游戏博物馆(一奥天地THE OVAL店),0.0,0,汽博中心,重庆,汽博中心,,,,博物馆&展馆,,否,https://dimg04.c-ctrip.com/images/0102u1200086k28vc0A5C.jpg,https://you.ctrip.com/sight/chongqing158/148614794.html?scene=onlinesearch,29.651204,106.57478
知识科普型,博物馆,152820542,美心红酒博物馆(美岸江山店),0.0,0,南滨路/弹子石,重庆,南滨路/弹子石,,,,博物馆&展馆,,否,https://dimg04.c-ctrip.com/images/fd/tg/g1/M06/FC/24/CghzflW7H_iATdynAAA-FlXAIeA738.jpg,https://you.ctrip.com/sight/chongqing158/152820542.html?scene=onlinesearch,29.613384,106.607599
知识科普型,博物馆,150318083,重庆宗明酒文化博物馆,0.0,0,,重庆,,,,,博物馆&展馆,,否,https://dimg04.c-ctrip.com/images/fd/tg/g1/M06/FC/24/CghzflW7H_iATdynAAA-FlXAIeA738.jpg,https://you.ctrip.com/sight/chongqing158/150318083.html?scene=onlinesearch,29.528603,106.488082
知识科普型,博物馆,150286848,石柱红美食博物馆,0.0,0,,石柱,石柱,,,,博物馆&展馆,,否,https://dimg04.c-ctrip.com/images/fd/tg/g1/M06/FC/24/CghzflW7H_iATdynAAA-FlXAIeA738.jpg,https://you.ctrip.com/sight/shizhucounty2025257/150286848.html?scene=onlinesearch,29.978108,108.106925
知识科普型,博物馆,145661248,翠屏山景区-木化石博物馆,0.0,0,古剑山度假区,重庆,古剑山度假区,,,,博物馆&展馆,,否,https://dimg04.c-ctrip.com/images/fd/tg/g1/M06/FC/24/CghzflW7H_iATdynAAA-FlXAIeA738.jpg,https://you.ctrip.com/sight/chongqing158/145661248.html?scene=onlinesearch,29.025306,106.675477
知识科普型,博物馆,151332870,重庆火锅博物馆,0.0,0,合川学院区,重庆,合川学院区,,,,博物馆&展馆,,否,https://dimg04.c-ctrip.com/images/fd/tg/g1/M06/FC/24/CghzflW7H_iATdynAAA-FlXAIeA738.jpg,https://you.ctrip.com/sight/chongqing158/151332870.html?scene=onlinesearch,29.9874,106.28294
知识科普型,博物馆,148619249,三江民俗博物馆,0.0,0,,重庆,,,,,博物馆&展馆,,否,https://dimg04.c-ctrip.com/images/fd/tg/g1/M06/FC/24/CghzflW7H_iATdynAAA-FlXAIeA738.jpg,https://you.ctrip.com/sight/chongqing158/148619249.html?scene=onlinesearch,30.037518,106.274489
知识科普型,博物馆,148667613,重庆茶叶博物馆-茶史厅,0.0,0,茶山竹海度假区,重庆,茶山竹海度假区,,,,博物馆&展馆,,否,https://dimg04.c-ctrip.com/images/fd/tg/g1/M06/FC/24/CghzflW7H_iATdynAAA-FlXAIeA738.jpg,https://you.ctrip.com/sight/chongqing158/148667613.html?scene=onlinesearch,29.385476,105.945496
知识科普型,博物馆,150243426,中华百家姓历史文化博物馆,0.0,0,长寿古镇,重庆,长寿古镇,,,,博物馆&展馆,,否,https://dimg04.c-ctrip.com/images/fd/tg/g1/M06/FC/24/CghzflW7H_iATdynAAA-FlXAIeA738.jpg,https://you.ctrip.com/sight/chongqing158/150243426.html?scene=onlinesearch,29.82662,107.083721
知识科普型,博物馆,145341627,千年大昌博物馆,0.0,0,,巫山,巫山,,,,博物馆&展馆,,否,https://dimg04.c-ctrip.com/images/fd/tg/g1/M06/FC/24/CghzflW7H_iATdynAAA-FlXAIeA738.jpg,https://you.ctrip.com/sight/wushancounty2025187/145341627.html?scene=onlinesearch,31.261871,109.833215
知识科普型,博物馆,145686792,三峡菜博物馆,0.0,0,奉节白帝城,奉节,奉节白帝城,,,,博物馆&展馆,,否,https://dimg04.c-ctrip.com/images/fd/tg/g1/M06/FC/24/CghzflW7H_iATdynAAA-FlXAIeA738.jpg,https://you.ctrip.com/sight/fengjiecounty2025223/145686792.html?scene=onlinesearch,31.027026,109.472968
知识科普型,博物馆,143731286,武隆博物馆-展厅,0.0,0,武隆区人民政府/武隆喀斯特旅游区,重庆,武隆区人民政府/武隆喀斯特旅游区,,,,"博物馆, 博物馆&展馆",,否,https://dimg04.c-ctrip.com/images/fd/tg/g1/M08/AE/87/CghzfVW7IAOAbNKNAABCrs7mUrY425.jpg,https://you.ctrip.com/sight/chongqing158/143731286.html?scene=onlinesearch,29.332591,107.775314
知识科普型,博物馆,145602630,乡情博物馆,0.0,0,,重庆,,,,,博物馆&展馆,,否,https://dimg04.c-ctrip.com/images/fd/tg/g1/M06/FC/24/CghzflW7H_iATdynAAA-FlXAIeA738.jpg,https://you.ctrip.com/sight/chongqing158/145602630.html?scene=onlinesearch,29.767003,106.080743
知识科普型,博物馆,145612429,原乡自然博物馆,0.0,0,,重庆,,,,,博物馆&展馆,,否,https://dimg04.c-ctrip.com/images/fd/tg/g1/M06/FC/24/CghzflW7H_iATdynAAA-FlXAIeA738.jpg,https://you.ctrip.com/sight/chongqing158/145612429.html?scene=onlinesearch,29.637641,105.765849
知识科普型,博物馆,145671126,川剧文化博物馆,0.0,0,,重庆,,,,,博物馆&展馆,,否,https://dimg04.c-ctrip.com/images/fd/tg/g1/M06/FC/24/CghzflW7H_iATdynAAA-FlXAIeA738.jpg,https://you.ctrip.com/sight/chongqing158/145671126.html?scene=onlinesearch,29.740724,105.996006
知识科普型,博物馆,145157898,永川博物馆-自然厅,0.0,0,茶山竹海度假区,重庆,茶山竹海度假区,,,,博物馆&展馆,,否,https://dimg04.c-ctrip.com/images/fd/tg/g1/M06/FC/24/CghzflW7H_iATdynAAA-FlXAIeA738.jpg,https://you.ctrip.com/sight/chongqing158/145157898.html?scene=onlinesearch,29.38574,105.940457
知识科普型,博物馆,145247287,重庆茶叶博物馆-临展厅,0.0,0,茶山竹海度假区,重庆,茶山竹海度假区,,,,,,否,https://dimg04.c-ctrip.com/images/fd/tg/g1/M06/FC/24/CghzflW7H_iATdynAAA-FlXAIeA738.jpg,https://you.ctrip.com/sight/chongqing158/145247287.html?scene=onlinesearch,29.385536,105.945869
知识科普型,博物馆,145533948,僚人文化博物馆,0.0,0,古剑山度假区,重庆,古剑山度假区,,,,博物馆&展馆,,否,https://dimg04.c-ctrip.com/images/fd/tg/g1/M06/FC/24/CghzflW7H_iATdynAAA-FlXAIeA738.jpg,https://you.ctrip.com/sight/chongqing158/145533948.html?scene=onlinesearch,28.983042,106.630999
知识科普型,博物馆,145653288,长寿柚博物馆,0.0,0,长寿湖度假区,重庆,长寿湖度假区,,,,博物馆&展馆,,否,https://dimg04.c-ctrip.com/images/fd/tg/g1/M06/FC/24/CghzflW7H_iATdynAAA-FlXAIeA738.jpg,https://you.ctrip.com/sight/chongqing158/145653288.html?scene=onlinesearch,29.886781,107.209239
知识科普型,博物馆,148619011,重庆善堂中医药博物馆,0.0,0,,重庆,,,,,博物馆&展馆,,否,https://dimg04.c-ctrip.com/images/fd/tg/g1/M06/FC/24/CghzflW7H_iATdynAAA-FlXAIeA738.jpg,https://you.ctrip.com/sight/chongqing158/148619011.html?scene=onlinesearch,29.064259,106.129287
知识科普型,博物馆,148767626,中国砂浆博物馆,0.0,0,,重庆,,,,,博物馆&展馆,,否,https://dimg04.c-ctrip.com/images/fd/tg/g1/M06/FC/24/CghzflW7H_iATdynAAA-FlXAIeA738.jpg,https://you.ctrip.com/sight/chongqing158/148767626.html?scene=onlinesearch,29.021453,106.574741
知识科普型,博物馆,148786783,永川博物馆-历史厅,0.0,0,茶山竹海度假区,重庆,茶山竹海度假区,,,,,,否,https://dimg04.c-ctrip.com/images/fd/tg/g1/M06/FC/24/CghzflW7H_iATdynAAA-FlXAIeA738.jpg,https://you.ctrip.com/sight/chongqing158/148786783.html?scene=onlinesearch,29.385949,105.940518
知识科普型,博物馆,145309807,云阳朐忍民俗博物馆,0.0,0,,云阳,云阳,,,,博物馆&展馆,,否,https://dimg04.c-ctrip.com/images/fd/tg/g1/M06/FC/24/CghzflW7H_iATdynAAA-FlXAIeA738.jpg,https://you.ctrip.com/sight/yunyangcounty2025226/145309807.html?scene=onlinesearch,30.928375,108.720191
知识科普型,博物馆,145690495,心跳博物馆,0.0,0,,重庆,,,,,博物馆&展馆,,否,https://dimg04.c-ctrip.com/images/fd/tg/g1/M06/FC/24/CghzflW7H_iATdynAAA-FlXAIeA738.jpg,https://you.ctrip.com/sight/chongqing158/145690495.html?scene=onlinesearch,29.435749,107.695575
知识科普型,博物馆,148748590,爱的博物馆,0.0,0,,重庆,,,,,博物馆&展馆,,否,https://dimg04.c-ctrip.com/images/fd/tg/g1/M06/FC/24/CghzflW7H_iATdynAAA-FlXAIeA738.jpg,https://you.ctrip.com/sight/chongqing158/148748590.html?scene=onlinesearch,29.430766,107.704481
知识科普型,博物馆,150150690,云阳县旅游集散中心及博物馆,0.0,0,,云阳,云阳,,,,博物馆&展馆,,否,https://dimg04.c-ctrip.com/images/fd/tg/g1/M06/FC/24/CghzflW7H_iATdynAAA-FlXAIeA738.jpg,https://you.ctrip.com/sight/yunyangcounty2025226/150150690.html?scene=onlinesearch,30.961892,108.720959
知识科普型,博物馆,150386006,人民邮电社区博物馆,0.0,0,,重庆,,,,,博物馆&展馆,,否,https://dimg04.c-ctrip.com/images/fd/tg/g1/M06/FC/24/CghzflW7H_iATdynAAA-FlXAIeA738.jpg,https://you.ctrip.com/sight/chongqing158/150386006.html?scene=onlinesearch,29.355702,105.899368
知识科普型,博物馆,145109017,永川博物馆-书画厅,0.0,0,茶山竹海度假区,重庆,茶山竹海度假区,,,,博物馆&展馆,,否,https://dimg04.c-ctrip.com/images/fd/tg/g1/M06/FC/24/CghzflW7H_iATdynAAA-FlXAIeA738.jpg,https://you.ctrip.com/sight/chongqing158/145109017.html?scene=onlinesearch,29.38587,105.940671
知识科普型,博物馆,145115423,重庆茶叶博物馆-巴渝厅,0.0,0,茶山竹海度假区,重庆,茶山竹海度假区,,,,博物馆&展馆,,否,https://dimg04.c-ctrip.com/images/fd/tg/g1/M06/FC/24/CghzflW7H_iATdynAAA-FlXAIeA738.jpg,https://you.ctrip.com/sight/chongqing158/145115423.html?scene=onlinesearch,29.385491,105.945593
知识科普型,博物馆,145184315,重庆茶叶博物馆-接待厅,0.0,0,茶山竹海度假区,重庆,茶山竹海度假区,,,,,,否,https://dimg04.c-ctrip.com/images/fd/tg/g1/M06/FC/24/CghzflW7H_iATdynAAA-FlXAIeA738.jpg,https://you.ctrip.com/sight/chongqing158/145184315.html?scene=onlinesearch,29.385685,105.945581
知识科普型,博物馆,148642676,綦江博物馆-历史文化厅,0.0,0,古剑山度假区,重庆,古剑山度假区,,,,,,否,https://dimg04.c-ctrip.com/images/fd/tg/g1/M06/FC/24/CghzflW7H_iATdynAAA-FlXAIeA738.jpg,https://you.ctrip.com/sight/chongqing158/148642676.html?scene=onlinesearch,29.02289,106.66001
知识科普型,博物馆,150231824,喜夫人刀具冬菜博物馆店,0.0,0,,重庆,,,,,博物馆&展馆,,否,https://dimg04.c-ctrip.com/images/fd/tg/g1/M06/FC/24/CghzflW7H_iATdynAAA-FlXAIeA738.jpg,https://you.ctrip.com/sight/chongqing158/150231824.html?scene=onlinesearch,29.628279,105.763931
知识科普型,博物馆,150363318,石油人社区博物馆,0.0,0,,重庆,,,,,博物馆&展馆,,否,https://dimg04.c-ctrip.com/images/fd/tg/g1/M06/FC/24/CghzflW7H_iATdynAAA-FlXAIeA738.jpg,https://you.ctrip.com/sight/chongqing158/150363318.html?scene=onlinesearch,29.363098,105.903989
知识科普型,博物馆,150362421,巫山博物馆社教中心,0.0,0,,巫山,巫山,,,,博物馆&展馆,,否,https://dimg04.c-ctrip.com/images/fd/tg/g1/M06/FC/24/CghzflW7H_iATdynAAA-FlXAIeA738.jpg,https://you.ctrip.com/sight/wushancounty2025187/150362421.html?scene=onlinesearch,31.07878,109.889301
知识科普型,博物馆,150195128,黄土村农耕文化博物馆,0.0,0,,忠县,忠县,,,,博物馆&展馆,,否,https://dimg04.c-ctrip.com/images/fd/tg/g1/M06/FC/24/CghzflW7H_iATdynAAA-FlXAIeA738.jpg,https://you.ctrip.com/sight/zhongcounty2025198/150195128.html?scene=onlinesearch,30.400512,107.996306
知识科普型,博物馆,52116715,重庆火锅天下宴博物馆（北滨路店）,4.8,78,观音桥/九街,重庆,观音桥/九街,,,,"博物馆, 博物馆&展馆",,否,https://dimg04.c-ctrip.com/images/0102512000ar4ajxc54A0.jpg,https://you.ctrip.com/sight/chongqing158/4657562.html?scene=onlinesearch,29.576697,106.567748
知识科普型,科技馆,94884,重庆科技馆,4.6,205,江北嘴/北滨路,重庆,江北嘴/北滨路,,4A,带小朋友探索科学世界,"科技馆, 博物馆&展馆",免费,是,https://dimg04.c-ctrip.com/images/0101w12000ijhpnhq419B.jpg,https://you.ctrip.com/sight/chongqing158/132875.html?scene=onlinesearch,29.577159,106.584238
知识科普型,科技馆,149967852,儿童科学乐园(重庆科技馆店),0.0,0,江北嘴/北滨路,重庆,江北嘴/北滨路,,,,"博物馆&展馆, 主题乐园&游乐场",,否,https://dimg04.c-ctrip.com/images/0105t12000nwth0qbADA8.jpg,https://you.ctrip.com/sight/chongqing158/149967852.html?scene=onlinesearch,29.576517,106.583726
知识科普型,科技馆,143364022,元宇宙科技馆(重庆科技馆B区),0.0,0,江北嘴/北滨路,重庆,江北嘴/北滨路,,,,"科技馆, 博物馆&展馆",,否,https://dimg04.c-ctrip.com/images/0103q12000ct7iw6dF6F2.jpg,https://you.ctrip.com/sight/chongqing158/143364022.html?scene=onlinesearch,29.577804,106.584797
知识科普型,科技馆,145635287,三峡科技馆,0.0,0,万州万达广场,重庆,万州万达广场,,,,博物馆&展馆,,否,https://dimg04.c-ctrip.com/images/0103712000nw2c09jF5DE.jpg,https://you.ctrip.com/sight/chongqing158/145635287.html?scene=onlinesearch,30.781191,108.415258
知识科普型,科技馆,124906865,江津区科技馆,4.1,8,江津客运中心商圈,重庆,江津客运中心商圈,,,,"科技馆, 博物馆&展馆",免费,是,https://dimg04.c-ctrip.com/images/0102k120009wdxpb2F2EF.jpg,https://you.ctrip.com/sight/chongqing158/124906865.html?scene=onlinesearch,29.321758,106.270276
知识科普型,科技馆,80072529,大足科技馆,5.0,2,大足石刻度假区,重庆,大足石刻度假区,,,,"科技馆, 博物馆&展馆",,否,https://dimg04.c-ctrip.com/images/01062120009xrdewuB910.jpg,https://you.ctrip.com/sight/chongqing158/80072529.html?scene=onlinesearch,29.678118,105.746195
知识科普型,科技馆,131149116,三峡文物科技保护基地,0.0,0,南坪商业中心区,重庆,南坪商业中心区,,,,"科技馆, 博物馆&展馆",免费,是,https://dimg04.c-ctrip.com/images/0100k120009pmhj1h01FA.png,https://you.ctrip.com/sight/chongqing158/131149116.html?scene=onlinesearch,29.517068,106.557445
知识科普型,科技馆,58303351,重庆市渝北区青少年科技中心,0.0,0,江北国际机场地区,重庆,江北国际机场地区,,,,,,否,https://dimg04.c-ctrip.com/images/0102z12000bjeli2oBFC3.jpg,https://you.ctrip.com/sight/chongqing158/5167506.html?scene=onlinesearch,29.744659,106.648571
知识科普型,科技馆,145334922,重庆科技馆九龙坡区体验空间,0.0,0,杨家坪/重庆动物园,重庆,杨家坪/重庆动物园,,,,,,否,https://dimg04.c-ctrip.com/images/0HJ2a12000g6r8nf5F7C7.jpg,https://you.ctrip.com/sight/chongqing158/145334922.html?scene=onlinesearch,29.511592,106.512249
知识科普型,科技馆,58303456,万盛科技馆,5.0,1,万盛商业中心区,重庆,万盛商业中心区,,,,"科技馆, 博物馆&展馆",免费,是,https://dimg04.c-ctrip.com/images/0105x12000ct6mjjm501F.jpg,https://you.ctrip.com/sight/chongqing158/5167611.html?scene=onlinesearch,28.959305,106.930216
知识科普型,科技馆,50628663,中国西部科学院,4.9,11,西南大学/缙云山度假区,重庆,西南大学/缙云山度假区,,,,"科技馆, 博物馆&展馆",,否,https://dimg04.c-ctrip.com/images/0100r120009dnsdnk4425.jpg,https://you.ctrip.com/sight/chongqing158/4507849.html?scene=onlinesearch,29.838988,106.443178
知识科普型,科技馆,124252393,桃源公园-恐龙科普园,0.0,0,江北国际机场地区,重庆,江北国际机场地区,,,,,,否,https://dimg04.c-ctrip.com/images/0104y120009ba8yduB65E.png,https://you.ctrip.com/sight/chongqing158/124252393.html?scene=onlinesearch,29.752461,106.637638
知识科普型,科技馆,56819171,小黄帽重庆市安全应急科普中心,4.5,13,江北嘴/北滨路,重庆,江北嘴/北滨路,,,,"科技馆, 特色展馆",门市价,否,https://dimg04.c-ctrip.com/images/100b10000000ofuo9AEAF.jpg,https://you.ctrip.com/sight/chongqing158/5078355.html?scene=onlinesearch,29.580954,106.579118
知识科普型,科技馆,148782649,鸿通智联数码科技馆,0.0,0,沙坪坝站/三峡广场,重庆,沙坪坝站/三峡广场,,,,博物馆&展馆,,否,https://dimg04.c-ctrip.com/images/0HJ6n12000g91em1u54F5.jpg,https://you.ctrip.com/sight/chongqing158/148782649.html?scene=onlinesearch,29.568372,106.453886
知识科普型,科技馆,143695451,恒大社区微型少年宫,0.0,0,重庆理工大学花溪校区,重庆,重庆理工大学花溪校区,,,,,,否,https://dimg04.c-ctrip.com/images/0HJ5q12000g360hc4A1AA.jpg,https://you.ctrip.com/sight/chongqing158/143695451.html?scene=onlinesearch,29.469354,106.558661
知识科普型,科技馆,143690480,大渡口区乡村少年宫(金桥路),0.0,0,大渡口商业中心区,重庆,大渡口商业中心区,,,,,,否,https://dimg04.c-ctrip.com/images/0101q12000db8v6cj5219.jpg,https://you.ctrip.com/sight/chongqing158/143690480.html?scene=onlinesearch,29.450096,106.485673
知识科普型,科技馆,143705622,重庆市璧山区青少年宫,0.0,0,璧山商业中心区,重庆,璧山商业中心区,,,,,免费,是,https://dimg04.c-ctrip.com/images/0102h12000db8mnvc19D9.jpg,https://you.ctrip.com/sight/chongqing158/143705622.html?scene=onlinesearch,29.581104,106.238834
知识科普型,科技馆,145453578,荣昌区科技馆,0.0,0,荣昌商业中心区,重庆,荣昌商业中心区,,,,博物馆&展馆,,否,https://dimg04.c-ctrip.com/images/0HJ0212000g88h1imD74B.jpg,https://you.ctrip.com/sight/chongqing158/145453578.html?scene=onlinesearch,29.424047,105.59946
知识科普型,科技馆,143695924,南岸区青少年科技活动中心,0.0,0,南坪商业中心区,重庆,南坪商业中心区,,,,,,否,https://dimg04.c-ctrip.com/images/0103412000db94usa9C29.jpg,https://you.ctrip.com/sight/chongqing158/143695924.html?scene=onlinesearch,29.524399,106.574522
知识科普型,科技馆,143691353,重庆市少年宫(中山二路),0.0,0,上清寺/人民大礼堂/李子坝,重庆,上清寺/人民大礼堂/李子坝,,,,,,否,https://dimg04.c-ctrip.com/images/0105112000d9olnl430C8.jpg,https://you.ctrip.com/sight/chongqing158/143691353.html?scene=onlinesearch,29.561756,106.561816
知识科普型,科技馆,145127783,仙女山青少年科学示范营地(武隆科技馆),0.0,0,仙女山国家森林公园/仙女山街道,重庆,仙女山国家森林公园/仙女山街道,,,,博物馆&展馆,,否,https://dimg04.c-ctrip.com/images/0HJ4y12000g2svrax4E3F.jpg,https://you.ctrip.com/sight/chongqing158/145127783.html?scene=onlinesearch,29.433257,107.745272
知识科普型,科技馆,144096036,万州区青少年宫(安庆路),0.0,0,万州万达广场,重庆,万州万达广场,,,,,,否,https://dimg04.c-ctrip.com/images/0HJ3c12000g90iro339C3.jpg,https://you.ctrip.com/sight/chongqing158/144096036.html?scene=onlinesearch,30.764547,108.452821
知识科普型,科技馆,143711676,万州区青少年宫(电报路培训分部),0.0,0,万州万达广场,重庆,万州万达广场,,,,,,否,https://dimg04.c-ctrip.com/images/0HJ0x12000g8l7oykB779.jpg,https://you.ctrip.com/sight/chongqing158/143711676.html?scene=onlinesearch,30.818835,108.389107
知识科普型,科技馆,91495442,重庆飞行家航空科普基地,0.0,0,,重庆,,,,,,,否,https://dimg04.c-ctrip.com/images/0104w12000cd4bs3uFF46.jpg,https://you.ctrip.com/sight/chongqing158/91495442.html?scene=onlinesearch,29.674667,106.777984
知识科普型,科技馆,149365163,重庆科技馆IMAX巨幕影院,0.0,0,江北嘴/北滨路,重庆,江北嘴/北滨路,,,,,,否,https://dimg04.c-ctrip.com/images/0102u1200086k28vc0A5C.jpg,https://you.ctrip.com/sight/chongqing158/149365163.html?scene=onlinesearch,29.577126,106.584481
知识科普型,科技馆,145543994,VR混合现实科技馆(渝乐小镇商业广场店),0.0,0,大学城/融创文旅城,重庆,大学城/融创文旅城,,,,博物馆&展馆,,否,https://dimg04.c-ctrip.com/images/fd/tg/g1/M06/FC/24/CghzflW7H_iATdynAAA-FlXAIeA738.jpg,https://you.ctrip.com/sight/chongqing158/145543994.html?scene=onlinesearch,29.637172,106.367533
知识科普型,科技馆,149957777,交通科技厅(重庆科技馆店),0.0,0,江北嘴/北滨路,重庆,江北嘴/北滨路,,,,博物馆&展馆,,否,https://dimg04.c-ctrip.com/images/fd/tg/g1/M06/FC/24/CghzflW7H_iATdynAAA-FlXAIeA738.jpg,https://you.ctrip.com/sight/chongqing158/149957777.html?scene=onlinesearch,29.577113,106.584423
知识科普型,科技馆,145512987,社区青少年科技馆,0.0,0,大渡口商业中心区,重庆,大渡口商业中心区,,,,博物馆&展馆,,否,https://dimg04.c-ctrip.com/images/fd/tg/g1/M06/FC/24/CghzflW7H_iATdynAAA-FlXAIeA738.jpg,https://you.ctrip.com/sight/chongqing158/145512987.html?scene=onlinesearch,29.46843,106.497317
知识科普型,科技馆,145238951,重庆羊文化科技馆,0.0,0,汽博中心,重庆,汽博中心,,,,博物馆&展馆,,否,https://dimg04.c-ctrip.com/images/fd/tg/g1/M06/FC/24/CghzflW7H_iATdynAAA-FlXAIeA738.jpg,https://you.ctrip.com/sight/chongqing158/145238951.html?scene=onlinesearch,29.652431,106.614601
知识科普型,科技馆,145185724,重庆理工大学(花溪校区)-汽车科技馆,0.0,0,重庆理工大学花溪校区,重庆,重庆理工大学花溪校区,,,,博物馆&展馆,,否,https://dimg04.c-ctrip.com/images/fd/tg/g1/M06/FC/24/CghzflW7H_iATdynAAA-FlXAIeA738.jpg,https://you.ctrip.com/sight/chongqing158/145185724.html?scene=onlinesearch,29.463138,106.534508
知识科普型,科技馆,149966543,魔楽斑马科技馆(汇祥林里3000三期店),0.0,0,江北国际机场地区,重庆,江北国际机场地区,,,,博物馆&展馆,,否,https://dimg04.c-ctrip.com/images/fd/tg/g1/M06/FC/24/CghzflW7H_iATdynAAA-FlXAIeA738.jpg,https://you.ctrip.com/sight/chongqing158/149966543.html?scene=onlinesearch,29.718876,106.611704
知识科普型,科技馆,150210310,梦侣解压科技馆,0.0,0,,重庆,,,,,博物馆&展馆,,否,https://dimg04.c-ctrip.com/images/0102u1200086k28vc0A5C.jpg,https://you.ctrip.com/sight/chongqing158/150210310.html?scene=onlinesearch,29.400483,106.545683
知识科普型,科技馆,145258407,健儿科技馆,0.0,0,铁山坪森林公园度假区,重庆,铁山坪森林公园度假区,,,,博物馆&展馆,,否,https://dimg04.c-ctrip.com/images/fd/tg/g1/M06/FC/24/CghzflW7H_iATdynAAA-FlXAIeA738.jpg,https://you.ctrip.com/sight/chongqing158/145258407.html?scene=onlinesearch,29.633032,106.669821
知识科普型,科技馆,144095309,重庆市少年宫(思贤路),0.0,0,大学城/融创文旅城,重庆,大学城/融创文旅城,,,,,,否,https://dimg04.c-ctrip.com/images/fd/tg/g2/M02/AE/60/CghzgFW7IAOAEslQAAA_0sCVZfg527.jpg,https://you.ctrip.com/sight/chongqing158/144095309.html?scene=onlinesearch,29.593877,106.318426
知识科普型,科技馆,143288692,重庆市微型少年宫(文体支路),0.0,0,大渡口商业中心区,重庆,大渡口商业中心区,,,,,,否,https://dimg04.c-ctrip.com/images/fd/tg/g2/M02/AE/60/CghzgFW7IAOAEslQAAA_0sCVZfg527.jpg,https://you.ctrip.com/sight/chongqing158/143288692.html?scene=onlinesearch,29.492058,106.491491
知识科普型,科技馆,148677192,中国(重庆)模切科技馆,0.0,0,璧山商业中心区,重庆,璧山商业中心区,,,,博物馆&展馆,,否,https://dimg04.c-ctrip.com/images/fd/tg/g1/M06/FC/24/CghzflW7H_iATdynAAA-FlXAIeA738.jpg,https://you.ctrip.com/sight/chongqing158/148677192.html?scene=onlinesearch,29.549557,106.237448
知识科普型,科技馆,150280670,智能穿戴科技馆,0.0,0,,重庆,,,,,博物馆&展馆,,否,https://dimg04.c-ctrip.com/images/fd/tg/g1/M06/FC/24/CghzflW7H_iATdynAAA-FlXAIeA738.jpg,https://you.ctrip.com/sight/chongqing158/150280670.html?scene=onlinesearch,29.391808,106.526454
知识科普型,科技馆,152800318,重庆市半导体科技馆,0.0,0,,重庆,,,,,博物馆&展馆,,否,https://dimg04.c-ctrip.com/images/fd/tg/g1/M06/FC/24/CghzflW7H_iATdynAAA-FlXAIeA738.jpg,https://you.ctrip.com/sight/chongqing158/152800318.html?scene=onlinesearch,29.811888,106.535455
知识科普型,科技馆,143262467,渝北区木耳乡村学校少年宫,0.0,0,,重庆,,,,,,,否,https://dimg04.c-ctrip.com/images/fd/tg/g2/M02/AE/60/CghzgFW7IAOAEslQAAA_0sCVZfg527.jpg,https://you.ctrip.com/sight/chongqing158/143262467.html?scene=onlinesearch,29.812692,106.656858
知识科普型,科技馆,145648102,海润科技馆,0.0,0,大竹林/光电园,重庆,大竹林/光电园,,,,博物馆&展馆,,否,https://dimg04.c-ctrip.com/images/fd/tg/g1/M06/FC/24/CghzflW7H_iATdynAAA-FlXAIeA738.jpg,https://you.ctrip.com/sight/chongqing158/145648102.html?scene=onlinesearch,29.618261,106.510306
知识科普型,科技馆,150393536,步力宝智能穿戴科技馆(公园支路店),0.0,0,,重庆,,,,,博物馆&展馆,,否,https://dimg04.c-ctrip.com/images/fd/tg/g1/M06/FC/24/CghzflW7H_iATdynAAA-FlXAIeA738.jpg,https://you.ctrip.com/sight/chongqing158/150393536.html?scene=onlinesearch,29.55631,106.461291
知识科普型,科技馆,143702489,市少年宫杨家坪分校(杨家坪分部),0.0,0,杨家坪/重庆动物园,重庆,杨家坪/重庆动物园,,,,,,否,https://dimg04.c-ctrip.com/images/fd/tg/g2/M02/AE/60/CghzgFW7IAOAEslQAAA_0sCVZfg527.jpg,https://you.ctrip.com/sight/chongqing158/143702489.html?scene=onlinesearch,29.51477,106.523586
知识科普型,科技馆,151279609,重庆羊乳文化科技馆,0.0,0,上清寺/人民大礼堂/李子坝,重庆,上清寺/人民大礼堂/李子坝,,,,博物馆&展馆,,否,https://dimg04.c-ctrip.com/images/fd/tg/g1/M06/FC/24/CghzflW7H_iATdynAAA-FlXAIeA738.jpg,https://you.ctrip.com/sight/chongqing158/151279609.html?scene=onlinesearch,29.557001,106.5506
知识科普型,科技馆,145346062,图书馆科技馆,0.0,0,大足石刻度假区,重庆,大足石刻度假区,,,,博物馆&展馆,,否,https://dimg04.c-ctrip.com/images/fd/tg/g1/M06/FC/24/CghzflW7H_iATdynAAA-FlXAIeA738.jpg,https://you.ctrip.com/sight/chongqing158/145346062.html?scene=onlinesearch,29.67751,105.746534
知识科普型,科技馆,148719917,綦江科技馆,0.0,0,古剑山度假区,重庆,古剑山度假区,,,,博物馆&展馆,,否,https://dimg04.c-ctrip.com/images/fd/tg/g1/M06/FC/24/CghzflW7H_iATdynAAA-FlXAIeA738.jpg,https://you.ctrip.com/sight/chongqing158/148719917.html?scene=onlinesearch,29.034664,106.702662
知识科普型,科技馆,152838946,铜梁智慧气象科技馆,0.0,0,铜梁商业中心区,重庆,铜梁商业中心区,,,,博物馆&展馆,,否,https://dimg04.c-ctrip.com/images/fd/tg/g1/M06/FC/24/CghzflW7H_iATdynAAA-FlXAIeA738.jpg,https://you.ctrip.com/sight/chongqing158/152838946.html?scene=onlinesearch,29.860402,106.074399
知识科普型,科技馆,145263262,奉节县科技馆,0.0,0,奉节白帝城,奉节,奉节白帝城,,,,博物馆&展馆,,否,https://dimg04.c-ctrip.com/images/fd/tg/g1/M06/FC/24/CghzflW7H_iATdynAAA-FlXAIeA738.jpg,https://you.ctrip.com/sight/fengjiecounty2025223/145263262.html?scene=onlinesearch,31.02349,109.401361
知识科普型,科技馆,145516965,都梁科技馆,0.0,0,梁平双桂湖度假区,重庆,梁平双桂湖度假区,,,,博物馆&展馆,,否,https://dimg04.c-ctrip.com/images/fd/tg/g1/M06/FC/24/CghzflW7H_iATdynAAA-FlXAIeA738.jpg,https://you.ctrip.com/sight/chongqing158/145516965.html?scene=onlinesearch,30.6526,107.754768
知识科普型,科技馆,145691772,弘美科技馆,0.0,0,合川学院区,重庆,合川学院区,,,,博物馆&展馆,,否,https://dimg04.c-ctrip.com/images/fd/tg/g1/M06/FC/24/CghzflW7H_iATdynAAA-FlXAIeA738.jpg,https://you.ctrip.com/sight/chongqing158/145691772.html?scene=onlinesearch,30.023674,106.301496
知识科普型,科技馆,150222099,步力宝智能穿戴科技馆(石香街店),0.0,0,,重庆,,,,,,,否,https://dimg04.c-ctrip.com/images/fd/tg/g1/M06/FC/24/CghzflW7H_iATdynAAA-FlXAIeA738.jpg,https://you.ctrip.com/sight/chongqing158/150222099.html?scene=onlinesearch,29.686407,105.94715
知识科普型,科技馆,150291396,步力宝足尖智慧科技馆(合川运营中心),0.0,0,,重庆,,,,,,,否,https://dimg04.c-ctrip.com/images/fd/tg/g1/M06/FC/24/CghzflW7H_iATdynAAA-FlXAIeA738.jpg,https://you.ctrip.com/sight/chongqing158/150291396.html?scene=onlinesearch,29.996694,106.274728
知识科普型,科技馆,150393675,步力宝智能穿戴科技馆涪陵运营中心,0.0,0,涪陵商业中心区,重庆,涪陵商业中心区,,,,博物馆&展馆,,否,https://dimg04.c-ctrip.com/images/fd/tg/g1/M06/FC/24/CghzflW7H_iATdynAAA-FlXAIeA738.jpg,https://you.ctrip.com/sight/chongqing158/150393675.html?scene=onlinesearch,29.702191,107.408113
知识科普型,科技馆,153134086,魔楽斑马科技馆(合川店),0.0,0,合川学院区,重庆,合川学院区,,,,,,否,https://dimg04.c-ctrip.com/images/0102u1200086k28vc0A5C.jpg,https://you.ctrip.com/sight/chongqing158/153134086.html?scene=onlinesearch,30.010097,106.265174
知识科普型,科技馆,150429766,巫溪科技馆,0.0,0,,巫溪,巫溪,,,,博物馆&展馆,,否,https://dimg04.c-ctrip.com/images/fd/tg/g1/M06/FC/24/CghzflW7H_iATdynAAA-FlXAIeA738.jpg,https://you.ctrip.com/sight/wuxicounty2025261/150429766.html?scene=onlinesearch,31.401519,109.577934
知识科普型,科技馆,145539951,野生核桃科技馆,0.0,0,,城口,城口,,,,博物馆&展馆,,否,https://dimg04.c-ctrip.com/images/fd/tg/g1/M06/FC/24/CghzflW7H_iATdynAAA-FlXAIeA738.jpg,https://you.ctrip.com/sight/chengkoucounty2025220/145539951.html?scene=onlinesearch,31.849823,108.910361
知识科普型,科技馆,148753379,巫山电子竞技科技馆,0.0,0,,巫山,巫山,,,,博物馆&展馆,,否,https://dimg04.c-ctrip.com/images/fd/tg/g1/M06/FC/24/CghzflW7H_iATdynAAA-FlXAIeA738.jpg,https://you.ctrip.com/sight/wushancounty2025187/148753379.html?scene=onlinesearch,31.110392,109.886349
知识科普型,科技馆,149952746,沿河乡科技馆,0.0,0,,城口,城口,,,,博物馆&展馆,,否,https://dimg04.c-ctrip.com/images/fd/tg/g1/M06/FC/24/CghzflW7H_iATdynAAA-FlXAIeA738.jpg,https://you.ctrip.com/sight/chengkoucounty2025220/149952746.html?scene=onlinesearch,32.059031,108.405299
知识科普型,科技馆,145504951,秀山科技馆,0.0,0,,秀山,秀山,,,,博物馆&展馆,,否,https://dimg04.c-ctrip.com/images/fd/tg/g1/M06/FC/24/CghzflW7H_iATdynAAA-FlXAIeA738.jpg,https://you.ctrip.com/sight/xiushancounty2025253/145504951.html?scene=onlinesearch,28.448436,108.985794
知识科普型,科技馆,151268329,武隆科技馆,0.0,0,仙女山国家森林公园/仙女山街道,重庆,仙女山国家森林公园/仙女山街道,,,,博物馆&展馆,,否,https://dimg04.c-ctrip.com/images/fd/tg/g1/M06/FC/24/CghzflW7H_iATdynAAA-FlXAIeA738.jpg,https://you.ctrip.com/sight/chongqing158/151268329.html?scene=onlinesearch,29.434092,107.7452
知识科普型,科技馆,151290925,新兴木塑科技馆,0.0,0,,云阳,云阳,,,,博物馆&展馆,,否,https://dimg04.c-ctrip.com/images/fd/tg/g1/M06/FC/24/CghzflW7H_iATdynAAA-FlXAIeA738.jpg,https://you.ctrip.com/sight/yunyangcounty2025226/151290925.html?scene=onlinesearch,30.926916,108.720113
知识科普型,科技馆,152826146,魔楽斑马科技馆,0.0,0,万州万达广场,重庆,万州万达广场,,,,博物馆&展馆,,否,https://dimg04.c-ctrip.com/images/fd/tg/g1/M06/FC/24/CghzflW7H_iATdynAAA-FlXAIeA738.jpg,https://you.ctrip.com/sight/chongqing158/152826146.html?scene=onlinesearch,30.780555,108.397798
知识科普型,科技馆,145409264,中国科协校园科技馆,0.0,0,万州万达广场,重庆,万州万达广场,,,,博物馆&展馆,,否,https://dimg04.c-ctrip.com/images/fd/tg/g1/M06/FC/24/CghzflW7H_iATdynAAA-FlXAIeA738.jpg,https://you.ctrip.com/sight/chongqing158/145409264.html?scene=onlinesearch,30.804429,108.414371
知识科普型,科技馆,150398001,忠州科技馆,0.0,0,,忠县,忠县,,,,博物馆&展馆,,否,https://dimg04.c-ctrip.com/images/fd/tg/g1/M06/FC/24/CghzflW7H_iATdynAAA-FlXAIeA738.jpg,https://you.ctrip.com/sight/zhongcounty2025198/150398001.html?scene=onlinesearch,30.314719,108.081704
知识科普型,科技馆,144224034,青少年宫,0.0,0,丰都鬼城,丰都,丰都鬼城,,,,,,否,https://dimg04.c-ctrip.com/images/fd/tg/g2/M02/AE/60/CghzgFW7IAOAEslQAAA_0sCVZfg527.jpg,https://you.ctrip.com/sight/fengducounty2025250/144224034.html?scene=onlinesearch,29.876342,107.743433
知识科普型,动物园,78160,重庆动物园,4.7,10963,杨家坪/重庆动物园,重庆,杨家坪/重庆动物园,2025全球100亲子景点,4A,看看罕见的亚洲金猫和云豹,"亲近动物, 遛娃宝藏地",门票,否,https://dimg04.c-ctrip.com/images/0103512000kpyqic16CE5.jpg,https://you.ctrip.com/sight/chongqing158/10377.html?tagId=286&scene=onlinesearch,29.509548,106.512722
知识科普型,动物园,82316,重庆野生动物世界,4.5,1146,乐和乐都度假区,重庆,乐和乐都度假区,,,近距离观赏飞禽猛兽,"亲近动物, 遛娃宝藏地",门票,否,https://dimg04.c-ctrip.com/images/10041f000001gp7s7D905.jpg,https://you.ctrip.com/sight/chongqing158/45772.html?tagId=286&scene=onlinesearch,29.300382,105.914775
知识科普型,动物园,130842870,重庆动物园熊猫冰雪世界,1.0,1,杨家坪/重庆动物园,重庆,杨家坪/重庆动物园,,,,"冰雪乐园, 主题乐园&游乐场",门市价,否,https://dimg04.c-ctrip.com/images/0104g12000f6qgu180AA5.png,https://you.ctrip.com/sight/chongqing158/130842870.html?tagId=286&scene=onlinesearch,29.509995,106.515822
知识科普型,动物园,10785352,重庆鳄鱼养殖中心,3.9,142,汽博中心,重庆,汽博中心,,,参与特色的垂钓大鳄活动,"遛娃宝藏地, 动物园&水族馆",,否,https://dimg04.c-ctrip.com/images/35060y000000lx7i544AE.jpg,https://you.ctrip.com/sight/chongqing158/1408810.html?tagId=286&scene=onlinesearch,29.650337,106.599559
知识科普型,动物园,83066963,熊山-西藏棕熊,5.0,1,杨家坪/重庆动物园,重庆,杨家坪/重庆动物园,,,,,,否,https://dimg04.c-ctrip.com/images/0102z12000a1kkft07A5C.jpg,https://you.ctrip.com/sight/chongqing158/83066963.html?tagId=286&scene=onlinesearch,29.510592,106.509802
知识科普型,动物园,69570647,重庆市动物园金鱼馆,4.5,2,杨家坪/重庆动物园,重庆,杨家坪/重庆动物园,,,,,,否,https://dimg04.c-ctrip.com/images/0100v12000jnea82z7A40.jpg,https://you.ctrip.com/sight/chongqing158/69570647.html?tagId=286&scene=onlinesearch,29.50881,106.513408
知识科普型,动物园,131171956,小熊猫口袋动物园,5.0,2,,重庆,,,,,动物园&水族馆,门票,否,https://dimg04.c-ctrip.com/images/0102u1200095dl44t358A.png,https://you.ctrip.com/sight/chongqing158/5718963.html?tagId=286&scene=onlinesearch,29.145852,106.656768
知识科普型,动物园,148520927,金色印象·4K影院式足体养生PLUS(杨家坪动物园店),0.0,0,杨家坪/重庆动物园,重庆,杨家坪/重庆动物园,,,,,,否,https://dimg04.c-ctrip.com/images/1lo6z12000hir4lyw30E2.jpg,https://you.ctrip.com/sight/chongqing158/148520927.html?tagId=286&scene=onlinesearch,29.505016,106.517919
知识科普型,动物园,52071580,喜观昆虫王国,0.0,0,,重庆,,,,,"博物馆&展馆, 动物园&水族馆",,否,https://dimg04.c-ctrip.com/images/0102512000awrpzsd91E6.png,https://you.ctrip.com/sight/chongqing158/4649970.html?tagId=286&scene=onlinesearch,29.801179,106.297445
知识科普型,动物园,145601487,重庆动物园-黑美洲豹,5.0,2,杨家坪/重庆动物园,重庆,杨家坪/重庆动物园,,,,,,否,https://dimg04.c-ctrip.com/images/0106g12000jngisawFCBB.jpg,https://you.ctrip.com/sight/chongqing158/145601487.html?tagId=286&scene=onlinesearch,29.50968,106.510251
知识科普型,动物园,102225777,圣名萌宠动物园,4.0,1,江北国际机场地区,重庆,江北国际机场地区,,,,动物园&水族馆,,否,https://dimg04.c-ctrip.com/images/0105o12000b5ljm9z3048.jpg,https://you.ctrip.com/sight/chongqing158/102225777.html?tagId=286&scene=onlinesearch,29.663821,106.624759
知识科普型,动物园,69095181,四面山猴园,5.0,3,四面山度假区,重庆,四面山度假区,,,,动物园&水族馆,,否,https://dimg04.c-ctrip.com/images/0100t12000b2lrtrg5AE7.jpg,https://you.ctrip.com/sight/chongqing158/69095181.html?tagId=286&scene=onlinesearch,28.64772,106.415352
知识科普型,动物园,112650413,孔雀谷,0.0,0,西南大学/缙云山度假区,重庆,西南大学/缙云山度假区,,,,登高爬山,,否,https://dimg04.c-ctrip.com/images/0100d120008gd5imr3305.png,https://you.ctrip.com/sight/chongqing158/112650413.html?tagId=286&scene=onlinesearch,29.762102,106.453006
知识科普型,动物园,145367118,凤凰谷动物园,0.0,0,,重庆,,,,,动物园&水族馆,,否,https://dimg04.c-ctrip.com/images/0HJ3p12000g93qhzb128F.jpg,https://you.ctrip.com/sight/chongqing158/145367118.html?tagId=286&scene=onlinesearch,29.867434,106.69819
知识科普型,动物园,142226772,重庆院子萌宠动物农场,0.0,0,冉家坝/龙溪,重庆,冉家坝/龙溪,,,,动物园&水族馆,,否,https://dimg04.c-ctrip.com/images/0HJ5412000g8aeazq3DEA.jpg,https://you.ctrip.com/sight/chongqing158/142226772.html?tagId=286&scene=onlinesearch,29.611629,106.484889
知识科普型,动物园,145703736,重庆动物园-亚洲黑熊,5.0,1,杨家坪/重庆动物园,重庆,杨家坪/重庆动物园,,,,,,否,https://dimg04.c-ctrip.com/images/0101e12000jnlv3io605C.jpg,https://you.ctrip.com/sight/chongqing158/145703736.html?tagId=286&scene=onlinesearch,29.511105,106.512881
知识科普型,动物园,143742163,重庆动物园-水鹿,5.0,1,杨家坪/重庆动物园,重庆,杨家坪/重庆动物园,,,,,,否,https://dimg04.c-ctrip.com/images/1mh2y12000juqyi473C8B.jpg,https://you.ctrip.com/sight/chongqing158/143742163.html?tagId=286&scene=onlinesearch,29.508518,106.511708
知识科普型,动物园,145394041,小哪吒赶海公园(杨家坪动物园店),0.0,0,杨家坪/重庆动物园,重庆,杨家坪/重庆动物园,,,,,,否,https://dimg04.c-ctrip.com/images/0HJ3812000g2uzq6f4301.jpg,https://you.ctrip.com/sight/chongqing158/145394041.html?tagId=286&scene=onlinesearch,29.505633,106.518934
知识科普型,动物园,143754331,重庆动物园-草食动物区,0.0,0,杨家坪/重庆动物园,重庆,杨家坪/重庆动物园,,,,,,否,https://dimg04.c-ctrip.com/images/0HJ3t12000g2wj8ej3379.jpg,https://you.ctrip.com/sight/chongqing158/143754331.html?tagId=286&scene=onlinesearch,29.507819,106.512601
知识科普型,动物园,145215967,重庆动物园-矮马,5.0,1,杨家坪/重庆动物园,重庆,杨家坪/重庆动物园,,,,,,否,https://dimg04.c-ctrip.com/images/1mh3112000jut3alf660B.jpg,https://you.ctrip.com/sight/chongqing158/145215967.html?tagId=286&scene=onlinesearch,29.5072,106.513037
知识科普型,动物园,145253672,重庆动物园-金钱豹,5.0,1,杨家坪/重庆动物园,重庆,杨家坪/重庆动物园,,,,,,否,https://dimg04.c-ctrip.com/images/0103812000jngtflf5C2C.jpg,https://you.ctrip.com/sight/chongqing158/145253672.html?tagId=286&scene=onlinesearch,29.509609,106.510349
知识科普型,动物园,145463801,重庆动物园-豹猫,5.0,1,杨家坪/重庆动物园,重庆,杨家坪/重庆动物园,,,,,,否,https://dimg04.c-ctrip.com/images/1mh4i12000kd6f37gF6DD.jpg,https://you.ctrip.com/sight/chongqing158/145463801.html?tagId=286&scene=onlinesearch,29.510968,106.512805
知识科普型,动物园,145628469,重庆动物园-狼,5.0,1,杨家坪/重庆动物园,重庆,杨家坪/重庆动物园,,,,,,否,https://dimg04.c-ctrip.com/images/1mh4g12000kd4gbuv182D.jpg,https://you.ctrip.com/sight/chongqing158/145628469.html?tagId=286&scene=onlinesearch,29.510863,106.513046
知识科普型,动物园,143749852,重庆动物园-岩羊,5.0,1,杨家坪/重庆动物园,重庆,杨家坪/重庆动物园,,,,,,否,https://dimg04.c-ctrip.com/images/0HJ3t12000g8w6h2vDDDB.jpg,https://you.ctrip.com/sight/chongqing158/143749852.html?tagId=286&scene=onlinesearch,29.507449,106.514308
知识科普型,动物园,145485158,重庆动物园-马来熊,5.0,1,杨家坪/重庆动物园,重庆,杨家坪/重庆动物园,,,,,,否,https://dimg04.c-ctrip.com/images/1mh0e12000kd63rmjC4BC.jpg,https://you.ctrip.com/sight/chongqing158/145485158.html?tagId=286&scene=onlinesearch,29.511143,106.51282
知识科普型,动物园,80168820,伟林台球(杨家坪动物园店),0.0,0,杨家坪/重庆动物园,重庆,杨家坪/重庆动物园,,,,,,否,https://dimg04.c-ctrip.com/images/0HJ1i12000g6jpyo894D0.jpg,https://you.ctrip.com/sight/chongqing158/80168820.html?tagId=286&scene=onlinesearch,29.509325,106.517699
知识科普型,动物园,60514879,重庆萌呀动物智慧城堡(江厦星光汇店),4.5,15,石桥铺/陈家坪,重庆,石桥铺/陈家坪,,,,动物园&水族馆,,否,https://dimg04.c-ctrip.com/images/100u14000000w5wnfCA88.jpg,https://you.ctrip.com/sight/chongqing158/5254353.html?tagId=286&scene=onlinesearch,29.533981,106.48983
知识科普型,动物园,134056101,梅花鹿苑,0.0,0,,重庆,,,,,,,否,https://dimg04.c-ctrip.com/images/0HJ1112000g60wmjgD044.jpg,https://you.ctrip.com/sight/chongqing158/134056101.html?tagId=286&scene=onlinesearch,29.590621,106.958741
知识科普型,动物园,145129480,重庆市渝北区野生动物园,0.0,0,汽博中心,重庆,汽博中心,,,,动物园&水族馆,,否,https://dimg04.c-ctrip.com/images/fd/tg/g1/M06/FC/24/CghzflW7H_iATdynAAA-FlXAIeA738.jpg,https://you.ctrip.com/sight/chongqing158/145129480.html?tagId=286&scene=onlinesearch,29.650654,106.599213
知识科普型,动物园,145196102,重庆动物园-鳄鱼池,0.0,0,杨家坪/重庆动物园,重庆,杨家坪/重庆动物园,,,,,,否,https://dimg04.c-ctrip.com/images/fd/tg/g1/M06/FC/24/CghzflW7H_iATdynAAA-FlXAIeA738.jpg,https://you.ctrip.com/sight/chongqing158/145196102.html?tagId=286&scene=onlinesearch,29.509407,106.514231
知识科普型,动物园,145245198,重庆动物园-云豹,0.0,0,杨家坪/重庆动物园,重庆,杨家坪/重庆动物园,,,,,,否,https://dimg04.c-ctrip.com/images/fd/tg/g1/M06/FC/24/CghzflW7H_iATdynAAA-FlXAIeA738.jpg,https://you.ctrip.com/sight/chongqing158/145245198.html?tagId=286&scene=onlinesearch,29.511006,106.51273
知识科普型,动物园,149984012,小火车(重庆动物园),0.0,0,杨家坪/重庆动物园,重庆,杨家坪/重庆动物园,,,,,,否,https://dimg04.c-ctrip.com/images/0102u1200086k28vc0A5C.jpg,https://you.ctrip.com/sight/chongqing158/149984012.html?tagId=286&scene=onlinesearch,29.508543,106.515706
知识科普型,动物园,145425847,重庆动物园-狮尾猴,0.0,0,杨家坪/重庆动物园,重庆,杨家坪/重庆动物园,,,,,,否,https://dimg04.c-ctrip.com/images/fd/tg/g1/M06/FC/24/CghzflW7H_iATdynAAA-FlXAIeA738.jpg,https://you.ctrip.com/sight/chongqing158/145425847.html?tagId=286&scene=onlinesearch,29.511957,106.509406
知识科普型,动物园,145601471,重庆动物园-丹顶鹤,0.0,0,杨家坪/重庆动物园,重庆,杨家坪/重庆动物园,,,,,,否,https://dimg04.c-ctrip.com/images/fd/tg/g1/M06/FC/24/CghzflW7H_iATdynAAA-FlXAIeA738.jpg,https://you.ctrip.com/sight/chongqing158/145601471.html?tagId=286&scene=onlinesearch,29.510391,106.512713
知识科普型,动物园,145146685,重庆动物园-蓑羽鹤,0.0,0,杨家坪/重庆动物园,重庆,杨家坪/重庆动物园,,,,,,否,https://dimg04.c-ctrip.com/images/fd/tg/g1/M06/FC/24/CghzflW7H_iATdynAAA-FlXAIeA738.jpg,https://you.ctrip.com/sight/chongqing158/145146685.html?tagId=286&scene=onlinesearch,29.510367,106.51276
知识科普型,动物园,145401738,重庆动物园-红嘴巨嘴鸟,0.0,0,杨家坪/重庆动物园,重庆,杨家坪/重庆动物园,,,,,,否,https://dimg04.c-ctrip.com/images/fd/tg/g1/M06/FC/24/CghzflW7H_iATdynAAA-FlXAIeA738.jpg,https://you.ctrip.com/sight/chongqing158/145401738.html?tagId=286&scene=onlinesearch,29.510218,106.512923
知识科普型,动物园,145714202,激流勇进(重庆动物园站),0.0,0,杨家坪/重庆动物园,重庆,杨家坪/重庆动物园,,,,,,否,https://dimg04.c-ctrip.com/images/fd/tg/g1/M06/FC/24/CghzflW7H_iATdynAAA-FlXAIeA738.jpg,https://you.ctrip.com/sight/chongqing158/145714202.html?tagId=286&scene=onlinesearch,29.508662,106.515372
知识科普型,动物园,145305358,重庆动物园-企鹅馆,0.0,0,杨家坪/重庆动物园,重庆,杨家坪/重庆动物园,,,,动物园&水族馆,,否,https://dimg04.c-ctrip.com/images/fd/tg/g1/M06/FC/24/CghzflW7H_iATdynAAA-FlXAIeA738.jpg,https://you.ctrip.com/sight/chongqing158/145305358.html?tagId=286&scene=onlinesearch,29.510601,106.512713
知识科普型,动物园,145404066,重庆动物园-扭角羚馆,0.0,0,杨家坪/重庆动物园,重庆,杨家坪/重庆动物园,,,,,,否,https://dimg04.c-ctrip.com/images/fd/tg/g1/M06/FC/24/CghzflW7H_iATdynAAA-FlXAIeA738.jpg,https://you.ctrip.com/sight/chongqing158/145404066.html?tagId=286&scene=onlinesearch,29.508648,106.51175
知识科普型,动物园,145225937,重庆动物园-白冠长尾雉,0.0,0,杨家坪/重庆动物园,重庆,杨家坪/重庆动物园,,,,,,否,https://dimg04.c-ctrip.com/images/fd/tg/g1/M06/FC/24/CghzflW7H_iATdynAAA-FlXAIeA738.jpg,https://you.ctrip.com/sight/chongqing158/145225937.html?tagId=286&scene=onlinesearch,29.510029,106.51307
知识科普型,动物园,145659779,重庆动物园-红腹角雉,0.0,0,杨家坪/重庆动物园,重庆,杨家坪/重庆动物园,,,,,,否,https://dimg04.c-ctrip.com/images/fd/tg/g1/M06/FC/24/CghzflW7H_iATdynAAA-FlXAIeA738.jpg,https://you.ctrip.com/sight/chongqing158/145659779.html?tagId=286&scene=onlinesearch,29.510406,106.512662
知识科普型,动物园,148543678,重庆动物园-红腹锦鸡,0.0,0,杨家坪/重庆动物园,重庆,杨家坪/重庆动物园,,,,,,否,https://dimg04.c-ctrip.com/images/fd/tg/g1/M06/FC/24/CghzflW7H_iATdynAAA-FlXAIeA738.jpg,https://you.ctrip.com/sight/chongqing158/148543678.html?tagId=286&scene=onlinesearch,29.510357,106.512782
知识科普型,动物园,148715851,重庆动物园-秃鹫,0.0,0,杨家坪/重庆动物园,重庆,杨家坪/重庆动物园,,,,,,否,https://dimg04.c-ctrip.com/images/fd/tg/g1/M06/FC/24/CghzflW7H_iATdynAAA-FlXAIeA738.jpg,https://you.ctrip.com/sight/chongqing158/148715851.html?tagId=286&scene=onlinesearch,29.510432,106.512576
知识科普型,动物园,145361897,萌小小动物园,0.0,0,奉节白帝城,奉节,奉节白帝城,,,,动物园&水族馆,,否,https://dimg04.c-ctrip.com/images/fd/tg/g1/M06/FC/24/CghzflW7H_iATdynAAA-FlXAIeA738.jpg,https://you.ctrip.com/sight/fengjiecounty2025223/145361897.html?tagId=286&scene=onlinesearch,31.025233,109.474455
知识科普型,动物园,145556939,万州西山动物园(新园),0.0,0,万州万达广场,重庆,万州万达广场,,,,动物园&水族馆,,否,https://dimg04.c-ctrip.com/images/fd/tg/g1/M06/FC/24/CghzflW7H_iATdynAAA-FlXAIeA738.jpg,https://you.ctrip.com/sight/chongqing158/145556939.html?tagId=286&scene=onlinesearch,30.844382,108.386102
知识科普型,动物园,148664886,三峡动物园,0.0,0,万州万达广场,重庆,万州万达广场,,,,动物园&水族馆,,否,https://dimg04.c-ctrip.com/images/fd/tg/g1/M06/FC/24/CghzflW7H_iATdynAAA-FlXAIeA738.jpg,https://you.ctrip.com/sight/chongqing158/148664886.html?tagId=286&scene=onlinesearch,30.847726,108.384085
知识科普型,动物园,149641729,西山动物园,0.0,0,万州万达广场,重庆,万州万达广场,,,,动物园&水族馆,,否,https://dimg04.c-ctrip.com/images/fd/tg/g1/M06/FC/24/CghzflW7H_iATdynAAA-FlXAIeA738.jpg,https://you.ctrip.com/sight/chongqing158/149641729.html?tagId=286&scene=onlinesearch,30.808563,108.389339
知识科普型,动物园,151317406,室内动物园,0.0,0,蔡家商圈,重庆,蔡家商圈,,,,动物园&水族馆,,否,https://dimg04.c-ctrip.com/images/fd/tg/g1/M06/FC/24/CghzflW7H_iATdynAAA-FlXAIeA738.jpg,https://you.ctrip.com/sight/chongqing158/151317406.html?tagId=286&scene=onlinesearch,29.74139,106.496114
知识科普型,动物园,121276326,明月山红心猕猴桃基地,0.0,0,东温泉度假区,重庆,东温泉度假区,,,,,,否,https://dimg04.c-ctrip.com/images/fd/tg/g2/M0A/AE/61/CghzgFW7IAuANKP2AAA7ySxBKvA064.jpg,https://you.ctrip.com/sight/chongqing158/5715478.html?tagId=286&scene=onlinesearch,29.560716,106.779985
知识科普型,动物园,148769193,涪陵动物园,0.0,0,,重庆,,,,,动物园&水族馆,,否,https://dimg04.c-ctrip.com/images/fd/tg/g1/M06/FC/24/CghzflW7H_iATdynAAA-FlXAIeA738.jpg,https://you.ctrip.com/sight/chongqing158/148769193.html?tagId=286&scene=onlinesearch,29.665666,107.1921
知识科普型,动物园,150251387,重庆乐佳乐动物园,0.0,0,,重庆,,,,,动物园&水族馆,,否,https://dimg04.c-ctrip.com/images/fd/tg/g1/M06/FC/24/CghzflW7H_iATdynAAA-FlXAIeA738.jpg,https://you.ctrip.com/sight/chongqing158/150251387.html?tagId=286&scene=onlinesearch,28.917593,106.681982
知识科普型,动物园,145693790,萌宠动物园,0.0,0,,重庆,,,,,动物园&水族馆,,否,https://dimg04.c-ctrip.com/images/fd/tg/g1/M06/FC/24/CghzflW7H_iATdynAAA-FlXAIeA738.jpg,https://you.ctrip.com/sight/chongqing158/145693790.html?tagId=286&scene=onlinesearch,30.811734,108.707499
知识科普型,动物园,145316528,花海动物园-露营地,0.0,0,,重庆,,,,,动物园&水族馆,,否,https://dimg04.c-ctrip.com/images/fd/tg/g1/M06/FC/24/CghzflW7H_iATdynAAA-FlXAIeA738.jpg,https://you.ctrip.com/sight/chongqing158/145316528.html?tagId=286&scene=onlinesearch,29.716298,106.417561
知识科普型,动物园,145653430,特特罗萌宠动物园,0.0,0,,石柱,石柱,,,,动物园&水族馆,,否,https://dimg04.c-ctrip.com/images/fd/tg/g1/M06/FC/24/CghzflW7H_iATdynAAA-FlXAIeA738.jpg,https://you.ctrip.com/sight/shizhucounty2025257/145653430.html?tagId=286&scene=onlinesearch,30.242377,108.401568
知识科普型,动物园,145663899,天子山游乐园-动物园,0.0,0,,忠县,忠县,,,,动物园&水族馆,,否,https://dimg04.c-ctrip.com/images/fd/tg/g1/M06/FC/24/CghzflW7H_iATdynAAA-FlXAIeA738.jpg,https://you.ctrip.com/sight/zhongcounty2025198/145663899.html?tagId=286&scene=onlinesearch,30.29891,108.080327
知识科普型,动物园,145672214,爱心动物园,0.0,0,铁山坪森林公园度假区,重庆,铁山坪森林公园度假区,,,,动物园&水族馆,,否,https://dimg04.c-ctrip.com/images/fd/tg/g1/M06/FC/24/CghzflW7H_iATdynAAA-FlXAIeA738.jpg,https://you.ctrip.com/sight/chongqing158/145672214.html?tagId=286&scene=onlinesearch,29.633447,106.702553
知识科普型,动物园,144093336,西部热带动物园,0.0,0,汽博中心,重庆,汽博中心,,,,动物园&水族馆,,否,https://dimg04.c-ctrip.com/images/fd/tg/g1/M06/FC/24/CghzflW7H_iATdynAAA-FlXAIeA738.jpg,https://you.ctrip.com/sight/chongqing158/144093336.html?tagId=286&scene=onlinesearch,29.650222,106.599711
知识科普型,动物园,148555464,关圣场村孔雀动物园,0.0,0,,丰都,丰都,,,,动物园&水族馆,,否,https://dimg04.c-ctrip.com/images/fd/tg/g1/M06/FC/24/CghzflW7H_iATdynAAA-FlXAIeA738.jpg,https://you.ctrip.com/sight/fengducounty2025250/148555464.html?tagId=286&scene=onlinesearch,30.200194,107.700875
知识科普型,动物园,148629062,关圣场村鸵鸟动物园,0.0,0,,丰都,丰都,,,,动物园&水族馆,,否,https://dimg04.c-ctrip.com/images/fd/tg/g1/M06/FC/24/CghzflW7H_iATdynAAA-FlXAIeA738.jpg,https://you.ctrip.com/sight/fengducounty2025250/148629062.html?tagId=286&scene=onlinesearch,30.20081,107.701081
知识科普型,动物园,150336417,格则家动物园,0.0,0,国际博览中心/中央公园,重庆,国际博览中心/中央公园,,,,动物园&水族馆,,否,https://dimg04.c-ctrip.com/images/fd/tg/g1/M06/FC/24/CghzflW7H_iATdynAAA-FlXAIeA738.jpg,https://you.ctrip.com/sight/chongqing158/150336417.html?tagId=286&scene=onlinesearch,29.732345,106.578999
知识科普型,动物园,145501232,百林公园-城市动物园,0.0,0,大竹林/光电园,重庆,大竹林/光电园,,,,动物园&水族馆,,否,https://dimg04.c-ctrip.com/images/fd/tg/g1/M06/FC/24/CghzflW7H_iATdynAAA-FlXAIeA738.jpg,https://you.ctrip.com/sight/chongqing158/145501232.html?tagId=286&scene=onlinesearch,29.621879,106.512237
知识科普型,动物园,152873126,重庆动物园-骑龙游戏,0.0,0,杨家坪/重庆动物园,重庆,杨家坪/重庆动物园,,,,,,否,https://dimg04.c-ctrip.com/images/fd/tg/g1/M06/FC/24/CghzflW7H_iATdynAAA-FlXAIeA738.jpg,https://you.ctrip.com/sight/chongqing158/152873126.html?tagId=286&scene=onlinesearch,29.506507,106.514689
知识科普型,动物园,39806654,枇杷生态动物园,0.0,0,,重庆,,,,,动物园&水族馆,,否,https://dimg04.c-ctrip.com/images/fd/tg/g2/M08/AE/60/CghzgFW7H_iAHrajAAA9JobItL4932.jpg,https://you.ctrip.com/sight/chongqing158/3983415.html?tagId=286&scene=onlinesearch,30.212938,106.176878
知识科普型,动物园,152869969,重庆 · 动物园钉子户2025新EP《aday》巡演,0.0,0,观音桥/九街,重庆,观音桥/九街,,,,livehouse,,否,https://dimg04.c-ctrip.com/images/0105n12000n6goad55734.jpg,https://you.ctrip.com/sight/chongqing158/152869969.html?tagId=286&scene=onlinesearch,29.588392,106.533038
知识科普型,植物园,82325,南山植物园,4.3,1284,南山度假区,重庆,南山度假区,重庆赏秋景点榜 No.18,4A,走进城市天然氧吧,"遛娃宝藏地, 植物园",门票,否,https://dimg04.c-ctrip.com/images/01016120009cf2r0q8E45.png,https://you.ctrip.com/sight/chongqing158/45793.html?scene=onlinesearch,29.561153,106.634518
知识科普型,植物园,119625503,重庆光环购物公园室内植物园“沐光森林”,4.2,40,礼嘉/欢乐谷,重庆,礼嘉/欢乐谷,,,,"遛娃宝藏地, 植物园",免费,是,https://dimg04.c-ctrip.com/images/0100812000kl2r4yyAAD2.jpg,https://you.ctrip.com/sight/chongqing158/5715191.html?scene=onlinesearch,29.656097,106.535658
知识科普型,植物园,78149,缙云山,4.6,276,西南大学/缙云山度假区,重庆,西南大学/缙云山度假区,,4A,登山避暑祈福佳处,"避暑纳凉, 登高爬山",门票,否,https://dimg04.c-ctrip.com/images/0101912000iivhx494FB5.jpg,https://you.ctrip.com/sight/chongqing158/10356.html?scene=onlinesearch,29.832767,106.383781
知识科普型,植物园,33141762,南湖多彩植物园,4.0,109,,重庆,,,,备受欢迎的踏青公园,"避暑纳凉, 遛娃宝藏地",门票,否,https://dimg04.c-ctrip.com/images/0104o120008gka5416745.jpg,https://you.ctrip.com/sight/chongqing158/2472117.html?scene=onlinesearch,29.324442,106.687535
