大类,子类关键词,景点ID,名称,评分,评论数,区域,城市,地址,分类,等级,特色,标签,门票说明,是否免费,图片链接,详情链接,纬度,经度
知识科普型,博物馆,18593944,安徽博物院(新馆),4.6,1176,奥体中心/天鹅湖,合肥,合肥 · 奥体中心/天鹅湖,安徽亲子景点榜 No.5,4A,体现厚重的文化历史,"展馆展览, 遛娃宝藏地",免费,是,https://dimg04.c-ctrip.com/images/0101d12000i0lcehi93EF.jpg,https://you.ctrip.com/sight/hefei196/1682342.html?scene=onlinesearch,31.808271,117.227043
知识科普型,博物馆,152854333,《寿春楚歌》安徽博物院首创XR沉浸探索体验展,0.0,0,奥体中心/天鹅湖,合肥,合肥 · 奥体中心/天鹅湖,,,,"特色展馆, 展览",,否,https://dimg04.c-ctrip.com/images/0101p12000mwj190qBB90.png,https://you.ctrip.com/sight/hefei196/152854333.html?scene=onlinesearch,31.808271,117.227043
知识科普型,博物馆,38346643,安徽省文化博物园,5.0,1,奥体中心/天鹅湖,合肥,合肥 · 奥体中心/天鹅湖,,,,"博物馆, 博物馆&展馆",免费,是,https://dimg04.c-ctrip.com/images/0102312000a0gth4f523F.jpg,https://you.ctrip.com/sight/hefei196/2537204.html?scene=onlinesearch,31.808291,117.227011
知识科普型,博物馆,18593952,安徽省地质博物馆,4.7,131,奥体中心/天鹅湖,合肥,合肥 · 奥体中心/天鹅湖,,,新馆设有六个常设展厅,"博物馆, 博物馆&展馆",免费,是,https://dimg04.c-ctrip.com/images/0101y12000ir6tvjwA225.jpg,https://you.ctrip.com/sight/hefei196/1682361.html?scene=onlinesearch,31.809446,117.2283
知识科普型,博物馆,78370,安徽省博物馆老馆,4.7,557,淮河路步行街/三孝口,合肥,合肥 · 淮河路步行街/三孝口,,4A,展示安徽的历史文化亮点,"遛娃宝藏地, 博物馆",免费,是,https://dimg04.c-ctrip.com/images/0105x12000iv9a36nD20D.jpg,https://you.ctrip.com/sight/hefei196/10964.html?scene=onlinesearch,31.869392,117.281655
知识科普型,博物馆,13599536,安徽楚文化博物馆,4.6,354,,寿县,寿县,,,侧重收藏楚文化体系文物,"博物馆, 博物馆&展馆",免费,是,https://dimg04.c-ctrip.com/images/0100612000k3au0h60196.jpg,https://you.ctrip.com/sight/shoucounty2628/1415847.html?scene=onlinesearch,32.569898,116.808342
知识科普型,博物馆,56775289,中国徽州文化博物馆,4.8,61,,黄山,黄山,,,,"博物馆, 博物馆&展馆",免费,是,https://dimg04.c-ctrip.com/images/0102a12000isnh6uk280B.jpg,https://you.ctrip.com/sight/huangshan120061/5063393.html?scene=onlinesearch,29.723674,118.280914
知识科普型,博物馆,69217612,宣纸博物馆,4.5,15,,泾县,泾县,,,,"博物馆, 博物馆&展馆",,否,https://dimg04.c-ctrip.com/images/0103h12000iil7xrdF46A.jpg,https://you.ctrip.com/sight/jingcounty2616/69217612.html?scene=onlinesearch,30.571402,118.457601
知识科普型,博物馆,51918461,安庆博物馆,4.6,15,,安庆,安庆,,,,"博物馆, 博物馆&展馆",免费,是,https://dimg04.c-ctrip.com/images/0104q12000igpnqzaD595.jpg,https://you.ctrip.com/sight/anqing179/4626701.html?scene=onlinesearch,30.543926,117.128408
知识科普型,博物馆,24654013,宣城市博物馆,4.4,42,万达广场/宛陵湖景区,宣城,宣城 · 万达广场/宛陵湖景区,,,再现宣城悠久的历史和灿烂的文明,"博物馆, 博物馆&展馆",免费,是,https://dimg04.c-ctrip.com/images/0100g120008e28uk46522.jpg,https://you.ctrip.com/sight/xuancheng504/1834804.html?scene=onlinesearch,30.934351,118.768193
知识科普型,博物馆,24649742,阜阳博物馆,4.4,50,颍州城区,阜阳,阜阳 · 颍州城区,,,藏品以地方历史文物为主,"博物馆, 博物馆&展馆",免费,是,https://dimg04.c-ctrip.com/images/0104d12000f6qmr0x9E7D.jpg,https://you.ctrip.com/sight/fuyang361/1830610.html?scene=onlinesearch,32.895431,115.826166
知识科普型,博物馆,23426322,芜湖市博物馆,4.5,77,,芜湖,芜湖,,,回顾芜湖市百万年的历史,"博物馆, 博物馆&展馆",免费,是,https://dimg04.c-ctrip.com/images/0100y12000ny430lxB224.jpg,https://you.ctrip.com/sight/wuhu457/1753536.html?scene=onlinesearch,31.355426,118.437298
知识科普型,博物馆,134773365,安徽徽州历史博物馆,5.0,3,徽州古城/歙县,歙县,歙县 · 徽州古城/歙县,,,,"博物馆, 博物馆&展馆",免费,是,https://dimg04.c-ctrip.com/images/0105512000f6tkcdlA30A.jpg,https://you.ctrip.com/sight/shecounty527/134773365.html?scene=onlinesearch,29.870254,118.442179
知识科普型,博物馆,79452,潜口民宅博物馆,4.4,79,唐模/棠樾牌坊群,黄山,黄山 · 唐模/棠樾牌坊群,,,徽派古建筑的聚集地,"博物馆, 博物馆&展馆",免费,是,https://dimg04.c-ctrip.com/images/100q1f000001grjm1EA85.jpg,https://you.ctrip.com/sight/huangshan120061/17000.html?scene=onlinesearch,29.874528,118.300764
知识科普型,博物馆,79436996,滁州博物馆,4.1,33,琅琊山度假区,滁州,滁州 · 琅琊山度假区,,,,"博物馆, 博物馆&展馆",免费,是,https://dimg04.c-ctrip.com/images/0102y12000f6qg1bq4455.jpg,https://you.ctrip.com/sight/chuzhou228/5703309.html?scene=onlinesearch,32.261165,118.338038
知识科普型,博物馆,38954515,皖西博物馆,4.7,58,六安火车站/市政务中心/南湖湿地公园,六安,六安 · 六安火车站/市政务中心/南湖湿地公园,,4A,,"博物馆, 博物馆&展馆",免费,是,https://dimg04.c-ctrip.com/images/0107412000kshrqnhD1DA.jpg,https://you.ctrip.com/sight/luan502/3139176.html?scene=onlinesearch,31.744241,116.53096
知识科普型,博物馆,13662561,亳州博物馆,4.3,220,,亳州,亳州,,4A,展示城市历史文化演变过程,"博物馆, 博物馆&展馆",免费,是,https://dimg04.c-ctrip.com/images/0103b12000f6shqob4A99.jpg,https://you.ctrip.com/sight/bozhou404/1416924.html?scene=onlinesearch,33.855452,115.79059
知识科普型,博物馆,24653336,铜陵博物馆,4.9,100,,铜陵,铜陵,,4A,铜文化与铜矿冶炼史为特色,"博物馆, 博物馆&展馆",免费,是,https://dimg04.c-ctrip.com/images/0100d12000f6ri49s2CC3.jpg,https://you.ctrip.com/sight/tongling472/1834172.html?scene=onlinesearch,30.985865,117.874274
知识科普型,博物馆,24650451,淮北市博物馆,4.7,73,,淮北,淮北,,,文物丰富，重现淮北历史,"博物馆, 博物馆&展馆",免费,是,https://dimg04.c-ctrip.com/images/0100x120009cnbmwtC8F5.jpg,https://you.ctrip.com/sight/huaibei657/1831332.html?scene=onlinesearch,33.957737,116.805137
知识科普型,博物馆,39253449,绩溪博物馆,4.6,25,,绩溪,绩溪,,,,"博物馆, 博物馆&展馆",免费,是,https://dimg04.c-ctrip.com/images/1A0814000000wgcmm2111.jpg,https://you.ctrip.com/sight/jixi2627/3435410.html?scene=onlinesearch,30.077293,118.602079
知识科普型,博物馆,69538583,中国徽菜博物馆,5.0,2,,黄山,黄山,,,,"博物馆, 博物馆&展馆",,否,https://dimg04.c-ctrip.com/images/0102a12000d04umn97FDB.png,https://you.ctrip.com/sight/huangshan120061/69538583.html?scene=onlinesearch,29.725866,118.277869
知识科普型,博物馆,24653984,宿州博物馆,4.8,156,,宿州,宿州,,4A,走进宿州历史，了解汉文化,"博物馆, 博物馆&展馆",免费,是,https://dimg04.c-ctrip.com/images/0106s12000f6q6otd002F.jpg,https://you.ctrip.com/sight/suzhou672/1834774.html?scene=onlinesearch,33.649614,116.970671
知识科普型,博物馆,39185298,蚌埠市博物馆新馆,4.6,41,高校区,蚌埠,蚌埠 · 高校区,,4A,,"博物馆, 博物馆&展馆",免费,是,https://dimg04.c-ctrip.com/images/0101q12000ijkqiw60B48.jpg,https://you.ctrip.com/sight/bengbu205/3367859.html?scene=onlinesearch,32.91887,117.392597
知识科普型,博物馆,39683348,池州市博物馆,4.6,7,,池州,池州,,,,"博物馆, 博物馆&展馆",免费,是,https://dimg04.c-ctrip.com/images/0105r12000bbdgag51D84.jpg,https://you.ctrip.com/sight/chizhou825/3861209.html?scene=onlinesearch,30.664508,117.494827
知识科普型,博物馆,24651555,马鞍山市博物馆,4.9,62,马鞍山市中心,马鞍山,马鞍山 · 马鞍山市中心,,,建筑设计与生态环境交融,"博物馆, 博物馆&展馆",免费,是,https://dimg04.c-ctrip.com/images/0100n1200092lnnjfCAF6.jpg,https://you.ctrip.com/sight/maanshan503/1832393.html?scene=onlinesearch,31.670201,118.512202
知识科普型,博物馆,79042517,淮南市博物馆,4.4,25,淮南站/吾悦广场,淮南,淮南 · 淮南站/吾悦广场,,,,"博物馆, 博物馆&展馆",免费,是,https://dimg04.c-ctrip.com/images/0102a12000azft4ta1984.jpg,https://you.ctrip.com/sight/huainan638/5700936.html?scene=onlinesearch,32.630862,117.002241
知识科普型,博物馆,134049925,中国桐城文化博物馆,5.0,10,,桐城,桐城,,,,"博物馆, 博物馆&展馆",免费,是,https://dimg04.c-ctrip.com/images/0101j12000atmx1ug55D5.jpg,https://you.ctrip.com/sight/tongcheng1847/134049925.html?scene=onlinesearch,31.057975,116.9583
知识科普型,博物馆,88102,金寨县革命博物馆,0.0,68,,金寨,金寨,,,参观革命历史陈列厅,"博物馆&展馆, 场馆展馆",免费,是,https://dimg04.c-ctrip.com/images/0103z12000f6qw5655127.jpg,https://you.ctrip.com/sight/jinzhai2623/65767.html?scene=onlinesearch,31.689699,115.88086
知识科普型,博物馆,145674521,军事博物馆,0.0,0,悠然蓝溪度假区,六安,六安 · 悠然蓝溪度假区,,,,博物馆&展馆,,否,https://dimg04.c-ctrip.com/images/0HJ2012000g914ei2ED12.jpg,https://you.ctrip.com/sight/luan502/145674521.html?scene=onlinesearch,31.778238,116.66063
知识科普型,博物馆,79438427,查济艺术博物馆,5.0,4,查济古建筑群,泾县,泾县 · 查济古建筑群,,,,"特色展馆, 博物馆",,否,https://dimg04.c-ctrip.com/images/010731200086xyhhz27EC.jpg,https://you.ctrip.com/sight/jingcounty2616/5704800.html?scene=onlinesearch,30.522032,118.046056
知识科普型,博物馆,82399823,天柱山地质公园博物馆,4.2,17,,潜山,潜山,,,,"展馆展览, 遛娃宝藏地",门票,否,https://dimg04.c-ctrip.com/images/01A0x1200082nxg5y57F6.jpg,https://you.ctrip.com/sight/qianshan1016/5707455.html?scene=onlinesearch,30.672435,116.521727
知识科普型,博物馆,24654713,中国状元博物馆(安徽省黄山市休宁县状元广场店),3.9,17,,休宁,休宁,,,,"博物馆, 博物馆&展馆",免费,是,https://dimg04.c-ctrip.com/images/0106y12000f6u08z21F65.jpg,https://you.ctrip.com/sight/xiuning2625/1835532.html?scene=onlinesearch,29.790821,118.189781
知识科普型,博物馆,145365440,安徽中国黄梅戏博物馆,5.0,1,,安庆,安庆,,,,博物馆&展馆,,否,https://dimg04.c-ctrip.com/images/1me6412000edx5oia00A4.jpg,https://you.ctrip.com/sight/anqing179/145365440.html?scene=onlinesearch,30.543954,117.12839
知识科普型,博物馆,24653740,歙县博物馆,4.7,15,徽州古城/歙县,歙县,歙县 · 徽州古城/歙县,,,,"博物馆, 博物馆&展馆",免费,是,https://dimg04.c-ctrip.com/images/0102y12000f6tzyyy0BC6.jpg,https://you.ctrip.com/sight/shecounty527/1834591.html?scene=onlinesearch,29.867648,118.438618
知识科普型,博物馆,79438423,谢裕大茶文化博物馆,4.2,5,唐模/棠樾牌坊群,黄山,黄山 · 唐模/棠樾牌坊群,,4A,,"博物馆, 博物馆&展馆",免费,是,https://dimg04.c-ctrip.com/images/0104x12000atythliA0CE.jpg,https://you.ctrip.com/sight/huangshan120061/5704785.html?scene=onlinesearch,29.873675,118.326931
知识科普型,博物馆,41399505,黄山市徽州雕刻博物馆,4.7,13,徽州区/岩寺,黄山,黄山 · 徽州区/岩寺,,,徽派雕刻的传承,"博物馆, 博物馆&展馆",门票,否,https://dimg04.c-ctrip.com/images/0102d12000f6u8s306D61.jpg,https://you.ctrip.com/sight/huangshan120061/4248498.html?scene=onlinesearch,29.843312,118.325698
知识科普型,博物馆,145276873,古井酒文化博物馆,5.0,1,,亳州,亳州,,,,博物馆&展馆,,否,https://dimg04.c-ctrip.com/images/1me3v12000jbc63rgBB0A.jpg,https://you.ctrip.com/sight/bozhou404/145276873.html?scene=onlinesearch,33.996928,115.671054
知识科普型,博物馆,10794683,德化堂中国古床博物馆,4.5,106,马鞍山市中心,马鞍山,马鞍山 · 马鞍山市中心,,4A,大型私人古床专题博物馆,"博物馆, 博物馆&展馆",门票,否,https://dimg04.c-ctrip.com/images/100h1f000001gru9c904D.jpg,https://you.ctrip.com/sight/maanshan503/69736.html?scene=onlinesearch,31.659618,118.522678
知识科普型,博物馆,144847244,兵器博物馆,2.5,2,,亳州,亳州,,,,博物馆&展馆,门票,否,https://dimg04.c-ctrip.com/images/1lo4012000d52kqdh5DCB.png,https://you.ctrip.com/sight/bozhou404/144847244.html?scene=onlinesearch,33.795034,115.719304
知识科普型,博物馆,79042558,安徽省萧县博物馆,3.4,5,,萧县,萧县,,,,"博物馆, 博物馆&展馆",免费,是,https://dimg04.c-ctrip.com/images/0100q120009yc9qfmB9C2.jpg,https://you.ctrip.com/sight/xiaocounty2621/5701034.html?scene=onlinesearch,34.192648,116.950173
知识科普型,博物馆,38508776,青阳县博物馆,4.8,4,青阳城区,青阳,青阳 · 青阳城区,,,,"博物馆, 博物馆&展馆",免费,是,https://dimg04.c-ctrip.com/images/0104c12000astjpqx3ACF.jpg,https://you.ctrip.com/sight/qingyang2613/2697637.html?scene=onlinesearch,30.64558,117.851091
知识科普型,博物馆,135821729,徽州印象博物馆,1.0,2,黄山北站/西溪南古村落,黄山,黄山 · 黄山北站/西溪南古村落,,,,"博物馆, 博物馆&展馆",免费,是,https://dimg04.c-ctrip.com/images/0102v12000atyf9h86768.jpg,https://you.ctrip.com/sight/huangshan120061/135821729.html?scene=onlinesearch,29.797454,118.274212
知识科普型,博物馆,79438016,凤阳县博物馆,5.0,6,,凤阳,凤阳,,,,"博物馆, 博物馆&展馆",免费,是,https://dimg04.c-ctrip.com/images/0105912000f6r5k5a7087.jpg,https://you.ctrip.com/sight/fengyang2626/5704390.html?scene=onlinesearch,32.876869,117.53861
知识科普型,博物馆,24120339,蒙城博物馆,4.9,35,,蒙城,蒙城,,4A,展示原始文明和蒙城历史,"博物馆, 博物馆&展馆",免费,是,https://dimg04.c-ctrip.com/images/10071a0000019ee9t7018.jpg,https://you.ctrip.com/sight/mengcheng1872/1791575.html?scene=onlinesearch,33.239555,116.575343
知识科普型,博物馆,144340503,阜阳市博物馆(新馆),0.0,0,,阜阳,阜阳,,,,博物馆&展馆,,否,https://dimg04.c-ctrip.com/images/0HJ6412000g2y7pq73B2C.jpg,https://you.ctrip.com/sight/fuyang361/144340503.html?scene=onlinesearch,32.864362,115.807293
知识科普型,博物馆,56807093,屯溪博物馆,4.6,12,屯溪老街/黎阳老街,黄山,黄山 · 屯溪老街/黎阳老街,,,具有典型的古徽州艺术风韵,"博物馆, 博物馆&展馆",免费,是,https://dimg04.c-ctrip.com/images/100l1f000001gqdzjD03C.jpg,https://you.ctrip.com/sight/huangshan120061/5068415.html?scene=onlinesearch,29.714247,118.313332
知识科普型,博物馆,79436987,太和县博物馆(新馆),4.7,6,,太和,太和,,,,"博物馆, 博物馆&展馆",免费,是,https://dimg04.c-ctrip.com/images/0104r12000auc6yk53F25.jpg,https://you.ctrip.com/sight/taihe2601/5703362.html?scene=onlinesearch,33.173485,115.610313
知识科普型,博物馆,13840034,中国金丝楠木博物馆,4.3,45,,滁州,滁州,,,中国金丝楠木科研基地,"博物馆, 博物馆&展馆",门市价,否,https://dimg04.c-ctrip.com/images/10090q000000gfj9u2A13.jpg,https://you.ctrip.com/sight/chuzhou228/1477607.html?scene=onlinesearch,32.342355,118.372058
知识科普型,博物馆,88232,潜山市博物馆,4.7,26,,潜山,潜山,,,展示各个历史时期的陶瓷器,"博物馆, 博物馆&展馆",免费,是,https://dimg04.c-ctrip.com/images/0103c120009dm1fa40A6A.jpg,https://you.ctrip.com/sight/qianshan1016/66235.html?scene=onlinesearch,30.649788,116.566122
知识科普型,博物馆,79436979,界首博物馆,4.5,2,,界首,界首,,,,"博物馆, 博物馆&展馆",免费,是,https://dimg04.c-ctrip.com/images/0104a12000azm65c31C08.jpg,https://you.ctrip.com/sight/jieshou2612/5703335.html?scene=onlinesearch,33.254444,115.398451
知识科普型,博物馆,151725044,凌家滩遗址博物馆,4.0,2,,含山,含山,,,,博物馆&展馆,免费,是,https://dimg04.c-ctrip.com/images/0102n12000lis45loDC30.jpg,https://you.ctrip.com/sight/hanshan2595/151725044.html?scene=onlinesearch,31.471367,118.058238
知识科普型,博物馆,88490,天长市博物馆,4.4,65,,天长,天长,,,主体为明三暗四仿古式建筑,"博物馆, 博物馆&展馆",免费,是,https://dimg04.c-ctrip.com/images/0102r12000auc7ses3CC0.jpg,https://you.ctrip.com/sight/tianchang1739/67224.html?scene=onlinesearch,32.665701,119.011066
知识科普型,博物馆,79438446,利辛县博物馆,4.9,8,,利辛,利辛,,,,"博物馆, 博物馆&展馆",免费,是,https://dimg04.c-ctrip.com/images/0106812000b47apr1E855.jpg,https://you.ctrip.com/sight/lixin2600/5704769.html?scene=onlinesearch,33.156048,116.191193
知识科普型,博物馆,79436970,涡阳县老子博物馆,5.0,1,,涡阳,涡阳,,,,"博物馆, 博物馆&展馆",免费,是,https://dimg04.c-ctrip.com/images/0HJ1l12000g2uq5qd9F55.jpg,https://you.ctrip.com/sight/guoyang2635/5703380.html?scene=onlinesearch,33.553708,116.198324
知识科普型,博物馆,18608555,巢湖市博物馆,4.5,41,巢湖火车站地区,巢湖,巢湖 · 巢湖火车站地区,,,,"博物馆, 博物馆&展馆",免费,是,https://dimg04.c-ctrip.com/images/0103f12000btyrhtu894B.jpg,https://you.ctrip.com/sight/chaohu187/1683387.html?scene=onlinesearch,31.605462,117.901802
知识科普型,博物馆,39013931,中国祁红博物馆,4.5,8,,祁门,祁门,,,,"博物馆, 博物馆&展馆",,否,https://dimg04.c-ctrip.com/images/0104r12000avx2ord3971.jpg,https://you.ctrip.com/sight/qimen2610/3198092.html?scene=onlinesearch,29.848378,117.756777
知识科普型,博物馆,111989164,徽州糕饼博物馆DIY店,5.0,3,,黄山,黄山,,,,"博物馆, 博物馆&展馆",免费,是,https://dimg04.c-ctrip.com/images/0100i12000atn5qc32620.jpg,https://you.ctrip.com/sight/huangshan120061/111989164.html?scene=onlinesearch,29.722481,118.28367
知识科普型,博物馆,79436965,临泉博物馆,4.0,1,,临泉,临泉,,,,"博物馆, 博物馆&展馆",免费,是,https://dimg04.c-ctrip.com/images/1me4812000dj4suqm3382.jpg,https://you.ctrip.com/sight/linquan2596/5703307.html?scene=onlinesearch,33.063317,115.270594
知识科普型,博物馆,145674617,无为博物馆,5.0,2,,无为,无为,,,,博物馆&展馆,,否,https://dimg04.c-ctrip.com/images/1mh3q12000n3e4ew59BA9.jpg,https://you.ctrip.com/sight/wuwei2618/145674617.html?scene=onlinesearch,31.288989,117.93997
知识科普型,博物馆,145490390,黄山市博物馆,0.0,0,,黄山,黄山,,,,博物馆&展馆,,否,https://dimg04.c-ctrip.com/images/0HJ1n12000g6m3vjf5FC5.jpg,https://you.ctrip.com/sight/huangshan120061/145490390.html?scene=onlinesearch,29.723807,118.280142
知识科普型,博物馆,143187016,昆虫记·合肥昆虫博物馆,0.0,0,骆岗中央公园/滨湖会展中心,合肥,合肥 · 骆岗中央公园/滨湖会展中心,,,,"博物馆, 博物馆&展馆",,否,https://dimg04.c-ctrip.com/images/0102z12000cmwe6ti362E.jpg,https://you.ctrip.com/sight/hefei196/143187016.html?scene=onlinesearch,31.773471,117.32432
知识科普型,博物馆,18599824,三河民俗博物馆,4.6,18,,肥西,肥西,,,,"博物馆, 博物馆&展馆",,否,https://dimg04.c-ctrip.com/images/0103212000as4h73w8402.jpg,https://you.ctrip.com/sight/feixi2619/1682710.html?scene=onlinesearch,31.516961,117.248631
知识科普型,博物馆,79436980,泗州博物馆,5.0,2,,泗县,泗县,,,,"博物馆, 博物馆&展馆",免费,是,https://dimg04.c-ctrip.com/images/0105312000a6n70rdD04F.jpg,https://you.ctrip.com/sight/sicounty2633/5703327.html?scene=onlinesearch,33.486137,117.917395
知识科普型,博物馆,18529066,黄山地质博物馆,4.5,18,黄山山上,黄山,黄山 · 黄山山上,,,,"博物馆, 博物馆&展馆",,否,https://dimg04.c-ctrip.com/images/100p14000000x2l1i27C4.jpg,https://you.ctrip.com/sight/huangshan120061/1676893.html?scene=onlinesearch,30.126146,118.199905
知识科普型,博物馆,79438417,当涂博物馆,3.5,6,,当涂,当涂,,,,"博物馆, 博物馆&展馆",免费,是,https://dimg04.c-ctrip.com/images/0106p12000b6qb5bl9203.jpg,https://you.ctrip.com/sight/dangtu1445969/5704760.html?scene=onlinesearch,31.563657,118.51558
知识科普型,博物馆,79436999,宿松县博物馆,4.0,1,,宿松,宿松,,,,"博物馆, 博物馆&展馆",免费,是,https://dimg04.c-ctrip.com/images/0106s12000bzrvb4s556F.jpg,https://you.ctrip.com/sight/susong2597/5703364.html?scene=onlinesearch,30.158519,116.138362
知识科普型,博物馆,79436995,来安县博物馆,4.6,5,,来安,来安,,,,"博物馆, 博物馆&展馆",免费,是,https://dimg04.c-ctrip.com/images/0104c12000b2ve8i71EB3.jpg,https://you.ctrip.com/sight/laian2629/5703361.html?scene=onlinesearch,32.419238,118.445697
知识科普型,博物馆,79438421,徽字号徽雕艺术博物馆,5.0,3,黄山北站/西溪南古村落,黄山,黄山 · 黄山北站/西溪南古村落,,,,"特色展馆, 博物馆&展馆",免费,是,https://dimg04.c-ctrip.com/images/0102j12000atybwm09216.jpg,https://you.ctrip.com/sight/huangshan120061/5704773.html?scene=onlinesearch,29.795889,118.273782
知识科普型,博物馆,145511799,六安瓜片茶文化博物馆(玉博园店),5.0,1,,金寨,金寨,,,,博物馆&展馆,,否,https://dimg04.c-ctrip.com/images/0HJ6c12000g8o9re8D773.jpg,https://you.ctrip.com/sight/jinzhai2623/145511799.html?scene=onlinesearch,31.718318,115.957036
知识科普型,博物馆,145412121,泗县隋唐大运河博物馆,0.0,0,,泗县,泗县,,,,博物馆&展馆,,否,https://dimg04.c-ctrip.com/images/0106m12000gdflmtpE805.jpg,https://you.ctrip.com/sight/sicounty2633/145412121.html?scene=onlinesearch,33.513024,117.948106
知识科普型,博物馆,79436969,南陵县博物馆,5.0,3,,南陵,南陵,,,,"博物馆, 博物馆&展馆",免费,是,https://dimg04.c-ctrip.com/images/0103312000azygatv35EA.jpg,https://you.ctrip.com/sight/nanling1445976/5703328.html?scene=onlinesearch,30.925412,118.348045
知识科普型,博物馆,79042549,黄山区博物馆,5.0,1,黄山区北大门,黄山,黄山 · 黄山区北大门,,,,"博物馆, 博物馆&展馆",,否,https://dimg04.c-ctrip.com/images/0HJ4t12000g2w6s7r65D0.jpg,https://you.ctrip.com/sight/huangshan120061/5701025.html?scene=onlinesearch,30.302048,118.148133
知识科普型,博物馆,79437043,迎驾酒文化博物馆,3.6,5,,霍山,霍山,,,,"博物馆, 博物馆&展馆",,否,https://dimg04.c-ctrip.com/images/01A03120008wbrzq3F7EE.jpg,https://you.ctrip.com/sight/huoshan2609/5703358.html?scene=onlinesearch,31.358219,116.270698
知识科普型,博物馆,52257668,皖江文化博物馆,3.7,3,奥体中心/天鹅湖,合肥,合肥 · 奥体中心/天鹅湖,,,,"博物馆, 博物馆&展馆",,否,https://dimg04.c-ctrip.com/images/0106812000fq9c7r52B31.jpg,https://you.ctrip.com/sight/hefei196/4677243.html?scene=onlinesearch,31.790654,117.223061
知识科普型,博物馆,38456665,广德博物馆,4.5,2,,广德,广德,,,,"博物馆, 博物馆&展馆",免费,是,https://dimg04.c-ctrip.com/images/0104312000cvd0rsy44E0.jpg,https://you.ctrip.com/sight/guangde2631/2646226.html?scene=onlinesearch,30.878658,119.427575
知识科普型,博物馆,39655341,华夏丝绸博物馆,0.0,0,,阜阳,阜阳,,,,"博物馆, 博物馆&展馆",,否,https://dimg04.c-ctrip.com/images/0100212000ax6u0owA3FA.jpg,https://you.ctrip.com/sight/fuyang361/3833502.html?scene=onlinesearch,32.868903,115.849746
知识科普型,博物馆,79436984,怀远县博物馆,4.0,2,,怀远,怀远,,,,"博物馆, 博物馆&展馆",免费,是,https://dimg04.c-ctrip.com/images/0104e12000c5qgl5tFCFF.jpg,https://you.ctrip.com/sight/huaiyuan1445970/5703323.html?scene=onlinesearch,32.958272,117.203108
知识科普型,博物馆,79438401,安徽省古文化博物馆,2.5,2,安庆市中心,安庆,安庆 · 安庆市中心,,,,"博物馆, 博物馆&展馆",免费,是,https://dimg04.c-ctrip.com/images/0101l12000bp2zm4w9CB4.jpg,https://you.ctrip.com/sight/anqing179/5704782.html?scene=onlinesearch,30.506708,117.059917
知识科普型,博物馆,71564435,五河县星空失恋博物馆,5.0,3,,五河,五河,,,,"特色展馆, 博物馆&展馆",,否,https://dimg04.c-ctrip.com/images/0105b120008wxs5j35DEC.jpg,https://you.ctrip.com/sight/wuhe2607/5648382.html?scene=onlinesearch,33.149299,117.892887
知识科普型,博物馆,144562445,汴河博物馆,0.0,0,,宿州,宿州,,,,博物馆&展馆,免费,是,https://dimg04.c-ctrip.com/images/1me5o12000d2cmq4o2B36.jpg,https://you.ctrip.com/sight/suzhou672/144562445.html?scene=onlinesearch,33.671483,116.959893
知识科普型,博物馆,88130,大别山国家地质公园博物馆,4.3,11,,金寨,金寨,,,,"博物馆, 博物馆&展馆",,否,https://dimg04.c-ctrip.com/images/0103j12000b7slcqd78E0.jpg,https://you.ctrip.com/sight/jinzhai2623/65814.html?scene=onlinesearch,31.174897,115.78186
知识科普型,博物馆,83538839,李白墓园博物馆,0.0,0,,当涂,当涂,,,,"博物馆, 博物馆&展馆",,否,https://dimg04.c-ctrip.com/images/0105m12000ccldoyn6A81.jpg,https://you.ctrip.com/sight/dangtu1445969/83538839.html?scene=onlinesearch,31.49653,118.525581
知识科普型,博物馆,79436971,黄山奇石博物馆,0.0,0,黄山区北大门,黄山,黄山 · 黄山区北大门,,,,"博物馆, 博物馆&展馆",免费,是,https://dimg04.c-ctrip.com/images/0103q1200095zit9528B9.png,https://you.ctrip.com/sight/huangshan120061/5703355.html?scene=onlinesearch,30.292436,118.125216
知识科普型,博物馆,79042548,祁门县博物馆,5.0,1,,祁门,祁门,,,,"博物馆, 博物馆&展馆",免费,是,https://dimg04.c-ctrip.com/images/0101j12000c6lhjsn8BEC.jpg,https://you.ctrip.com/sight/qimen2610/5701016.html?scene=onlinesearch,29.855662,117.720403
知识科普型,博物馆,33212772,绩溪许氏博物馆,5.0,4,,绩溪,绩溪,,,民间文化艺术博物馆,"博物馆, 博物馆&展馆",,否,https://dimg04.c-ctrip.com/images/0104t120008s7kufy8724.jpg,https://you.ctrip.com/sight/jixi2627/2476514.html?scene=onlinesearch,30.062987,118.56472
知识科普型,博物馆,79438438,石台县博物馆,4.0,1,,石台,石台,,,,"博物馆, 博物馆&展馆",免费,是,https://dimg04.c-ctrip.com/images/0HJ4i12000g62mslc13CB.jpg,https://you.ctrip.com/sight/shitai2624/5704779.html?scene=onlinesearch,30.215226,117.502848
知识科普型,博物馆,79437003,怀宁县博物馆,0.0,0,,怀宁,怀宁,,,,"博物馆, 博物馆&展馆",免费,是,https://dimg04.c-ctrip.com/images/0101412000bori4f17079.jpg,https://you.ctrip.com/sight/huaining1445974/5703353.html?scene=onlinesearch,30.752665,116.8531
知识科普型,博物馆,24650191,和县博物馆,4.8,13,,和县,和县,,,,"博物馆, 博物馆&展馆",,否,https://dimg04.c-ctrip.com/images/0100k12000bpy5fyc23D3.jpg,https://you.ctrip.com/sight/hecounty2598/1831075.html?scene=onlinesearch,31.721433,118.362969
知识科普型,博物馆,38513776,宁国市自然博物馆,4.4,5,,宁国,宁国,,,,"博物馆, 博物馆&展馆",,否,https://dimg04.c-ctrip.com/images/01A57120008gqsyz5D422.jpg,https://you.ctrip.com/sight/ningguo1167/2702637.html?scene=onlinesearch,30.634858,118.983933
知识科普型,博物馆,145271044,安徽三线军工博物馆,0.0,0,,霍山,霍山,,,,博物馆&展馆,,否,https://dimg04.c-ctrip.com/images/0HJ2v12000g8b09rz396F.jpg,https://you.ctrip.com/sight/huoshan2609/145271044.html?scene=onlinesearch,31.410636,116.191589
知识科普型,博物馆,149266431,安徽宣石博物馆,4.0,1,,宁国,宁国,,,,博物馆&展馆,门票,否,https://dimg04.c-ctrip.com/images/0103o12000hxdjuzs3AB9.jpg,https://you.ctrip.com/sight/ningguo1167/149266431.html?scene=onlinesearch,30.588052,118.986364
知识科普型,博物馆,76918,化城寺,4.6,131,九华山上,青阳,青阳 · 九华山上,,,佛教圣地，九华山的开山寺,历史建筑,,否,https://dimg04.c-ctrip.com/images/0106d12000o313m3j94FD.jpg,https://you.ctrip.com/sight/qingyang2613/6887.html?scene=onlinesearch,30.484606,117.808897
知识科普型,博物馆,133892553,徽砖博物馆,0.0,0,,广德,广德,,,,"博物馆, 博物馆&展馆",,否,https://dimg04.c-ctrip.com/images/01064120009fll97bE11A.jpg,https://you.ctrip.com/sight/guangde2631/133892553.html?scene=onlinesearch,31.075426,119.521715
知识科普型,博物馆,18599819,国粹楼,4.4,51,,肥西,肥西,,,展出古代艺术珍品近千件,"博物馆, 博物馆&展馆",,否,https://dimg04.c-ctrip.com/images/100u1f000001gqakzD3A3.jpg,https://you.ctrip.com/sight/feixi2619/1682704.html?scene=onlinesearch,31.51629,117.249881
知识科普型,博物馆,79706,三国朱然墓园,4.7,145,马鞍山市中心,马鞍山,马鞍山 · 马鞍山市中心,,,东吴大将， 出土文物众多,,免费,是,https://dimg04.c-ctrip.com/images/1mh0212000gww35eyA2DF.jpg,https://you.ctrip.com/sight/maanshan503/17533.html?scene=onlinesearch,31.674714,118.499829
知识科普型,博物馆,51832841,滁阳历史博物馆,3.0,2,北湖公园/扬子工业园,滁州,滁州 · 北湖公园/扬子工业园,,,,"博物馆, 博物馆&展馆",,否,https://dimg04.c-ctrip.com/images/010381200097ovggt2B71.png,https://you.ctrip.com/sight/chuzhou228/4611640.html?scene=onlinesearch,32.319222,118.311912
知识科普型,博物馆,145548379,明光市博物馆,0.0,0,,明光,明光,,,,博物馆&展馆,,否,https://dimg04.c-ctrip.com/images/1me1d12000ehj45fy9537.jpg,https://you.ctrip.com/sight/mingguang1445966/145548379.html?scene=onlinesearch,32.800709,118.03252
知识科普型,博物馆,148692839,繁昌博物馆(新馆),5.0,1,,芜湖,芜湖,,,,博物馆&展馆,,否,https://dimg04.c-ctrip.com/images/0HJ4d12000g6e61zx40E6.jpg,https://you.ctrip.com/sight/wuhu457/148692839.html?scene=onlinesearch,31.109787,118.206348
知识科普型,博物馆,79438396,蚌埠市弘徽民俗博物馆,0.0,0,,蚌埠,蚌埠,,,,"博物馆, 博物馆&展馆",免费,是,https://dimg04.c-ctrip.com/images/0105712000970g2wa7ED7.png,https://you.ctrip.com/sight/bengbu205/5704738.html?scene=onlinesearch,32.974101,117.333072
知识科普型,博物馆,79438440,国安木雕博物馆,1.0,3,,旌德,旌德,,,,"特色展馆, 博物馆&展馆",免费,是,https://dimg04.c-ctrip.com/images/0103512000dg7hrmhE2BD.jpg,https://you.ctrip.com/sight/jingde2620/5704789.html?scene=onlinesearch,30.298937,118.53541
知识科普型,博物馆,150202718,乡村记忆博物馆,0.0,0,,黟县,黟县,,,,博物馆&展馆,,否,https://dimg04.c-ctrip.com/images/0102q12000jnqn50o953A.jpg,https://you.ctrip.com/sight/yicounty528/150202718.html?scene=onlinesearch,29.945792,117.894446
知识科普型,博物馆,79436941,霍山县博物馆,5.0,2,,霍山,霍山,,,,"博物馆, 博物馆&展馆",免费,是,https://dimg04.c-ctrip.com/images/1me5p12000ga7wcdf55D0.jpg,https://you.ctrip.com/sight/huoshan2609/5703344.html?scene=onlinesearch,31.411977,116.336022
知识科普型,博物馆,148676515,安徽省沉香博物馆,0.0,0,黄山北站/西溪南古村落,黄山,黄山 · 黄山北站/西溪南古村落,,,,博物馆&展馆,,否,https://dimg04.c-ctrip.com/images/0HJ6t12000g8rk0wjD841.jpg,https://you.ctrip.com/sight/huangshan120061/148676515.html?scene=onlinesearch,29.800492,118.280775
知识科普型,博物馆,145412373,徽州府署博物馆,0.0,0,徽州古城/歙县,歙县,歙县 · 徽州古城/歙县,,,,博物馆&展馆,,否,https://dimg04.c-ctrip.com/images/0HJ1912000g30ba884A53.jpg,https://you.ctrip.com/sight/shecounty527/145412373.html?scene=onlinesearch,29.87158,118.441508
知识科普型,博物馆,136639192,中国古鞋博物馆,0.0,0,,泗县,泗县,,,,"博物馆, 博物馆&展馆",免费,是,https://dimg04.c-ctrip.com/images/0101n12000bsry228525F.jpg,https://you.ctrip.com/sight/sicounty2633/136639192.html?scene=onlinesearch,33.497029,117.920217
知识科普型,博物馆,145627715,中国状元博物馆-平政堂,5.0,1,,休宁,休宁,,,,博物馆&展馆,免费,是,https://dimg04.c-ctrip.com/images/0101012000n5362cd3F66.jpg,https://you.ctrip.com/sight/xiuning2625/145627715.html?scene=onlinesearch,29.790761,118.189812
知识科普型,博物馆,145360710,涡阳博物馆,0.0,0,,涡阳,涡阳,,,,博物馆&展馆,,否,https://dimg04.c-ctrip.com/images/0HJ1l12000g2uq5qd9F55.jpg,https://you.ctrip.com/sight/guoyang2635/145360710.html?scene=onlinesearch,33.480969,116.206121
知识科普型,博物馆,39266536,南山汉文化博物馆,0.0,0,,淮北,淮北,,,,"博物馆, 博物馆&展馆",,否,https://dimg04.c-ctrip.com/images/0102t12000axm8xah5B58.jpg,https://you.ctrip.com/sight/huaibei657/3448197.html?scene=onlinesearch,33.963449,116.947082
知识科普型,博物馆,51811924,箴行博物馆,0.0,0,,滁州,滁州,,,,"博物馆, 博物馆&展馆",,否,https://dimg04.c-ctrip.com/images/0102712000ce3dvyj1B49.jpg,https://you.ctrip.com/sight/chuzhou228/4610241.html?scene=onlinesearch,32.317466,118.369085
知识科普型,博物馆,143730741,中国白酒博物馆,5.0,1,,亳州,亳州,,,,"博物馆, 博物馆&展馆",,否,https://dimg04.c-ctrip.com/images/0HJ6512000g8qry3u4799.jpg,https://you.ctrip.com/sight/bozhou404/143730741.html?scene=onlinesearch,33.996969,115.671334
知识科普型,博物馆,144143262,淮北矿山博物馆,0.0,0,,淮北,淮北,,,,博物馆&展馆,,否,https://dimg04.c-ctrip.com/images/0HJ3812000g2uklfh807D.jpg,https://you.ctrip.com/sight/huaibei657/144143262.html?scene=onlinesearch,33.909726,116.837541
知识科普型,博物馆,79437013,望江县博物馆,0.0,0,,望江,望江,,,,"博物馆, 博物馆&展馆",免费,是,https://dimg04.c-ctrip.com/images/0HJ1p12000g2y09fy75D0.jpg,https://you.ctrip.com/sight/wangjiang1445975/5703329.html?scene=onlinesearch,30.133157,116.697812
知识科普型,博物馆,79437039,中墨文化歙县徽派版画博物馆,0.0,0,徽州古城/歙县,歙县,歙县 · 徽州古城/歙县,,,,"博物馆, 博物馆&展馆",免费,是,https://dimg04.c-ctrip.com/images/0100612000d7lmig3EE63.jpg,https://you.ctrip.com/sight/shecounty527/5703347.html?scene=onlinesearch,29.860915,118.414309
知识科普型,博物馆,145137502,黄山国茶文化博物馆,0.0,0,,黄山,黄山,,,,博物馆&展馆,,否,https://dimg04.c-ctrip.com/images/0HJ0b12000g75gcnfD26D.jpg,https://you.ctrip.com/sight/huangshan120061/145137502.html?scene=onlinesearch,30.014167,118.122349
知识科普型,博物馆,79437025,黄山麟圣博物馆,0.0,0,,休宁,休宁,,,,"博物馆, 博物馆&展馆",门票,否,https://dimg04.c-ctrip.com/images/0105c12000cdkmeufAFDD.jpg,https://you.ctrip.com/sight/xiuning2625/5703356.html?scene=onlinesearch,29.980974,118.094413
知识科普型,博物馆,145232531,安徽古楼小镇博物馆,0.0,0,,合肥,合肥,,,,博物馆&展馆,,否,https://dimg04.c-ctrip.com/images/0HJ4u12000g6u32sq41CE.jpg,https://you.ctrip.com/sight/hefei196/145232531.html?scene=onlinesearch,31.960246,117.127712
知识科普型,博物馆,145470082,汉源博物馆,0.0,0,罍街/合肥南站,合肥,合肥 · 罍街/合肥南站,,,,博物馆&展馆,,否,https://dimg04.c-ctrip.com/images/0HJ5a12000g6ra95b481F.jpg,https://you.ctrip.com/sight/hefei196/145470082.html?scene=onlinesearch,31.815184,117.294528
知识科普型,博物馆,101120,见明堂民俗博物馆,2.0,5,,休宁,休宁,,,展示徽州民俗文化的博物馆,"博物馆, 博物馆&展馆",,否,https://dimg04.c-ctrip.com/images/350b14000000x78tgAA71.jpg,https://you.ctrip.com/sight/xiuning2625/140470.html?scene=onlinesearch,29.796576,118.230962
知识科普型,博物馆,79437024,徽州雕艺博物馆,0.0,0,徽州古城/歙县,歙县,歙县 · 徽州古城/歙县,,,,"博物馆, 博物馆&展馆",免费,是,https://dimg04.c-ctrip.com/images/0100x12000gcz3kug6436.png,https://you.ctrip.com/sight/shecounty527/5703391.html?scene=onlinesearch,29.872369,118.443172
知识科普型,博物馆,145406314,皖南皮影博物馆,0.0,0,,宣城,宣城,,,,博物馆&展馆,,否,https://dimg04.c-ctrip.com/images/1me6g12000e2mg80n02CA.jpg,https://you.ctrip.com/sight/xuancheng504/145406314.html?scene=onlinesearch,30.791931,118.966238
知识科普型,博物馆,145127283,青阳腔博物馆,0.0,0,,青阳,青阳,,,,博物馆&展馆,,否,https://dimg04.c-ctrip.com/images/0HJ4712000g6r7c842B8B.jpg,https://you.ctrip.com/sight/qingyang2613/145127283.html?scene=onlinesearch,30.626379,117.877584
知识科普型,博物馆,79438378,安徽省徽厨博物馆,0.0,0,合肥高新区/大蜀山公园,合肥,合肥 · 合肥高新区/大蜀山公园,,,,"博物馆, 博物馆&展馆",免费,是,https://dimg04.c-ctrip.com/images/1me6a12000j6yyg96C044.jpg,https://you.ctrip.com/sight/hefei196/5704728.html?scene=onlinesearch,31.872425,117.147729
知识科普型,博物馆,79437026,黟县金星民间博物馆,0.0,0,宏村景区外,黟县,黟县 · 宏村景区外,,,,"博物馆, 博物馆&展馆",免费,是,https://dimg04.c-ctrip.com/images/0100812000cdsrkac3B5E.png,https://you.ctrip.com/sight/yicounty528/5703392.html?scene=onlinesearch,29.926764,117.952293
知识科普型,博物馆,52257378,安徽票证博物馆,0.0,0,中庙滨湖城,肥东,肥东 · 中庙滨湖城,,,,"博物馆, 博物馆&展馆",,否,https://dimg04.c-ctrip.com/images/0105e12000bssy7rr8393.jpg,https://you.ctrip.com/sight/feidong2615/4677091.html?scene=onlinesearch,31.657002,117.480211
知识科普型,博物馆,148574165,徽州乡愁博物馆,0.0,0,屯溪老街/黎阳老街,黄山,黄山 · 屯溪老街/黎阳老街,,,,博物馆&展馆,,否,https://dimg04.c-ctrip.com/images/0HJ1812000g8sequx7F01.jpg,https://you.ctrip.com/sight/huangshan120061/148574165.html?scene=onlinesearch,29.717018,118.326465
知识科普型,博物馆,145455896,西村花鼓戏博物馆,0.0,0,,宁国,宁国,,,,博物馆&展馆,,否,https://dimg04.c-ctrip.com/images/0HJ6a12000g3685za9745.jpg,https://you.ctrip.com/sight/ningguo1167/145455896.html?scene=onlinesearch,30.699671,118.964027
知识科普型,博物馆,105418474,芜湖丫山奇石博物馆,4.8,4,,南陵,南陵,,,,"博物馆, 博物馆&展馆",,否,https://dimg04.c-ctrip.com/images/1me6212000ak0o7230BA4.jpg,https://you.ctrip.com/sight/nanling1445976/105418474.html?scene=onlinesearch,30.816001,118.030529
知识科普型,博物馆,152874149,柳孜运河桥梁遗址博物馆,5.0,1,,濉溪,濉溪,,,,博物馆&展馆,,否,https://dimg04.c-ctrip.com/images/0100612000nkhcporB805.jpg,https://you.ctrip.com/sight/suixi2594/152874149.html?scene=onlinesearch,33.828385,116.610078
知识科普型,博物馆,79437034,徽萃山林博物馆,0.0,0,,舒城,舒城,,,,"博物馆, 博物馆&展馆",免费,是,https://dimg04.c-ctrip.com/images/10081f000001gak5o5B5A.png,https://you.ctrip.com/sight/shucheng2630/5703384.html?scene=onlinesearch,31.309984,116.76863
知识科普型,博物馆,145240916,豆腐博物馆,0.0,0,悠然蓝溪度假区,六安,六安 · 悠然蓝溪度假区,,,,博物馆&展馆,,否,https://dimg04.c-ctrip.com/images/0HJ3h12000g6s2t8yF3F9.jpg,https://you.ctrip.com/sight/luan502/145240916.html?scene=onlinesearch,31.777619,116.661691
知识科普型,博物馆,145209146,磬云山国家地质公园博物馆,0.0,0,,灵璧,灵璧,,,,博物馆&展馆,,否,https://dimg04.c-ctrip.com/images/0HJ2r12000g6rdwjl1E78.jpg,https://you.ctrip.com/sight/lingbi2593/145209146.html?scene=onlinesearch,33.873106,117.604321
知识科普型,博物馆,52257994,合肥滨湖学院博物馆,0.0,0,庐州公园/合肥西站,合肥,合肥 · 庐州公园/合肥西站,,,,"博物馆, 博物馆&展馆",,否,https://dimg04.c-ctrip.com/images/0106112000c8zhw6h0EFB.jpg,https://you.ctrip.com/sight/hefei196/4670339.html?scene=onlinesearch,31.89028,117.245824
知识科普型,博物馆,79438389,安徽省聚贤报刊博物馆,0.0,0,,肥东,肥东,,,,"博物馆, 博物馆&展馆",免费,是,https://dimg04.c-ctrip.com/images/0106512000c264hh15CCE.jpg,https://you.ctrip.com/sight/feidong2615/5704737.html?scene=onlinesearch,31.69501,117.468507
知识科普型,博物馆,112651691,三飨一宅侨乡美食博物馆,0.0,0,中庙滨湖城,肥东,肥东 · 中庙滨湖城,,,,"特色展馆, 博物馆",,否,https://dimg04.c-ctrip.com/images/0HJ6712000g88k8rc87C3.jpg,https://you.ctrip.com/sight/feidong2615/112651691.html?scene=onlinesearch,31.657125,117.479513
知识科普型,博物馆,145429982,桐城民俗博物馆,0.0,0,,桐城,桐城,,,,博物馆&展馆,,否,https://dimg04.c-ctrip.com/images/0HJ0812000g6ddyf3907F.jpg,https://you.ctrip.com/sight/tongcheng1847/145429982.html?scene=onlinesearch,31.037784,116.977895
知识科普型,博物馆,145610659,中国粮仓博物馆,0.0,0,,阜阳,阜阳,,,,博物馆&展馆,,否,https://dimg04.c-ctrip.com/images/0HJ1q12000g2vr9kh3549.jpg,https://you.ctrip.com/sight/fuyang361/145610659.html?scene=onlinesearch,32.916955,115.782132
知识科普型,博物馆,145668428,璀璨星空失恋博物馆,0.0,0,六安市中心/万达广场/商之都,六安,六安 · 六安市中心/万达广场/商之都,,,,博物馆&展馆,,否,https://dimg04.c-ctrip.com/images/0HJ4x12000g3555gt572D.jpg,https://you.ctrip.com/sight/luan502/145668428.html?scene=onlinesearch,31.759246,116.509668
知识科普型,博物馆,105418435,安徽胭脂红古瓷博物馆,0.0,0,骆岗中央公园/滨湖会展中心,合肥,合肥 · 骆岗中央公园/滨湖会展中心,,,,"博物馆, 博物馆&展馆",免费,是,https://dimg04.c-ctrip.com/images/0100c12000cr587ib361D.jpg,https://you.ctrip.com/sight/hefei196/105418435.html?scene=onlinesearch,31.78704,117.326255
知识科普型,博物馆,38412087,工艺造型茶博物馆,0.0,0,屯溪老街/黎阳老街,黄山,黄山 · 屯溪老街/黎阳老街,,,,"博物馆, 博物馆&展馆",,否,https://dimg04.c-ctrip.com/images/0103y12000cdesu3z929F.jpg,https://you.ctrip.com/sight/huangshan120061/2601948.html?scene=onlinesearch,29.714453,118.311154
知识科普型,博物馆,79438404,徽派织绣博物馆,0.0,0,方特乐园/鸠兹古镇商圈,芜湖,芜湖 · 方特乐园/鸠兹古镇商圈,,,,"博物馆, 博物馆&展馆",,否,https://dimg04.c-ctrip.com/images/0106812000c9bncs8DD48.png,https://you.ctrip.com/sight/wuhu457/5704754.html?scene=onlinesearch,31.3796,118.451126
知识科普型,博物馆,145850430,金种子酒文化博物馆,5.0,1,,阜阳,阜阳,,,,博物馆&展馆,,否,https://dimg04.c-ctrip.com/images/0102p12000fhj9693B3AF.jpg,https://you.ctrip.com/sight/fuyang361/145850430.html?scene=onlinesearch,32.886967,115.855924
知识科普型,博物馆,145512194,合肥龙虾博物馆,0.0,0,合工大/包河万达,合肥,合肥 · 合工大/包河万达,,,,博物馆&展馆,,否,https://dimg04.c-ctrip.com/images/0HJ5x12000g8mf2294C13.jpg,https://you.ctrip.com/sight/hefei196/145512194.html?scene=onlinesearch,31.84477,117.300879
知识科普型,博物馆,145523032,合肥市勤利书画博物馆,0.0,0,瑶海政务中心/瑶海万达,合肥,合肥 · 瑶海政务中心/瑶海万达,,,,博物馆&展馆,,否,https://dimg04.c-ctrip.com/images/0HJ4o12000g8kt8brE2CC.jpg,https://you.ctrip.com/sight/hefei196/145523032.html?scene=onlinesearch,31.858977,117.312777
知识科普型,博物馆,79438379,中医秘笈博物馆,0.0,0,合肥高新区/大蜀山公园,合肥,合肥 · 合肥高新区/大蜀山公园,,,,"博物馆, 博物馆&展馆",免费,是,https://dimg04.c-ctrip.com/images/0106112000cr59t7nCD2E.jpg,https://you.ctrip.com/sight/hefei196/5704735.html?scene=onlinesearch,31.872663,117.147741
知识科普型,博物馆,79438381,庐州民间木艺博物馆,0.0,0,合肥高新区/大蜀山公园,肥西,肥西 · 合肥高新区/大蜀山公园,,,,"博物馆, 博物馆&展馆",免费,是,https://dimg04.c-ctrip.com/images/0101t12000crcrdj4D7B1.jpg,https://you.ctrip.com/sight/feixi2619/5704750.html?scene=onlinesearch,31.790051,117.154656
知识科普型,博物馆,145404659,外滩文化博物馆,0.0,0,,池州,池州,,,,博物馆&展馆,,否,https://dimg04.c-ctrip.com/images/0HJ0y12000g8wz2dfEA9F.jpg,https://you.ctrip.com/sight/chizhou825/145404659.html?scene=onlinesearch,30.682348,117.479163
知识科普型,博物馆,79438390,芜湖市耿华东艺术收藏博物馆,0.0,0,经济技术开发区,芜湖,芜湖 · 经济技术开发区,,,,"博物馆, 博物馆&展馆",免费,是,https://dimg04.c-ctrip.com/images/0105d12000c9bspqvAC3F.jpg,https://you.ctrip.com/sight/wuhu457/5704744.html?scene=onlinesearch,31.384637,118.379191
知识科普型,博物馆,134726073,粮票博物馆,0.0,0,,青阳,青阳,,,,"博物馆, 博物馆&展馆",,否,https://dimg04.c-ctrip.com/images/0103d120009sx3oyeD36F.jpg,https://you.ctrip.com/sight/qingyang2613/134726073.html?scene=onlinesearch,30.423823,117.906795
知识科普型,博物馆,145349535,柳编文化博物馆,0.0,0,,霍邱,霍邱,,,,博物馆&展馆,,否,https://dimg04.c-ctrip.com/images/0HJ4e12000g8wpmqb2156.jpg,https://you.ctrip.com/sight/huoqiu2606/145349535.html?scene=onlinesearch,32.45739,116.307612
知识科普型,博物馆,148575947,芜湖油菜(木榨)博物馆,0.0,0,,芜湖,芜湖,,,,博物馆&展馆,,否,https://dimg04.c-ctrip.com/images/1me5e12000fvwht2h112D.jpg,https://you.ctrip.com/sight/wuhu457/148575947.html?scene=onlinesearch,31.248437,118.548249
知识科普型,博物馆,79437014,黄山市乌金园猪文化博物馆,5.0,1,徽州区/岩寺,黄山,黄山 · 徽州区/岩寺,,,,"博物馆, 博物馆&展馆",免费,是,https://dimg04.c-ctrip.com/images/0101212000cdzlo2q4BCB.jpg,https://you.ctrip.com/sight/huangshan120061/5703383.html?scene=onlinesearch,29.81502,118.353579
知识科普型,博物馆,39683756,皖南木榨博物馆,0.0,0,,宣城,宣城,,,,"博物馆, 博物馆&展馆",,否,https://dimg04.c-ctrip.com/images/0HJ1712000g8r92e8EBFC.jpg,https://you.ctrip.com/sight/xuancheng504/3861617.html?scene=onlinesearch,31.083394,118.724949
知识科普型,博物馆,145276840,国河博物馆,0.0,0,,亳州,亳州,,,,博物馆&展馆,,否,https://dimg04.c-ctrip.com/images/0HJ6s12000g2run5p58B9.jpg,https://you.ctrip.com/sight/bozhou404/145276840.html?scene=onlinesearch,33.82522,115.799016
知识科普型,博物馆,148587327,市井博物馆,0.0,0,,阜阳,阜阳,,,,博物馆&展馆,,否,https://dimg04.c-ctrip.com/images/0HJ6a12000g2uc51aC0EE.jpg,https://you.ctrip.com/sight/fuyang361/148587327.html?scene=onlinesearch,32.880327,115.78859
知识科普型,博物馆,145513797,贵池供销博物馆,0.0,0,,池州,池州,,,,博物馆&展馆,,否,https://dimg04.c-ctrip.com/images/0HJ5v12000g76uxck0E1A.jpg,https://you.ctrip.com/sight/chizhou825/145513797.html?scene=onlinesearch,30.479782,117.362402
知识科普型,博物馆,145549253,蚌埠工业博物馆,0.0,0,,蚌埠,蚌埠,,,,博物馆&展馆,,否,https://dimg04.c-ctrip.com/images/0HJ5z12000g8a085jFB27.jpg,https://you.ctrip.com/sight/bengbu205/145549253.html?scene=onlinesearch,32.92813,117.292538
知识科普型,博物馆,145578393,蚌埠厚德民俗博物馆,0.0,0,,蚌埠,蚌埠,,,,博物馆&展馆,,否,https://dimg04.c-ctrip.com/images/0HJ3512000g2twupbD9AE.jpg,https://you.ctrip.com/sight/bengbu205/145578393.html?scene=onlinesearch,33.001547,117.388989
知识科普型,博物馆,145339148,金丝楠宫博物馆,0.0,0,北湖公园/扬子工业园,滁州,滁州 · 北湖公园/扬子工业园,,,,博物馆&展馆,,否,https://dimg04.c-ctrip.com/images/0HJ4b12000g8hlm9h87F3.jpg,https://you.ctrip.com/sight/chuzhou228/145339148.html?scene=onlinesearch,32.311548,118.355801
知识科普型,博物馆,143736284,黄山区民间博物馆,0.0,0,黄山区北大门,黄山,黄山 · 黄山区北大门,,,,"博物馆, 博物馆&展馆",,否,https://dimg04.c-ctrip.com/images/0HJ5m12000g2wdhca026A.jpg,https://you.ctrip.com/sight/huangshan120061/143736284.html?scene=onlinesearch,30.305592,118.124716
知识科普型,博物馆,145293683,天长天勤失恋博物馆,0.0,0,,天长,天长,,,,博物馆&展馆,,否,https://dimg04.c-ctrip.com/images/0HJ5r12000g6qcljbE261.jpg,https://you.ctrip.com/sight/tianchang1739/145293683.html?scene=onlinesearch,32.696214,119.01431
知识科普型,博物馆,145404618,九华雕塑博物馆,0.0,0,九华山下,青阳,青阳 · 九华山下,,,,博物馆&展馆,,否,https://dimg04.c-ctrip.com/images/0HJ2p12000g366wwaA9CD.jpg,https://you.ctrip.com/sight/qingyang2613/145404618.html?scene=onlinesearch,30.62198,117.771413
知识科普型,博物馆,152748343,松萝茶文化博物馆,0.0,0,,休宁,休宁,,,,博物馆&展馆,免费,是,https://dimg04.c-ctrip.com/images/0103g12000mit2xuo48BC.jpg,https://you.ctrip.com/sight/xiuning2625/152748343.html?scene=onlinesearch,29.80025,118.209631
知识科普型,博物馆,145518322,鲖城镇情人桥星空爱情博物馆,0.0,0,,临泉,临泉,,,,博物馆&展馆,,否,https://dimg04.c-ctrip.com/images/0HJ3612000g621i2z9EB5.jpg,https://you.ctrip.com/sight/linquan2596/145518322.html?scene=onlinesearch,33.077263,114.99768
知识科普型,博物馆,79438413,金色农家民俗博物馆,0.0,0,,蚌埠,蚌埠,,,,"博物馆, 博物馆&展馆",免费,是,https://dimg04.c-ctrip.com/images/0HJ5y12000g6q82kl9C01.jpg,https://you.ctrip.com/sight/bengbu205/5704746.html?scene=onlinesearch,32.879395,117.391023
知识科普型,博物馆,13412841,徽商博物馆,4.2,50,,芜湖,芜湖,,,展示徽商文化的民间馆藏,"博物馆, 博物馆&展馆",免费,是,https://dimg04.c-ctrip.com/images/0105h12000au443t7E3E7.jpg,https://you.ctrip.com/sight/wuhu457/1412272.html?scene=onlinesearch,31.349234,118.386219
知识科普型,博物馆,10772540,秀山门博物馆,4.0,73,,池州,池州,,4A,带给您美妙的休闲时光,"博物馆, 博物馆&展馆",门市价,否,https://dimg04.c-ctrip.com/images/1lo5812000b3ixd074E9C.png,https://you.ctrip.com/sight/chizhou825/1408646.html?scene=onlinesearch,30.65812,117.488733
知识科普型,博物馆,38405034,淮南八公山国家地质公园地质博物馆,0.0,0,,淮南,淮南,,,,"特色展馆, 博物馆",,否,https://dimg04.c-ctrip.com/images/0100o1200097c24ya76DB.png,https://you.ctrip.com/sight/huainan638/2594995.html?scene=onlinesearch,32.638238,116.837423
知识科普型,博物馆,10795193,安徽省源泉徽文化民俗博物馆,4.4,86,,合肥,合肥,,,本土文化的专题性博物馆,"博物馆, 博物馆&展馆",,否,https://dimg04.c-ctrip.com/images/0102f120008jz2yc9E11D.jpg,https://you.ctrip.com/sight/hefei196/70246.html?scene=onlinesearch,31.880298,117.18508
知识科普型,博物馆,79437037,黄山太平猴魁博物馆,4.5,2,屯溪老街/黎阳老街,黄山,黄山 · 屯溪老街/黎阳老街,,,,"博物馆, 博物馆&展馆",免费,是,https://dimg04.c-ctrip.com/images/0107112000c48691c3C4A.jpg,https://you.ctrip.com/sight/huangshan120061/5703386.html?scene=onlinesearch,29.715266,118.310066
知识科普型,博物馆,143289258,滁州博物馆美术馆,0.0,0,琅琊山度假区,滁州,滁州 · 琅琊山度假区,,,,"特色展馆, 博物馆&展馆",免费,是,https://dimg04.c-ctrip.com/images/0105n12000d9vzucu3BD1.jpg,https://you.ctrip.com/sight/chuzhou228/143289258.html?scene=onlinesearch,32.260815,118.338253
知识科普型,博物馆,111989458,歙县徽派盆景艺术博物馆,0.0,0,唐模/棠樾牌坊群,歙县,歙县 · 唐模/棠樾牌坊群,,,,"特色展馆, 博物馆&展馆",,否,https://dimg04.c-ctrip.com/images/0101x120008gd689hD8A8.png,https://you.ctrip.com/sight/shecounty527/111989458.html?scene=onlinesearch,29.866012,118.377388
知识科普型,博物馆,145123279,祁门红茶博物馆,0.0,0,,祁门,祁门,,,,博物馆&展馆,,否,https://dimg04.c-ctrip.com/images/fd/tg/g1/M06/FC/24/CghzflW7H_iATdynAAA-FlXAIeA738.jpg,https://you.ctrip.com/sight/qimen2610/145123279.html?scene=onlinesearch,29.739005,117.616926
知识科普型,博物馆,144142701,泾县博物馆,0.0,0,,泾县,泾县,,,,博物馆&展馆,,否,https://dimg04.c-ctrip.com/images/fd/tg/g1/M06/FC/24/CghzflW7H_iATdynAAA-FlXAIeA738.jpg,https://you.ctrip.com/sight/jingcounty2616/144142701.html?scene=onlinesearch,30.701977,118.403009
知识科普型,博物馆,144970037,颠倒博物馆(合肥店),0.0,0,1912街区/国防科大,合肥,合肥 · 1912街区/国防科大,,,,博物馆&展馆,,否,https://dimg04.c-ctrip.com/images/0102u1200086k28vc0A5C.jpg,https://you.ctrip.com/sight/hefei196/144970037.html?scene=onlinesearch,31.858556,117.243952
知识科普型,博物馆,151335103,淮北工业博物馆,0.0,0,,淮北,淮北,,,,博物馆&展馆,,否,https://dimg04.c-ctrip.com/images/fd/tg/g1/M06/FC/24/CghzflW7H_iATdynAAA-FlXAIeA738.jpg,https://you.ctrip.com/sight/huaibei657/151335103.html?scene=onlinesearch,33.971065,116.78745
知识科普型,博物馆,145263341,灵璧奇石博物馆,0.0,0,,灵璧,灵璧,,,,博物馆&展馆,,否,https://dimg04.c-ctrip.com/images/fd/tg/g1/M06/FC/24/CghzflW7H_iATdynAAA-FlXAIeA738.jpg,https://you.ctrip.com/sight/lingbi2593/145263341.html?scene=onlinesearch,33.576721,117.554395
知识科普型,博物馆,145299609,女山湖地质公园博物馆,0.0,0,,明光,明光,,,,博物馆&展馆,,否,https://dimg04.c-ctrip.com/images/fd/tg/g1/M06/FC/24/CghzflW7H_iATdynAAA-FlXAIeA738.jpg,https://you.ctrip.com/sight/mingguang1445966/145299609.html?scene=onlinesearch,33.004395,118.155727
知识科普型,博物馆,148709955,丫山国家地质公园博物馆,0.0,0,,南陵,南陵,,,,博物馆&展馆,,否,https://dimg04.c-ctrip.com/images/fd/tg/g1/M06/FC/24/CghzflW7H_iATdynAAA-FlXAIeA738.jpg,https://you.ctrip.com/sight/nanling1445976/148709955.html?scene=onlinesearch,30.832779,117.996951
知识科普型,博物馆,151335974,泾县木梳博物馆,0.0,0,,泾县,泾县,,,,博物馆&展馆,,否,https://dimg04.c-ctrip.com/images/fd/tg/g1/M06/FC/24/CghzflW7H_iATdynAAA-FlXAIeA738.jpg,https://you.ctrip.com/sight/jingcounty2616/151335974.html?scene=onlinesearch,30.70443,118.441683
知识科普型,博物馆,152834095,蚌埠昆虫自然博物馆,0.0,0,,蚌埠,蚌埠,,,,博物馆&展馆,,否,https://dimg04.c-ctrip.com/images/fd/tg/g1/M06/FC/24/CghzflW7H_iATdynAAA-FlXAIeA738.jpg,https://you.ctrip.com/sight/bengbu205/152834095.html?scene=onlinesearch,32.916297,117.235199
知识科普型,博物馆,145239322,大都会博物馆,0.0,0,经济技术开发区,芜湖,芜湖 · 经济技术开发区,,,,博物馆&展馆,,否,https://dimg04.c-ctrip.com/images/fd/tg/g1/M06/FC/24/CghzflW7H_iATdynAAA-FlXAIeA738.jpg,https://you.ctrip.com/sight/wuhu457/145239322.html?scene=onlinesearch,31.384642,118.388176
知识科普型,博物馆,145516413,中国宣石博物馆,0.0,0,,宣城,宣城,,,,博物馆&展馆,,否,https://dimg04.c-ctrip.com/images/fd/tg/g1/M06/FC/24/CghzflW7H_iATdynAAA-FlXAIeA738.jpg,https://you.ctrip.com/sight/xuancheng504/145516413.html?scene=onlinesearch,30.958085,118.833443
知识科普型,博物馆,151285821,活体昆虫博物馆(B馆),0.0,0,步行街,芜湖,芜湖 · 步行街,,,,博物馆&展馆,,否,https://dimg04.c-ctrip.com/images/fd/tg/g1/M06/FC/24/CghzflW7H_iATdynAAA-FlXAIeA738.jpg,https://you.ctrip.com/sight/wuhu457/151285821.html?scene=onlinesearch,31.345188,118.371231
知识科普型,博物馆,143748761,徽茶文化博物馆,0.0,0,,休宁,休宁,,,,"博物馆, 博物馆&展馆",,否,https://dimg04.c-ctrip.com/images/fd/tg/g1/M08/AE/87/CghzfVW7IAOAbNKNAABCrs7mUrY425.jpg,https://you.ctrip.com/sight/xiuning2625/143748761.html?scene=onlinesearch,29.800255,118.209621
知识科普型,博物馆,145256911,黄山地质博物馆-地貌厅,0.0,0,黄山山上,黄山,黄山 · 黄山山上,,,,博物馆&展馆,,否,https://dimg04.c-ctrip.com/images/fd/tg/g1/M06/FC/24/CghzflW7H_iATdynAAA-FlXAIeA738.jpg,https://you.ctrip.com/sight/huangshan120061/145256911.html?scene=onlinesearch,30.126125,118.199892
知识科普型,博物馆,145203994,黄山地质博物馆-展示厅,0.0,0,黄山山上,黄山,黄山 · 黄山山上,,,,博物馆&展馆,,否,https://dimg04.c-ctrip.com/images/fd/tg/g1/M06/FC/24/CghzflW7H_iATdynAAA-FlXAIeA738.jpg,https://you.ctrip.com/sight/huangshan120061/145203994.html?scene=onlinesearch,30.126125,118.199892
知识科普型,博物馆,143742929,中国根雕艺术博物馆,0.0,0,融创乐园/滨湖银泰城,合肥,合肥 · 融创乐园/滨湖银泰城,,,,"特色展馆, 博物馆&展馆",,否,https://dimg04.c-ctrip.com/images/fd/tg/g1/M06/FC/25/CghzflW7IA-AKV6TAABByEo2c7Y435.jpg,https://you.ctrip.com/sight/hefei196/143742929.html?scene=onlinesearch,31.709618,117.312833
知识科普型,博物馆,145450437,源泉博物馆,0.0,0,罍街/合肥南站,合肥,合肥 · 罍街/合肥南站,,,,博物馆&展馆,,否,https://dimg04.c-ctrip.com/images/fd/tg/g1/M06/FC/24/CghzflW7H_iATdynAAA-FlXAIeA738.jpg,https://you.ctrip.com/sight/hefei196/145450437.html?scene=onlinesearch,31.804169,117.251234
知识科普型,博物馆,145143318,中华龙文化博物馆,0.0,0,,长丰,长丰,,,,博物馆&展馆,,否,https://dimg04.c-ctrip.com/images/fd/tg/g1/M06/FC/24/CghzflW7H_iATdynAAA-FlXAIeA738.jpg,https://you.ctrip.com/sight/changfeng2599/145143318.html?scene=onlinesearch,32.009036,117.122411
知识科普型,博物馆,145215237,中华文明足迹博物馆,0.0,0,,长丰,长丰,,,,博物馆&展馆,,否,https://dimg04.c-ctrip.com/images/fd/tg/g1/M06/FC/24/CghzflW7H_iATdynAAA-FlXAIeA738.jpg,https://you.ctrip.com/sight/changfeng2599/145215237.html?scene=onlinesearch,32.008672,117.12316
知识科普型,博物馆,145204430,文房四宝博物馆,0.0,0,方特乐园/鸠兹古镇商圈,芜湖,芜湖 · 方特乐园/鸠兹古镇商圈,,,,博物馆&展馆,,否,https://dimg04.c-ctrip.com/images/fd/tg/g1/M06/FC/24/CghzflW7H_iATdynAAA-FlXAIeA738.jpg,https://you.ctrip.com/sight/wuhu457/145204430.html?scene=onlinesearch,31.378072,118.451453
知识科普型,博物馆,145565669,安徽马仁山地质公园博物馆,0.0,0,,芜湖,芜湖,,,,博物馆&展馆,,否,https://dimg04.c-ctrip.com/images/fd/tg/g1/M06/FC/24/CghzflW7H_iATdynAAA-FlXAIeA738.jpg,https://you.ctrip.com/sight/wuhu457/145565669.html?scene=onlinesearch,30.978404,118.174361
知识科普型,博物馆,145610603,鸠兹博物馆,0.0,0,方特乐园/鸠兹古镇商圈,芜湖,芜湖 · 方特乐园/鸠兹古镇商圈,,,,博物馆&展馆,,否,https://dimg04.c-ctrip.com/images/fd/tg/g1/M06/FC/24/CghzflW7H_iATdynAAA-FlXAIeA738.jpg,https://you.ctrip.com/sight/wuhu457/145610603.html?scene=onlinesearch,31.381282,118.451085
知识科普型,博物馆,149687687,八公山地质博物馆,0.0,0,,淮南,淮南,,,,博物馆&展馆,,否,https://dimg04.c-ctrip.com/images/fd/tg/g1/M06/FC/24/CghzflW7H_iATdynAAA-FlXAIeA738.jpg,https://you.ctrip.com/sight/huainan638/149687687.html?scene=onlinesearch,32.635238,116.810684
知识科普型,博物馆,145905727,安徽省地质博物馆-下沉广场,0.0,0,奥体中心/天鹅湖,合肥,合肥 · 奥体中心/天鹅湖,,,,,,否,https://dimg04.c-ctrip.com/images/0102u1200086k28vc0A5C.jpg,https://you.ctrip.com/sight/hefei196/145905727.html?scene=onlinesearch,31.809303,117.227793
知识科普型,博物馆,145473116,安徽博物院信息中心,0.0,0,奥体中心/天鹅湖,合肥,合肥 · 奥体中心/天鹅湖,,,,,,否,https://dimg04.c-ctrip.com/images/fd/tg/g1/M06/FC/24/CghzflW7H_iATdynAAA-FlXAIeA738.jpg,https://you.ctrip.com/sight/hefei196/145473116.html?scene=onlinesearch,31.809219,117.226628
知识科普型,博物馆,145358877,酒器博物馆,0.0,0,琅琊山度假区,滁州,滁州 · 琅琊山度假区,,,,博物馆&展馆,,否,https://dimg04.c-ctrip.com/images/fd/tg/g1/M06/FC/24/CghzflW7H_iATdynAAA-FlXAIeA738.jpg,https://you.ctrip.com/sight/chuzhou228/145358877.html?scene=onlinesearch,32.288991,118.293665
知识科普型,博物馆,145177203,池州茶文化博物馆,0.0,0,,池州,池州,,,,博物馆&展馆,,否,https://dimg04.c-ctrip.com/images/fd/tg/g1/M06/FC/24/CghzflW7H_iATdynAAA-FlXAIeA738.jpg,https://you.ctrip.com/sight/chizhou825/145177203.html?scene=onlinesearch,30.64917,117.477745
知识科普型,博物馆,145592671,亳州市民俗博物馆,0.0,0,,亳州,亳州,,,,博物馆&展馆,,否,https://dimg04.c-ctrip.com/images/fd/tg/g1/M06/FC/24/CghzflW7H_iATdynAAA-FlXAIeA738.jpg,https://you.ctrip.com/sight/bozhou404/145592671.html?scene=onlinesearch,33.89092,115.779946
知识科普型,博物馆,145629817,亳州市曲艺相声博物馆,0.0,0,,亳州,亳州,,,,博物馆&展馆,,否,https://dimg04.c-ctrip.com/images/fd/tg/g1/M06/FC/24/CghzflW7H_iATdynAAA-FlXAIeA738.jpg,https://you.ctrip.com/sight/bozhou404/145629817.html?scene=onlinesearch,33.890888,115.780453
知识科普型,博物馆,145259049,红太阳博物馆,0.0,0,方特乐园/鸠兹古镇商圈,芜湖,芜湖 · 方特乐园/鸠兹古镇商圈,,,,博物馆&展馆,,否,https://dimg04.c-ctrip.com/images/fd/tg/g1/M06/FC/24/CghzflW7H_iATdynAAA-FlXAIeA738.jpg,https://you.ctrip.com/sight/wuhu457/145259049.html?scene=onlinesearch,31.380749,118.451455
知识科普型,博物馆,145679199,安徽省博物馆-老干部活动室,0.0,0,淮河路步行街/三孝口,合肥,合肥 · 淮河路步行街/三孝口,,,,,,否,https://dimg04.c-ctrip.com/images/fd/tg/g1/M06/FC/24/CghzflW7H_iATdynAAA-FlXAIeA738.jpg,https://you.ctrip.com/sight/hefei196/145679199.html?scene=onlinesearch,31.870401,117.281023
知识科普型,博物馆,145472069,皖西博物馆-临展厅,0.0,0,六安火车站/市政务中心/南湖湿地公园,六安,六安 · 六安火车站/市政务中心/南湖湿地公园,,,,,,否,https://dimg04.c-ctrip.com/images/fd/tg/g1/M06/FC/24/CghzflW7H_iATdynAAA-FlXAIeA738.jpg,https://you.ctrip.com/sight/luan502/145472069.html?scene=onlinesearch,31.743827,116.530987
知识科普型,博物馆,150444573,黄山徽菜博物馆福禧厅,0.0,0,,黄山,黄山,,,,博物馆&展馆,,否,https://dimg04.c-ctrip.com/images/fd/tg/g1/M06/FC/24/CghzflW7H_iATdynAAA-FlXAIeA738.jpg,https://you.ctrip.com/sight/huangshan120061/150444573.html?scene=onlinesearch,29.72583,118.27816
知识科普型,博物馆,150292056,伦敦贝果博物馆,0.0,0,,芜湖,芜湖,,,,博物馆&展馆,,否,https://dimg04.c-ctrip.com/images/fd/tg/g1/M06/FC/24/CghzflW7H_iATdynAAA-FlXAIeA738.jpg,https://you.ctrip.com/sight/wuhu457/150292056.html?scene=onlinesearch,31.334845,118.372105
知识科普型,博物馆,136201117,天之红祁门红茶博物馆,0.0,0,,黄山,黄山,,,,,,否,https://dimg04.c-ctrip.com/images/fd/tg/g1/M06/FC/24/CghzflW7H_iATdynAAA-FlXAIeA738.jpg,https://you.ctrip.com/sight/huangshan120061/136201117.html?scene=onlinesearch,29.722116,118.281309
知识科普型,博物馆,149641418,祥悦林九华黄精博物馆,0.0,0,九华山下,青阳,青阳 · 九华山下,,,,博物馆&展馆,,否,https://dimg04.c-ctrip.com/images/fd/tg/g1/M06/FC/24/CghzflW7H_iATdynAAA-FlXAIeA738.jpg,https://you.ctrip.com/sight/qingyang2613/149641418.html?scene=onlinesearch,30.590831,117.7889
知识科普型,博物馆,145187470,徽州民间历史文化博物馆,0.0,0,徽州区/岩寺,黄山,黄山 · 徽州区/岩寺,,,,博物馆&展馆,,否,https://dimg04.c-ctrip.com/images/fd/tg/g1/M06/FC/24/CghzflW7H_iATdynAAA-FlXAIeA738.jpg,https://you.ctrip.com/sight/huangshan120061/145187470.html?scene=onlinesearch,29.826591,118.345483
知识科普型,博物馆,124906582,安徽省体育博物馆,0.0,0,合工大/包河万达,合肥,合肥 · 合工大/包河万达,,,,"博物馆, 博物馆&展馆",,否,https://dimg04.c-ctrip.com/images/fd/tg/g1/M08/AE/87/CghzfVW7IAOAbNKNAABCrs7mUrY425.jpg,https://you.ctrip.com/sight/hefei196/124906582.html?scene=onlinesearch,31.861823,117.304502
知识科普型,博物馆,145109744,皖南民俗博物馆,0.0,0,,宣城,宣城,,,,博物馆&展馆,,否,https://dimg04.c-ctrip.com/images/fd/tg/g1/M06/FC/24/CghzflW7H_iATdynAAA-FlXAIeA738.jpg,https://you.ctrip.com/sight/xuancheng504/145109744.html?scene=onlinesearch,30.791901,118.966204
知识科普型,博物馆,144211755,大救驾博物馆,0.0,0,,寿县,寿县,,,,博物馆&展馆,,否,https://dimg04.c-ctrip.com/images/fd/tg/g1/M06/FC/24/CghzflW7H_iATdynAAA-FlXAIeA738.jpg,https://you.ctrip.com/sight/shoucounty2628/144211755.html?scene=onlinesearch,32.577323,116.790525
知识科普型,博物馆,145580759,李鸿章当铺博物馆,0.0,0,,巢湖,巢湖,,,,博物馆&展馆,,否,https://dimg04.c-ctrip.com/images/fd/tg/g1/M06/FC/24/CghzflW7H_iATdynAAA-FlXAIeA738.jpg,https://you.ctrip.com/sight/chaohu187/145580759.html?scene=onlinesearch,31.687066,117.642853
知识科普型,博物馆,38450053,丫山民俗博物馆,0.0,0,,南陵,南陵,,,,"博物馆, 博物馆&展馆",,否,https://dimg04.c-ctrip.com/images/fd/tg/g1/M08/AE/87/CghzfVW7IAOAbNKNAABCrs7mUrY425.jpg,https://you.ctrip.com/sight/nanling1445976/2639714.html?scene=onlinesearch,30.815987,118.029778
知识科普型,博物馆,145185434,中国大学生攀岩博物馆,0.0,0,合肥经开区/翡翠湖大学城,合肥,合肥 · 合肥经开区/翡翠湖大学城,,,,博物馆&展馆,,否,https://dimg04.c-ctrip.com/images/fd/tg/g1/M06/FC/24/CghzflW7H_iATdynAAA-FlXAIeA738.jpg,https://you.ctrip.com/sight/hefei196/145185434.html?scene=onlinesearch,31.762516,117.18482
知识科普型,博物馆,145769018,皖南花鼓戏博物馆,0.0,0,宣城站/国购广场,宣城,宣城 · 宣城站/国购广场,,,,博物馆&展馆,,否,https://dimg04.c-ctrip.com/images/fd/tg/g1/M06/FC/24/CghzflW7H_iATdynAAA-FlXAIeA738.jpg,https://you.ctrip.com/sight/xuancheng504/145769018.html?scene=onlinesearch,30.95642,118.768929
知识科普型,博物馆,149964997,界首市彩陶博物馆,0.0,0,,界首,界首,,,,博物馆&展馆,,否,https://dimg04.c-ctrip.com/images/fd/tg/g1/M06/FC/24/CghzflW7H_iATdynAAA-FlXAIeA738.jpg,https://you.ctrip.com/sight/jieshou2612/149964997.html?scene=onlinesearch,33.213245,115.450305
知识科普型,博物馆,145589764,芜湖失恋博物馆(德盛总店),0.0,0,大学城/中央城/德盛广场,芜湖,芜湖 · 大学城/中央城/德盛广场,,,,博物馆&展馆,,否,https://dimg04.c-ctrip.com/images/fd/tg/g1/M06/FC/24/CghzflW7H_iATdynAAA-FlXAIeA738.jpg,https://you.ctrip.com/sight/wuhu457/145589764.html?scene=onlinesearch,31.290889,118.379269
知识科普型,博物馆,39683776,宣州区红太阳博物馆,0.0,0,,宣城,宣城,,,,"博物馆, 博物馆&展馆",,否,https://dimg04.c-ctrip.com/images/fd/tg/g1/M08/AE/87/CghzfVW7IAOAbNKNAABCrs7mUrY425.jpg,https://you.ctrip.com/sight/xuancheng504/3861637.html?scene=onlinesearch,30.921609,118.77986
知识科普型,博物馆,145512864,安徽省沉香博物馆,0.0,0,奥体中心/天鹅湖,合肥,合肥 · 奥体中心/天鹅湖,,,,博物馆&展馆,,否,https://dimg04.c-ctrip.com/images/fd/tg/g1/M06/FC/24/CghzflW7H_iATdynAAA-FlXAIeA738.jpg,https://you.ctrip.com/sight/hefei196/145512864.html?scene=onlinesearch,31.821534,117.250017
知识科普型,博物馆,148548206,怡久香老酒文化博物馆,0.0,0,,肥西,肥西,,,,博物馆&展馆,,否,https://dimg04.c-ctrip.com/images/fd/tg/g1/M06/FC/24/CghzflW7H_iATdynAAA-FlXAIeA738.jpg,https://you.ctrip.com/sight/feixi2619/148548206.html?scene=onlinesearch,31.599707,117.193441
知识科普型,博物馆,152844804,小博立方博物馆,0.0,0,融创乐园/滨湖银泰城,合肥,合肥 · 融创乐园/滨湖银泰城,,,,博物馆&展馆,,否,https://dimg04.c-ctrip.com/images/fd/tg/g1/M06/FC/24/CghzflW7H_iATdynAAA-FlXAIeA738.jpg,https://you.ctrip.com/sight/hefei196/152844804.html?scene=onlinesearch,31.728196,117.287033
知识科普型,博物馆,145709058,安徽省古陶瓷博物馆,0.0,0,合肥高新区/大蜀山公园,合肥,合肥 · 合肥高新区/大蜀山公园,,,,博物馆&展馆,,否,https://dimg04.c-ctrip.com/images/fd/tg/g1/M06/FC/24/CghzflW7H_iATdynAAA-FlXAIeA738.jpg,https://you.ctrip.com/sight/hefei196/145709058.html?scene=onlinesearch,31.840399,117.21809
知识科普型,博物馆,151323793,万物虫生活体昆虫博物馆(山水奥莱·星河COCO City六安店),0.0,0,六安火车站/市政务中心/南湖湿地公园,六安,六安 · 六安火车站/市政务中心/南湖湿地公园,,,,博物馆&展馆,,否,https://dimg04.c-ctrip.com/images/fd/tg/g1/M06/FC/24/CghzflW7H_iATdynAAA-FlXAIeA738.jpg,https://you.ctrip.com/sight/luan502/151323793.html?scene=onlinesearch,31.748467,116.535653
知识科普型,博物馆,145568527,福罗门茶文化民俗博物馆,0.0,0,合肥经开区/翡翠湖大学城,肥西,肥西 · 合肥经开区/翡翠湖大学城,,,,博物馆&展馆,,否,https://dimg04.c-ctrip.com/images/fd/tg/g1/M06/FC/24/CghzflW7H_iATdynAAA-FlXAIeA738.jpg,https://you.ctrip.com/sight/feixi2619/145568527.html?scene=onlinesearch,31.764847,117.210106
知识科普型,博物馆,149952063,合肥工业大学工程认知博物馆室外展区,0.0,0,合肥经开区/翡翠湖大学城,合肥,合肥 · 合肥经开区/翡翠湖大学城,,,,博物馆&展馆,,否,https://dimg04.c-ctrip.com/images/fd/tg/g1/M06/FC/24/CghzflW7H_iATdynAAA-FlXAIeA738.jpg,https://you.ctrip.com/sight/hefei196/149952063.html?scene=onlinesearch,31.777691,117.215577
知识科普型,博物馆,148785833,安徽省古陶瓷博物馆,0.0,0,淮河路步行街/三孝口,合肥,合肥 · 淮河路步行街/三孝口,,,,博物馆&展馆,,否,https://dimg04.c-ctrip.com/images/fd/tg/g1/M06/FC/24/CghzflW7H_iATdynAAA-FlXAIeA738.jpg,https://you.ctrip.com/sight/hefei196/148785833.html?scene=onlinesearch,31.866385,117.272881
知识科普型,博物馆,149954578,枞阳县博物馆,0.0,0,,枞阳,枞阳,,,,博物馆&展馆,,否,https://dimg04.c-ctrip.com/images/fd/tg/g1/M06/FC/24/CghzflW7H_iATdynAAA-FlXAIeA738.jpg,https://you.ctrip.com/sight/zongyang1445971/149954578.html?scene=onlinesearch,30.704596,117.272219
知识科普型,博物馆,149986500,颍上首届活体昆虫博物馆,0.0,0,,颍上,颍上,,,,博物馆&展馆,,否,https://dimg04.c-ctrip.com/images/fd/tg/g1/M06/FC/24/CghzflW7H_iATdynAAA-FlXAIeA738.jpg,https://you.ctrip.com/sight/yingshang2634/149986500.html?scene=onlinesearch,32.646094,116.230757
知识科普型,博物馆,149643287,安徽省文物考古研究所故宫博物院明中都考古工作站,0.0,0,,凤阳,凤阳,,,,,,否,https://dimg04.c-ctrip.com/images/fd/tg/g1/M06/FC/24/CghzflW7H_iATdynAAA-FlXAIeA738.jpg,https://you.ctrip.com/sight/fengyang2626/149643287.html?scene=onlinesearch,32.874926,117.555422
知识科普型,博物馆,145323996,合肥冯斌作文博物馆,0.0,0,淮河路步行街/三孝口,合肥,合肥 · 淮河路步行街/三孝口,,,,博物馆&展馆,,否,https://dimg04.c-ctrip.com/images/fd/tg/g1/M06/FC/24/CghzflW7H_iATdynAAA-FlXAIeA738.jpg,https://you.ctrip.com/sight/hefei196/145323996.html?scene=onlinesearch,31.889379,117.282446
知识科普型,博物馆,152806783,童六记非遗挂面贡鹅·肥东挂面博物馆,0.0,0,罍街/合肥南站,合肥,合肥 · 罍街/合肥南站,,,,博物馆&展馆,,否,https://dimg04.c-ctrip.com/images/fd/tg/g1/M06/FC/24/CghzflW7H_iATdynAAA-FlXAIeA738.jpg,https://you.ctrip.com/sight/hefei196/152806783.html?scene=onlinesearch,31.828873,117.299329
知识科普型,博物馆,152827417,博物馆文保中心,0.0,0,淮河路步行街/三孝口,合肥,合肥 · 淮河路步行街/三孝口,,,,博物馆&展馆,,否,https://dimg04.c-ctrip.com/images/fd/tg/g1/M06/FC/24/CghzflW7H_iATdynAAA-FlXAIeA738.jpg,https://you.ctrip.com/sight/hefei196/152827417.html?scene=onlinesearch,31.868843,117.281703
知识科普型,博物馆,145216973,安徽古法黄精博物馆,0.0,0,九华山下,青阳,青阳 · 九华山下,,,,博物馆&展馆,,否,https://dimg04.c-ctrip.com/images/fd/tg/g1/M06/FC/24/CghzflW7H_iATdynAAA-FlXAIeA738.jpg,https://you.ctrip.com/sight/qingyang2613/145216973.html?scene=onlinesearch,30.549273,117.878394
知识科普型,博物馆,145533746,绩溪县博物馆徽味绩溪展厅,0.0,0,,绩溪,绩溪,,,,博物馆&展馆,,否,https://dimg04.c-ctrip.com/images/fd/tg/g1/M06/FC/24/CghzflW7H_iATdynAAA-FlXAIeA738.jpg,https://you.ctrip.com/sight/jixi2627/145533746.html?scene=onlinesearch,30.077288,118.602248
知识科普型,博物馆,145571077,宿州市铜文化博物馆,0.0,0,,宿州,宿州,,,,博物馆&展馆,,否,https://dimg04.c-ctrip.com/images/fd/tg/g1/M06/FC/24/CghzflW7H_iATdynAAA-FlXAIeA738.jpg,https://you.ctrip.com/sight/suzhou672/145571077.html?scene=onlinesearch,33.641629,116.963159
知识科普型,博物馆,145699376,宣州石砚博物馆,0.0,0,,宣城,宣城,,,,博物馆&展馆,,否,https://dimg04.c-ctrip.com/images/fd/tg/g1/M06/FC/24/CghzflW7H_iATdynAAA-FlXAIeA738.jpg,https://you.ctrip.com/sight/xuancheng504/145699376.html?scene=onlinesearch,30.923712,118.785462
知识科普型,博物馆,148613343,旧时光农耕文化博物馆,0.0,0,,岳西,岳西,,,,博物馆&展馆,,否,https://dimg04.c-ctrip.com/images/fd/tg/g1/M06/FC/24/CghzflW7H_iATdynAAA-FlXAIeA738.jpg,https://you.ctrip.com/sight/yuexi1445972/148613343.html?scene=onlinesearch,30.751668,116.276814
知识科普型,博物馆,151337982,中国奇石博物馆,0.0,0,,灵璧,灵璧,,,,博物馆&展馆,,否,https://dimg04.c-ctrip.com/images/fd/tg/g1/M06/FC/24/CghzflW7H_iATdynAAA-FlXAIeA738.jpg,https://you.ctrip.com/sight/lingbi2593/151337982.html?scene=onlinesearch,33.844606,117.597427
知识科普型,博物馆,143733773,立德博物馆,0.0,0,,怀远,怀远,,,,"博物馆, 博物馆&展馆",,否,https://dimg04.c-ctrip.com/images/fd/tg/g1/M08/AE/87/CghzfVW7IAOAbNKNAABCrs7mUrY425.jpg,https://you.ctrip.com/sight/huaiyuan1445970/143733773.html?scene=onlinesearch,32.956206,117.184085
知识科普型,博物馆,143735370,黄山蜜蜂文化博物馆,0.0,0,徽州区/岩寺,黄山,黄山 · 徽州区/岩寺,,,,"博物馆, 博物馆&展馆",,否,https://dimg04.c-ctrip.com/images/fd/tg/g1/M08/AE/87/CghzfVW7IAOAbNKNAABCrs7mUrY425.jpg,https://you.ctrip.com/sight/huangshan120061/143735370.html?scene=onlinesearch,29.837449,118.330631
知识科普型,博物馆,145668756,太和县博物馆(老馆),0.0,0,,太和,太和,,,,博物馆&展馆,,否,https://dimg04.c-ctrip.com/images/fd/tg/g1/M06/FC/24/CghzflW7H_iATdynAAA-FlXAIeA738.jpg,https://you.ctrip.com/sight/taihe2601/145668756.html?scene=onlinesearch,33.16898,115.627953
知识科普型,博物馆,152880291,犁桥水镇展览馆(航运博物馆),0.0,0,,铜陵,铜陵,,,,博物馆&展馆,,否,https://dimg04.c-ctrip.com/images/fd/tg/g1/M06/FC/24/CghzflW7H_iATdynAAA-FlXAIeA738.jpg,https://you.ctrip.com/sight/tongling472/152880291.html?scene=onlinesearch,31.035574,117.899458
知识科普型,博物馆,52644431,大别山咸菜博物馆,0.0,0,悠然蓝溪度假区,六安,六安 · 悠然蓝溪度假区,,,,,,否,https://dimg04.c-ctrip.com/images/fd/tg/g2/M02/C5/09/Cghzf1W7IBCAU1soAAA1rXNRb5g042.jpg,https://you.ctrip.com/sight/luan502/21845523.html?scene=onlinesearch,31.7772,116.656075
知识科普型,博物馆,145253603,徽州税文化博物馆,0.0,0,黄山市区,黄山,黄山 · 黄山市区,,,,博物馆&展馆,,否,https://dimg04.c-ctrip.com/images/fd/tg/g1/M06/FC/24/CghzflW7H_iATdynAAA-FlXAIeA738.jpg,https://you.ctrip.com/sight/huangshan120061/145253603.html?scene=onlinesearch,29.725824,118.33631
知识科普型,博物馆,145385315,徽班博物馆,0.0,0,,怀宁,怀宁,,,,博物馆&展馆,,否,https://dimg04.c-ctrip.com/images/fd/tg/g1/M06/FC/24/CghzflW7H_iATdynAAA-FlXAIeA738.jpg,https://you.ctrip.com/sight/huaining1445974/145385315.html?scene=onlinesearch,30.414157,116.659273
知识科普型,博物馆,145404664,安徽太平竹藤博物馆,0.0,0,太平湖风景区,黄山,黄山 · 太平湖风景区,,,,博物馆&展馆,,否,https://dimg04.c-ctrip.com/images/fd/tg/g1/M06/FC/24/CghzflW7H_iATdynAAA-FlXAIeA738.jpg,https://you.ctrip.com/sight/huangshan120061/145404664.html?scene=onlinesearch,30.355339,118.037
知识科普型,博物馆,145409761,姜尚民俗博物馆,0.0,0,,临泉,临泉,,,,博物馆&展馆,,否,https://dimg04.c-ctrip.com/images/fd/tg/g1/M06/FC/24/CghzflW7H_iATdynAAA-FlXAIeA738.jpg,https://you.ctrip.com/sight/linquan2596/145409761.html?scene=onlinesearch,33.02103,115.337877
知识科普型,博物馆,145451582,大健康堂中医药文化博物馆,0.0,0,,亳州,亳州,,,,博物馆&展馆,,否,https://dimg04.c-ctrip.com/images/fd/tg/g1/M06/FC/24/CghzflW7H_iATdynAAA-FlXAIeA738.jpg,https://you.ctrip.com/sight/bozhou404/145451582.html?scene=onlinesearch,33.851597,115.795209
知识科普型,博物馆,145464818,徽班博物馆,0.0,0,,怀宁,怀宁,,,,博物馆&展馆,,否,https://dimg04.c-ctrip.com/images/fd/tg/g1/M06/FC/24/CghzflW7H_iATdynAAA-FlXAIeA738.jpg,https://you.ctrip.com/sight/huaining1445974/145464818.html?scene=onlinesearch,30.429391,116.642529
知识科普型,博物馆,145506812,芜湖市繁昌区玉华古陶瓷博物馆,0.0,0,,芜湖,芜湖,,,,博物馆&展馆,,否,https://dimg04.c-ctrip.com/images/fd/tg/g1/M06/FC/24/CghzflW7H_iATdynAAA-FlXAIeA738.jpg,https://you.ctrip.com/sight/wuhu457/145506812.html?scene=onlinesearch,31.065816,118.193894
知识科普型,博物馆,148623283,香囊博物馆,0.0,0,,亳州,亳州,,,,博物馆&展馆,,否,https://dimg04.c-ctrip.com/images/fd/tg/g1/M06/FC/24/CghzflW7H_iATdynAAA-FlXAIeA738.jpg,https://you.ctrip.com/sight/bozhou404/148623283.html?scene=onlinesearch,33.758906,115.671451
知识科普型,博物馆,151337943,花与虫昆虫博物馆(淮北分馆),0.0,0,,淮北,淮北,,,,博物馆&展馆,,否,https://dimg04.c-ctrip.com/images/fd/tg/g1/M06/FC/24/CghzflW7H_iATdynAAA-FlXAIeA738.jpg,https://you.ctrip.com/sight/huaibei657/151337943.html?scene=onlinesearch,33.990846,116.840837
知识科普型,博物馆,145217106,安庆失恋博物馆,0.0,0,东部新城,安庆,安庆 · 东部新城,,,,博物馆&展馆,,否,https://dimg04.c-ctrip.com/images/fd/tg/g1/M06/FC/24/CghzflW7H_iATdynAAA-FlXAIeA738.jpg,https://you.ctrip.com/sight/anqing179/145217106.html?scene=onlinesearch,30.528849,117.107573
知识科普型,博物馆,145439242,阜南县历史文化博物馆,0.0,0,,阜南,阜南,,,,博物馆&展馆,,否,https://dimg04.c-ctrip.com/images/fd/tg/g1/M06/FC/24/CghzflW7H_iATdynAAA-FlXAIeA738.jpg,https://you.ctrip.com/sight/funan1445973/145439242.html?scene=onlinesearch,32.662846,115.595684
知识科普型,博物馆,151266356,昆虫博物馆(阜阳宝龙广场店),0.0,0,,阜阳,阜阳,,,,,,否,https://dimg04.c-ctrip.com/images/fd/tg/g1/M06/FC/24/CghzflW7H_iATdynAAA-FlXAIeA738.jpg,https://you.ctrip.com/sight/fuyang361/151266356.html?scene=onlinesearch,32.878069,115.814655
知识科普型,博物馆,149549412,气球博物馆(阜阳店),0.0,0,,阜阳,阜阳,,,,博物馆&展馆,,否,https://dimg04.c-ctrip.com/images/fd/tg/g1/M06/FC/24/CghzflW7H_iATdynAAA-FlXAIeA738.jpg,https://you.ctrip.com/sight/fuyang361/149549412.html?scene=onlinesearch,32.92124,115.898995
知识科普型,博物馆,149553570,庐江博物馆,0.0,0,,庐江,庐江,,,,博物馆&展馆,,否,https://dimg04.c-ctrip.com/images/fd/tg/g1/M06/FC/24/CghzflW7H_iATdynAAA-FlXAIeA738.jpg,https://you.ctrip.com/sight/lujiang2602/149553570.html?scene=onlinesearch,31.282559,117.298316
知识科普型,博物馆,145578292,圆子博物馆,0.0,0,,长丰,长丰,,,,博物馆&展馆,,否,https://dimg04.c-ctrip.com/images/fd/tg/g1/M06/FC/24/CghzflW7H_iATdynAAA-FlXAIeA738.jpg,https://you.ctrip.com/sight/changfeng2599/145578292.html?scene=onlinesearch,32.349928,117.103456
知识科普型,博物馆,145410286,申都博物馆,0.0,0,,桐城,桐城,,,,博物馆&展馆,,否,https://dimg04.c-ctrip.com/images/fd/tg/g1/M06/FC/24/CghzflW7H_iATdynAAA-FlXAIeA738.jpg,https://you.ctrip.com/sight/tongcheng1847/145410286.html?scene=onlinesearch,31.039799,116.985811
知识科普型,博物馆,145117575,黄山市工匠博物馆,0.0,0,黄山市区,黄山,黄山 · 黄山市区,,,,博物馆&展馆,,否,https://dimg04.c-ctrip.com/images/fd/tg/g1/M06/FC/24/CghzflW7H_iATdynAAA-FlXAIeA738.jpg,https://you.ctrip.com/sight/huangshan120061/145117575.html?scene=onlinesearch,29.725321,118.342625
知识科普型,博物馆,145325400,美铭堂古陶瓷标本博物馆,0.0,0,,宣城,宣城,,,,博物馆&展馆,,否,https://dimg04.c-ctrip.com/images/fd/tg/g1/M06/FC/24/CghzflW7H_iATdynAAA-FlXAIeA738.jpg,https://you.ctrip.com/sight/xuancheng504/145325400.html?scene=onlinesearch,30.921724,118.780241
知识科普型,博物馆,145368020,禅通博物馆,0.0,0,,宣城,宣城,,,,博物馆&展馆,,否,https://dimg04.c-ctrip.com/images/fd/tg/g1/M06/FC/24/CghzflW7H_iATdynAAA-FlXAIeA738.jpg,https://you.ctrip.com/sight/xuancheng504/145368020.html?scene=onlinesearch,30.947766,118.57662
知识科普型,博物馆,145460598,铝电解电容器博物馆,0.0,0,,黄山,黄山,,,,博物馆&展馆,,否,https://dimg04.c-ctrip.com/images/fd/tg/g1/M06/FC/24/CghzflW7H_iATdynAAA-FlXAIeA738.jpg,https://you.ctrip.com/sight/huangshan120061/145460598.html?scene=onlinesearch,29.730172,118.246021
知识科普型,博物馆,145641518,潜口民宅博物馆-古戏台,0.0,0,唐模/棠樾牌坊群,黄山,黄山 · 唐模/棠樾牌坊群,,,,博物馆&展馆,,否,https://dimg04.c-ctrip.com/images/fd/tg/g1/M06/FC/24/CghzflW7H_iATdynAAA-FlXAIeA738.jpg,https://you.ctrip.com/sight/huangshan120061/145641518.html?scene=onlinesearch,29.873857,118.300986
知识科普型,博物馆,145667628,松山堂中医药文化博物馆,0.0,0,,亳州,亳州,,,,博物馆&展馆,,否,https://dimg04.c-ctrip.com/images/fd/tg/g1/M06/FC/24/CghzflW7H_iATdynAAA-FlXAIeA738.jpg,https://you.ctrip.com/sight/bozhou404/145667628.html?scene=onlinesearch,33.851599,115.795182
知识科普型,博物馆,145674776,阜南县颍淮柳编博物馆,0.0,0,,阜南,阜南,,,,博物馆&展馆,,否,https://dimg04.c-ctrip.com/images/fd/tg/g1/M06/FC/24/CghzflW7H_iATdynAAA-FlXAIeA738.jpg,https://you.ctrip.com/sight/funan1445973/145674776.html?scene=onlinesearch,32.664378,115.631685
知识科普型,博物馆,145696529,颠倒博物馆,0.0,0,,宿州,宿州,,,,博物馆&展馆,,否,https://dimg04.c-ctrip.com/images/fd/tg/g1/M06/FC/24/CghzflW7H_iATdynAAA-FlXAIeA738.jpg,https://you.ctrip.com/sight/suzhou672/145696529.html?scene=onlinesearch,33.63862,116.99371
知识科普型,博物馆,149969289,牯牛降观音堂景区-地质博物馆,0.0,0,,祁门,祁门,,,,博物馆&展馆,,否,https://dimg04.c-ctrip.com/images/fd/tg/g1/M06/FC/24/CghzflW7H_iATdynAAA-FlXAIeA738.jpg,https://you.ctrip.com/sight/qimen2610/149969289.html?scene=onlinesearch,30.019579,117.540841
知识科普型,博物馆,151255247,皖北民俗博物馆,0.0,0,,阜阳,阜阳,,,,,,否,https://dimg04.c-ctrip.com/images/fd/tg/g1/M06/FC/24/CghzflW7H_iATdynAAA-FlXAIeA738.jpg,https://you.ctrip.com/sight/fuyang361/151255247.html?scene=onlinesearch,32.84989,115.944832
知识科普型,博物馆,145312058,黄山市摄影博物馆,0.0,0,屯溪老街/黎阳老街,黄山,黄山 · 屯溪老街/黎阳老街,,,,博物馆&展馆,,否,https://dimg04.c-ctrip.com/images/fd/tg/g1/M06/FC/24/CghzflW7H_iATdynAAA-FlXAIeA738.jpg,https://you.ctrip.com/sight/huangshan120061/145312058.html?scene=onlinesearch,29.709874,118.313295
知识科普型,博物馆,145503775,华山文房博物馆,0.0,0,,宣城,宣城,,,,博物馆&展馆,,否,https://dimg04.c-ctrip.com/images/fd/tg/g1/M06/FC/24/CghzflW7H_iATdynAAA-FlXAIeA738.jpg,https://you.ctrip.com/sight/xuancheng504/145503775.html?scene=onlinesearch,30.817504,118.655181
知识科普型,博物馆,150417239,物罗万象文化探险(马鞍山博物馆店),0.0,0,,马鞍山,马鞍山,,,,博物馆&展馆,,否,https://dimg04.c-ctrip.com/images/fd/tg/g1/M06/FC/24/CghzflW7H_iATdynAAA-FlXAIeA738.jpg,https://you.ctrip.com/sight/maanshan503/150417239.html?scene=onlinesearch,31.670219,118.512224
知识科普型,博物馆,145831939,巢湖市博物馆-健身区,0.0,0,巢湖火车站地区,巢湖,巢湖 · 巢湖火车站地区,,,,,,否,https://dimg04.c-ctrip.com/images/0102u1200086k28vc0A5C.jpg,https://you.ctrip.com/sight/chaohu187/145831939.html?scene=onlinesearch,31.605726,117.901409
知识科普型,博物馆,150293856,霍山县博物馆学雷锋志愿服务站,0.0,0,,霍山,霍山,,,,,,否,https://dimg04.c-ctrip.com/images/fd/tg/g1/M06/FC/24/CghzflW7H_iATdynAAA-FlXAIeA738.jpg,https://you.ctrip.com/sight/huoshan2609/150293856.html?scene=onlinesearch,31.411652,116.336144
知识科普型,博物馆,150408766,霍山石斛露天博物馆,0.0,0,,霍山,霍山,,,,博物馆&展馆,,否,https://dimg04.c-ctrip.com/images/fd/tg/g1/M06/FC/24/CghzflW7H_iATdynAAA-FlXAIeA738.jpg,https://you.ctrip.com/sight/huoshan2609/150408766.html?scene=onlinesearch,31.395664,116.436905
知识科普型,博物馆,152912608,安徽玉石博物馆,0.0,0,,舒城,舒城,,,,,,否,https://dimg04.c-ctrip.com/images/fd/tg/g1/M06/FC/24/CghzflW7H_iATdynAAA-FlXAIeA738.jpg,https://you.ctrip.com/sight/shucheng2630/152912608.html?scene=onlinesearch,31.3106,116.781129
知识科普型,博物馆,152805046,新安中医药博物馆,0.0,0,,祁门,祁门,,,,博物馆&展馆,,否,https://dimg04.c-ctrip.com/images/fd/tg/g1/M06/FC/24/CghzflW7H_iATdynAAA-FlXAIeA738.jpg,https://you.ctrip.com/sight/qimen2610/152805046.html?scene=onlinesearch,29.916867,117.382293
知识科普型,博物馆,145532745,宿州失恋博物馆,0.0,0,,宿州,宿州,,,,博物馆&展馆,,否,https://dimg04.c-ctrip.com/images/fd/tg/g1/M06/FC/24/CghzflW7H_iATdynAAA-FlXAIeA738.jpg,https://you.ctrip.com/sight/suzhou672/145532745.html?scene=onlinesearch,33.63744,116.973275
知识科普型,博物馆,145589809,农事博物馆,0.0,0,,南陵,南陵,,,,博物馆&展馆,,否,https://dimg04.c-ctrip.com/images/fd/tg/g1/M06/FC/24/CghzflW7H_iATdynAAA-FlXAIeA738.jpg,https://you.ctrip.com/sight/nanling1445976/145589809.html?scene=onlinesearch,31.115559,118.422948
知识科普型,博物馆,145605556,中华寿文化博物馆,0.0,0,,滁州,滁州,,,,博物馆&展馆,,否,https://dimg04.c-ctrip.com/images/fd/tg/g1/M06/FC/24/CghzflW7H_iATdynAAA-FlXAIeA738.jpg,https://you.ctrip.com/sight/chuzhou228/145605556.html?scene=onlinesearch,32.33146,118.374216
知识科普型,博物馆,145624010,私人珍藏品博物馆,0.0,0,,当涂,当涂,,,,博物馆&展馆,,否,https://dimg04.c-ctrip.com/images/fd/tg/g1/M06/FC/24/CghzflW7H_iATdynAAA-FlXAIeA738.jpg,https://you.ctrip.com/sight/dangtu1445969/145624010.html?scene=onlinesearch,31.561145,118.505159
知识科普型,博物馆,145688523,西雅博物馆,0.0,0,,亳州,亳州,,,,博物馆&展馆,,否,https://dimg04.c-ctrip.com/images/fd/tg/g1/M06/FC/24/CghzflW7H_iATdynAAA-FlXAIeA738.jpg,https://you.ctrip.com/sight/bozhou404/145688523.html?scene=onlinesearch,33.885979,115.778609
知识科普型,博物馆,148683909,滁阳历史博物馆,0.0,0,,滁州,滁州,,,,博物馆&展馆,,否,https://dimg04.c-ctrip.com/images/fd/tg/g1/M06/FC/24/CghzflW7H_iATdynAAA-FlXAIeA738.jpg,https://you.ctrip.com/sight/chuzhou228/148683909.html?scene=onlinesearch,32.331481,118.374268
知识科普型,博物馆,148769475,江南第一茶市博物馆,0.0,0,,芜湖,芜湖,,,,博物馆&展馆,,否,https://dimg04.c-ctrip.com/images/fd/tg/g1/M06/FC/24/CghzflW7H_iATdynAAA-FlXAIeA738.jpg,https://you.ctrip.com/sight/wuhu457/148769475.html?scene=onlinesearch,31.175532,118.283795
知识科普型,博物馆,150135204,中建一局渔文化博物馆项目部,0.0,0,,芜湖,芜湖,,,,博物馆&展馆,,否,https://dimg04.c-ctrip.com/images/fd/tg/g1/M06/FC/24/CghzflW7H_iATdynAAA-FlXAIeA738.jpg,https://you.ctrip.com/sight/wuhu457/150135204.html?scene=onlinesearch,31.495958,118.383007
知识科普型,博物馆,150172382,黄山太平猴魁博物馆,0.0,0,,黄山,黄山,,,,博物馆&展馆,,否,https://dimg04.c-ctrip.com/images/fd/tg/g1/M06/FC/24/CghzflW7H_iATdynAAA-FlXAIeA738.jpg,https://you.ctrip.com/sight/huangshan120061/150172382.html?scene=onlinesearch,30.289096,118.122738
知识科普型,博物馆,150395049,九华青茶艺博物馆,0.0,0,九华山下,青阳,青阳 · 九华山下,,,,博物馆&展馆,,否,https://dimg04.c-ctrip.com/images/fd/tg/g1/M06/FC/24/CghzflW7H_iATdynAAA-FlXAIeA738.jpg,https://you.ctrip.com/sight/qingyang2613/150395049.html?scene=onlinesearch,30.557423,117.883189
知识科普型,博物馆,152841566,宝格丽音乐博物馆,0.0,0,,淮北,淮北,,,,博物馆&展馆,,否,https://dimg04.c-ctrip.com/images/fd/tg/g1/M06/FC/24/CghzflW7H_iATdynAAA-FlXAIeA738.jpg,https://you.ctrip.com/sight/huaibei657/152841566.html?scene=onlinesearch,33.968436,116.806864
知识科普型,博物馆,152841678,增辉藏石博物馆,0.0,0,,灵璧,灵璧,,,,博物馆&展馆,,否,https://dimg04.c-ctrip.com/images/fd/tg/g1/M06/FC/24/CghzflW7H_iATdynAAA-FlXAIeA738.jpg,https://you.ctrip.com/sight/lingbi2593/152841678.html?scene=onlinesearch,33.856158,117.60957
知识科普型,博物馆,149626043,时光博物馆(安庆方圆荟店),0.0,0,安庆市中心,安庆,安庆 · 安庆市中心,,,,博物馆&展馆,,否,https://dimg04.c-ctrip.com/images/fd/tg/g1/M06/FC/24/CghzflW7H_iATdynAAA-FlXAIeA738.jpg,https://you.ctrip.com/sight/anqing179/149626043.html?scene=onlinesearch,30.527958,117.056466
知识科普型,博物馆,149955147,鸠兹文创博物馆,0.0,0,步行街,芜湖,芜湖 · 步行街,,,,博物馆&展馆,,否,https://dimg04.c-ctrip.com/images/fd/tg/g1/M06/FC/24/CghzflW7H_iATdynAAA-FlXAIeA738.jpg,https://you.ctrip.com/sight/wuhu457/149955147.html?scene=onlinesearch,31.343018,118.363456
知识科普型,博物馆,152832396,阜阳市博物馆足球场,0.0,0,,阜阳,阜阳,,,,,,否,https://dimg04.c-ctrip.com/images/0102u1200086k28vc0A5C.jpg,https://you.ctrip.com/sight/fuyang361/152832396.html?scene=onlinesearch,32.866246,115.807082
知识科普型,博物馆,152835654,伦敦贝果博物馆,0.0,0,经济技术开发区,芜湖,芜湖 · 经济技术开发区,,,,博物馆&展馆,,否,https://dimg04.c-ctrip.com/images/fd/tg/g1/M06/FC/24/CghzflW7H_iATdynAAA-FlXAIeA738.jpg,https://you.ctrip.com/sight/wuhu457/152835654.html?scene=onlinesearch,31.365984,118.421368
知识科普型,博物馆,153138529,土菜博物馆,0.0,0,敬亭山景区及周边,宣城,宣城 · 敬亭山景区及周边,,,,,,否,https://dimg04.c-ctrip.com/images/fd/tg/g1/M06/FC/24/CghzflW7H_iATdynAAA-FlXAIeA738.jpg,https://you.ctrip.com/sight/xuancheng504/153138529.html?scene=onlinesearch,30.974589,118.747785
知识科普型,博物馆,150405742,下阳水利微博物馆,0.0,0,,广德,广德,,,,博物馆&展馆,,否,https://dimg04.c-ctrip.com/images/fd/tg/g1/M06/FC/24/CghzflW7H_iATdynAAA-FlXAIeA738.jpg,https://you.ctrip.com/sight/guangde2631/150405742.html?scene=onlinesearch,30.734576,119.333524
知识科普型,博物馆,152872607,徽茶博物馆,0.0,0,黄山汤口南大门,黄山,黄山 · 黄山汤口南大门,,,,博物馆&展馆,,否,https://dimg04.c-ctrip.com/images/fd/tg/g1/M06/FC/24/CghzflW7H_iATdynAAA-FlXAIeA738.jpg,https://you.ctrip.com/sight/huangshan120061/152872607.html?scene=onlinesearch,30.071506,118.181221
知识科普型,博物馆,152828561,伦敦贝果博物馆(滨江西路店),0.0,0,屯溪老街/黎阳老街,黄山,黄山 · 屯溪老街/黎阳老街,,,,博物馆&展馆,,否,https://dimg04.c-ctrip.com/images/fd/tg/g1/M06/FC/24/CghzflW7H_iATdynAAA-FlXAIeA738.jpg,https://you.ctrip.com/sight/huangshan120061/152828561.html?scene=onlinesearch,29.713522,118.313327
知识科普型,博物馆,71529464,失恋重生博物馆,0.0,0,淮南市区/商贸文化广场,淮南,淮南 · 淮南市区/商贸文化广场,,,,"特色展馆, 博物馆&展馆",,否,https://dimg04.c-ctrip.com/images/fd/tg/g1/M06/FC/25/CghzflW7IA-AKV6TAABByEo2c7Y435.jpg,https://you.ctrip.com/sight/huainan638/5634358.html?scene=onlinesearch,32.647209,117.021655
知识科普型,博物馆,61584654,合肥失恋博物馆(步行街店),4.0,15,淮河路步行街/三孝口,合肥,合肥 · 淮河路步行街/三孝口,,,,"特色展馆, 博物馆&展馆",,否,https://dimg04.c-ctrip.com/images/10081f000001gqi4t2E0E.jpg,https://you.ctrip.com/sight/hefei196/5382353.html?scene=onlinesearch,31.86934,117.304397
知识科普型,博物馆,79437036,淮北市钟源阁红色文化博物馆,5.0,1,,淮北,淮北,,,,博物馆&展馆,免费,是,https://dimg04.c-ctrip.com/images/0100x12000ax8bzfgE6D3.jpg,https://you.ctrip.com/sight/huaibei657/5703377.html?scene=onlinesearch,33.998353,116.703628
知识科普型,博物馆,145574746,口子酒文化博物馆,0.0,0,,淮北,淮北,,,,博物馆&展馆,,否,https://dimg04.c-ctrip.com/images/fd/tg/g1/M06/FC/24/CghzflW7H_iATdynAAA-FlXAIeA738.jpg,https://you.ctrip.com/sight/huaibei657/145574746.html?scene=onlinesearch,33.914904,116.805239
知识科普型,博物馆,148760567,和县博物馆(新馆),0.0,0,,和县,和县,,,,博物馆&展馆,,否,https://dimg04.c-ctrip.com/images/0HJ0a12000g2t8ua0110C.jpg,https://you.ctrip.com/sight/hecounty2598/148760567.html?scene=onlinesearch,31.751273,118.358817
知识科普型,博物馆,152803421,桐城玉雕博物馆,0.0,0,,桐城,桐城,,,,博物馆&展馆,,否,https://dimg04.c-ctrip.com/images/fd/tg/g1/M06/FC/24/CghzflW7H_iATdynAAA-FlXAIeA738.jpg,https://you.ctrip.com/sight/tongcheng1847/152803421.html?scene=onlinesearch,31.035369,116.975559
知识科普型,博物馆,152896578,六安市博物馆,0.0,0,六安市中心/万达广场/商之都,六安,六安 · 六安市中心/万达广场/商之都,,,,博物馆&展馆,,否,https://dimg04.c-ctrip.com/images/fd/tg/g1/M06/FC/24/CghzflW7H_iATdynAAA-FlXAIeA738.jpg,https://you.ctrip.com/sight/luan502/152896578.html?scene=onlinesearch,31.756636,116.490543
知识科普型,博物馆,51771867,傻子瓜籽博物馆,0.0,0,经济技术开发区,芜湖,芜湖 · 经济技术开发区,,,,"博物馆, 博物馆&展馆",,否,https://dimg04.c-ctrip.com/images/0105d12000c993i2i383E.webp,https://you.ctrip.com/sight/wuhu457/4606288.html?scene=onlinesearch,31.399999,118.382783
知识科普型,博物馆,79436991,黄山蕲蛇博物馆,0.0,0,屯溪老街/黎阳老街,黄山,黄山 · 屯溪老街/黎阳老街,,,,"博物馆, 博物馆&展馆",免费,是,https://dimg04.c-ctrip.com/images/0104l12000cdezdcp6192.jpg,https://you.ctrip.com/sight/huangshan120061/5703381.html?scene=onlinesearch,29.723503,118.311218
知识科普型,博物馆,143731749,古构件博物馆,0.0,0,黄山市区,黄山,黄山 · 黄山市区,,,,"博物馆, 博物馆&展馆",,否,https://dimg04.c-ctrip.com/images/0HJ4312000g32r4ca7611.jpg,https://you.ctrip.com/sight/huangshan120061/143731749.html?scene=onlinesearch,29.701053,118.334774
知识科普型,博物馆,145123639,灵璧博物馆,0.0,0,,灵璧,灵璧,,,,博物馆&展馆,,否,https://dimg04.c-ctrip.com/images/fd/tg/g1/M06/FC/24/CghzflW7H_iATdynAAA-FlXAIeA738.jpg,https://you.ctrip.com/sight/lingbi2593/145123639.html?scene=onlinesearch,33.53498,117.550712
知识科普型,博物馆,145435125,民间艺术博物馆,0.0,0,宏村景区内,黟县,黟县 · 宏村景区内,,,,博物馆&展馆,,否,https://dimg04.c-ctrip.com/images/fd/tg/g1/M06/FC/24/CghzflW7H_iATdynAAA-FlXAIeA738.jpg,https://you.ctrip.com/sight/yicounty528/145435125.html?scene=onlinesearch,30.008423,117.996844
知识科普型,博物馆,148593022,度世界精酿啤酒博物馆,0.0,0,1912街区/国防科大,合肥,合肥 · 1912街区/国防科大,,,,博物馆&展馆,,否,https://dimg04.c-ctrip.com/images/1me6c12000hhjhlkqECAD.jpg,https://you.ctrip.com/sight/hefei196/148593022.html?scene=onlinesearch,31.842445,117.226803
知识科普型,博物馆,148759826,安徽气象博物馆,0.0,0,方特乐园/鸠兹古镇商圈,芜湖,芜湖 · 方特乐园/鸠兹古镇商圈,,,,博物馆&展馆,,否,https://dimg04.c-ctrip.com/images/0HJ6b12000g6yyny4909F.jpg,https://you.ctrip.com/sight/wuhu457/148759826.html?scene=onlinesearch,31.374941,118.432952
知识科普型,博物馆,150383732,合肥活体昆虫博物馆,0.0,0,骆岗中央公园/滨湖会展中心,合肥,合肥 · 骆岗中央公园/滨湖会展中心,,,,博物馆&展馆,,否,https://dimg04.c-ctrip.com/images/fd/tg/g1/M06/FC/24/CghzflW7H_iATdynAAA-FlXAIeA738.jpg,https://you.ctrip.com/sight/hefei196/150383732.html?scene=onlinesearch,31.738273,117.310606
知识科普型,博物馆,152903385,忆江南民俗博物馆,0.0,0,,宁国,宁国,,,,博物馆&展馆,,否,https://dimg04.c-ctrip.com/images/fd/tg/g1/M06/FC/24/CghzflW7H_iATdynAAA-FlXAIeA738.jpg,https://you.ctrip.com/sight/ningguo1167/152903385.html?scene=onlinesearch,30.662779,118.968981
知识科普型,博物馆,18048930,徽州艺术珍宝博物馆,4.8,15,屯溪老街/黎阳老街,黄山,黄山 · 屯溪老街/黎阳老街,,,,"博物馆, 博物馆&展馆",,否,https://dimg04.c-ctrip.com/images/100e0q000000ge75h1E4A.jpg,https://you.ctrip.com/sight/huangshan120061/1487721.html?scene=onlinesearch,29.714067,118.315186
知识科普型,博物馆,79438403,安徽中医药高等专科学校中医药博物馆,0.0,0,大学城/中央城/德盛广场,芜湖,芜湖 · 大学城/中央城/德盛广场,,,,"博物馆, 博物馆&展馆",免费,是,https://dimg04.c-ctrip.com/images/fd/tg/g1/M08/AE/87/CghzfVW7IAOAbNKNAABCrs7mUrY425.jpg,https://you.ctrip.com/sight/wuhu457/5704753.html?scene=onlinesearch,31.307428,118.382583
知识科普型,博物馆,143275382,中国花鼓灯博物馆,0.0,0,蚌埠市中心,蚌埠,蚌埠 · 蚌埠市中心,,,,"博物馆, 博物馆&展馆",,否,https://dimg04.c-ctrip.com/images/fd/tg/g1/M08/AE/87/CghzfVW7IAOAbNKNAABCrs7mUrY425.jpg,https://you.ctrip.com/sight/bengbu205/143275382.html?scene=onlinesearch,32.947149,117.37285
知识科普型,博物馆,145133142,昆虫记·合肥昆虫博物馆,0.0,0,骆岗中央公园/滨湖会展中心,合肥,合肥 · 骆岗中央公园/滨湖会展中心,,,,,,否,https://dimg04.c-ctrip.com/images/fd/tg/g1/M06/FC/24/CghzflW7H_iATdynAAA-FlXAIeA738.jpg,https://you.ctrip.com/sight/hefei196/145133142.html?scene=onlinesearch,31.773471,117.32432
知识科普型,博物馆,145293097,太湖县博物馆,0.0,0,,太湖县,太湖县,,,,博物馆&展馆,,否,https://dimg04.c-ctrip.com/images/0HJ5h12000g6yqhg1F571.jpg,https://you.ctrip.com/sight/taihucounty1445968/145293097.html?scene=onlinesearch,30.448665,116.340273
知识科普型,博物馆,150197558,皖南民俗博物馆,0.0,0,,合肥,合肥,,,,博物馆&展馆,,否,https://dimg04.c-ctrip.com/images/1me6d12000lbng6wu3338.jpg,https://you.ctrip.com/sight/hefei196/150197558.html?scene=onlinesearch,31.877525,117.162045
知识科普型,博物馆,39593006,中国稻米博物馆,0.0,0,,庐江,庐江,,,,"博物馆, 博物馆&展馆",,否,https://dimg04.c-ctrip.com/images/0HJ5812000g6gvbi18DBA.jpg,https://you.ctrip.com/sight/lujiang2602/3771767.html?scene=onlinesearch,31.481168,117.270597
知识科普型,博物馆,51727649,淮南汉唐紫金石博物馆,0.0,0,,淮南,淮南,,,,"博物馆, 博物馆&展馆",,否,https://dimg04.c-ctrip.com/images/0103v12000cacpiap66AC.png,https://you.ctrip.com/sight/huainan638/4596405.html?scene=onlinesearch,32.6103,116.908
知识科普型,博物馆,111989588,合肥工业大学(翡翠湖校区)-工程认知博物馆,0.0,0,合肥经开区/翡翠湖大学城,合肥,合肥 · 合肥经开区/翡翠湖大学城,,,,"博物馆, 博物馆&展馆",,否,https://dimg04.c-ctrip.com/images/0HJ5f12000g6ugdegAC21.jpg,https://you.ctrip.com/sight/hefei196/111989588.html?scene=onlinesearch,31.78016,117.210792
知识科普型,博物馆,145229286,芜湖赭山铁画博物馆,0.0,0,火车站区域,芜湖,芜湖 · 火车站区域,,,,博物馆&展馆,,否,https://dimg04.c-ctrip.com/images/fd/tg/g1/M06/FC/24/CghzflW7H_iATdynAAA-FlXAIeA738.jpg,https://you.ctrip.com/sight/wuhu457/145229286.html?scene=onlinesearch,31.345592,118.38651
知识科普型,博物馆,145300415,阜阳市博物馆(新馆)-通史厅,0.0,0,,阜阳,阜阳,,,,博物馆&展馆,,否,https://dimg04.c-ctrip.com/images/1me1612000erwni1vFD8A.jpg,https://you.ctrip.com/sight/fuyang361/145300415.html?scene=onlinesearch,32.86437,115.807227
知识科普型,博物馆,145726326,程大位珠算博物馆,5.0,1,黄山市区,黄山,黄山 · 黄山市区,,,,博物馆&展馆,,否,https://dimg04.c-ctrip.com/images/0HJ5u12000g6stf59EF58.jpg,https://you.ctrip.com/sight/huangshan120061/145726326.html?scene=onlinesearch,29.717677,118.335201
知识科普型,博物馆,149966252,黄山汉实博物馆,0.0,0,黄山汤口南大门,黄山,黄山 · 黄山汤口南大门,,,,博物馆&展馆,,否,https://dimg04.c-ctrip.com/images/fd/tg/g1/M06/FC/24/CghzflW7H_iATdynAAA-FlXAIeA738.jpg,https://you.ctrip.com/sight/huangshan120061/149966252.html?scene=onlinesearch,30.091312,118.203641
知识科普型,博物馆,135462365,大墅龙山天造博物馆,0.0,0,,全椒,全椒,,,,"博物馆, 博物馆&展馆",,否,https://dimg04.c-ctrip.com/images/0100y12000a0peih58E36.jpg,https://you.ctrip.com/sight/quanjiao2617/135462365.html?scene=onlinesearch,32.028402,117.973952
知识科普型,博物馆,145411107,中国科学技术大学(东校区)-博物馆,0.0,0,之心城购物中心/中国科学技术大学,合肥,合肥 · 之心城购物中心/中国科学技术大学,,,,博物馆&展馆,,否,https://dimg04.c-ctrip.com/images/fd/tg/g1/M06/FC/24/CghzflW7H_iATdynAAA-FlXAIeA738.jpg,https://you.ctrip.com/sight/hefei196/145411107.html?scene=onlinesearch,31.842434,117.277188
知识科普型,博物馆,145471160,浮山地质博物馆,0.0,0,,枞阳,枞阳,,,,博物馆&展馆,,否,https://dimg04.c-ctrip.com/images/fd/tg/g1/M06/FC/24/CghzflW7H_iATdynAAA-FlXAIeA738.jpg,https://you.ctrip.com/sight/zongyang1445971/145471160.html?scene=onlinesearch,30.924675,117.283588
知识科普型,博物馆,145537865,六安市叶集区红色文化展览馆(六安市叶集区博物馆),0.0,0,,六安,六安,,,,博物馆&展馆,,否,https://dimg04.c-ctrip.com/images/0HJ6c12000g93a7vv6DD9.jpg,https://you.ctrip.com/sight/luan502/145537865.html?scene=onlinesearch,31.862932,115.945087
知识科普型,博物馆,136375134,黄山马会机车博物馆,0.0,0,黄山区北大门,黄山,黄山 · 黄山区北大门,,,,"博物馆, 博物馆&展馆",,否,https://dimg04.c-ctrip.com/images/0103612000bymlgyz4CBC.jpg,https://you.ctrip.com/sight/huangshan120061/136375134.html?scene=onlinesearch,30.295735,118.115352
知识科普型,博物馆,145296457,亼春茗黄山云雾茶博物馆,0.0,0,黄山汤口南大门,黄山,黄山 · 黄山汤口南大门,,,,博物馆&展馆,,否,https://dimg04.c-ctrip.com/images/fd/tg/g1/M06/FC/24/CghzflW7H_iATdynAAA-FlXAIeA738.jpg,https://you.ctrip.com/sight/huangshan120061/145296457.html?scene=onlinesearch,30.071767,118.181173
知识科普型,博物馆,38649724,老谢家茶黄山徽茶文化博物馆,4.0,4,徽州区/岩寺,黄山,黄山 · 徽州区/岩寺,,,,"博物馆, 博物馆&展馆",,否,https://dimg04.c-ctrip.com/images/01015120001grql798604.jpg,https://you.ctrip.com/sight/huangshan120061/2837385.html?scene=onlinesearch,29.842554,118.326385
知识科普型,博物馆,79436972,黄山区民俗非遗博物馆,0.0,0,黄山区北大门,黄山,黄山 · 黄山区北大门,,,,"博物馆, 博物馆&展馆",免费,是,https://dimg04.c-ctrip.com/images/0100x12000i1fmgns55DC.png,https://you.ctrip.com/sight/huangshan120061/5703339.html?scene=onlinesearch,30.263137,118.174509
知识科普型,博物馆,145108816,新安江山水画廊红妆博物馆,3.0,1,,歙县,歙县,,,,博物馆&展馆,,否,https://dimg04.c-ctrip.com/images/0HJ1m12000g6tl21rCF2F.jpg,https://you.ctrip.com/sight/shecounty527/145108816.html?scene=onlinesearch,29.829046,118.563448
知识科普型,博物馆,145800495,大别山玉石博物馆,0.0,0,,金寨,金寨,,,,博物馆&展馆,,否,https://dimg04.c-ctrip.com/images/fd/tg/g1/M06/FC/24/CghzflW7H_iATdynAAA-FlXAIeA738.jpg,https://you.ctrip.com/sight/jinzhai2623/145800495.html?scene=onlinesearch,31.722494,115.954505
知识科普型,博物馆,79438394,安徽省古陶瓷博物馆,4.7,6,奥体中心/天鹅湖,合肥,合肥 · 奥体中心/天鹅湖,,,,"博物馆, 博物馆&展馆",免费,是,https://dimg04.c-ctrip.com/images/0101a12000bys8xdw9D08.jpg,https://you.ctrip.com/sight/hefei196/5704734.html?scene=onlinesearch,31.821582,117.2502
知识科普型,博物馆,79437001,新安歙砚艺术博物馆,0.0,0,徽州古城/歙县,歙县,歙县 · 徽州古城/歙县,,,,"特色展馆, 博物馆&展馆",免费,是,https://dimg04.c-ctrip.com/images/0100c12000981ws9qF796.png,https://you.ctrip.com/sight/shecounty527/5703374.html?scene=onlinesearch,29.865769,118.428035
知识科普型,博物馆,51676407,灵璧石博物馆,0.0,0,,宿州,宿州,,,,"博物馆, 博物馆&展馆",,否,https://dimg04.c-ctrip.com/images/0103112000ccub8yvAA13.jpg,https://you.ctrip.com/sight/suzhou672/4586772.html?scene=onlinesearch,33.605041,116.998541
知识科普型,博物馆,79437023,歙县古城墨砚博物馆,0.0,0,,歙县,歙县,,,,"博物馆, 博物馆&展馆",免费,是,https://dimg04.c-ctrip.com/images/0HJ2r12000g6nlb557C8C.jpg,https://you.ctrip.com/sight/shecounty527/5703390.html?scene=onlinesearch,29.853635,118.389649
知识科普型,博物馆,145231310,梦乐帝巧克力博物馆,0.0,0,,舒城,舒城,,,,博物馆&展馆,,否,https://dimg04.c-ctrip.com/images/0HJ4p12000g38ks9eF8C7.jpg,https://you.ctrip.com/sight/shucheng2630/145231310.html?scene=onlinesearch,31.500612,117.11583
知识科普型,博物馆,10573898,万粹楼博物馆,4.6,61,屯溪老街/黎阳老街,黄山,黄山 · 屯溪老街/黎阳老街,,,徽文化主题博物馆,"博物馆, 博物馆&展馆",,否,https://dimg04.c-ctrip.com/images/01059120007zdho05EEB0.jpg,https://you.ctrip.com/sight/huangshan120061/1407591.html?scene=onlinesearch,29.714471,118.312733
知识科普型,博物馆,145600547,歙县渔梁坝博物馆,0.0,0,徽州古城/歙县,歙县,歙县 · 徽州古城/歙县,,,,博物馆&展馆,,否,https://dimg04.c-ctrip.com/images/0HJ0k12000g6iwdn7D7AB.jpg,https://you.ctrip.com/sight/shecounty527/145600547.html?scene=onlinesearch,29.863273,118.454608
知识科普型,博物馆,148730084,宁国市千年龙窑博物馆,0.0,0,,宁国,宁国,,,,博物馆&展馆,,否,https://dimg04.c-ctrip.com/images/0HJ6b12000g33fbib51EC.jpg,https://you.ctrip.com/sight/ningguo1167/148730084.html?scene=onlinesearch,30.724082,118.917396
知识科普型,博物馆,105418375,肥东博物馆,0.0,0,,肥东,肥东,,,,"博物馆, 博物馆&展馆",,否,https://dimg04.c-ctrip.com/images/0105q12000fq91tu77FAF.png,https://you.ctrip.com/sight/feidong2615/105418375.html?scene=onlinesearch,31.861182,117.493081
知识科普型,博物馆,145466889,马鞍山郑蒲港新区CORPUS人体博物馆,0.0,0,,和县,和县,,,,博物馆&展馆,,否,https://dimg04.c-ctrip.com/images/fd/tg/g1/M06/FC/24/CghzflW7H_iATdynAAA-FlXAIeA738.jpg,https://you.ctrip.com/sight/hecounty2598/145466889.html?scene=onlinesearch,31.615216,118.351379
知识科普型,博物馆,149964182,汤池田园客厅-中国稻米博物馆,0.0,0,,庐江,庐江,,,,博物馆&展馆,,否,https://dimg04.c-ctrip.com/images/0100p12000jvpjeqc1440.png,https://you.ctrip.com/sight/lujiang2602/149964182.html?scene=onlinesearch,31.339056,117.126557
知识科普型,博物馆,145708961,中国灵璧石天一园博物馆,0.0,0,,灵璧,灵璧,,,,"博物馆&展馆, 公园&植物园",,否,https://dimg04.c-ctrip.com/images/0100312000hmkcubw4D91.jpg,https://you.ctrip.com/sight/lingbi2593/145708961.html?scene=onlinesearch,33.855565,117.595732
知识科普型,博物馆,39625881,铜陵市国盛民俗博物馆,0.0,0,,铜陵,铜陵,,,,"博物馆, 博物馆&展馆",,否,https://dimg04.c-ctrip.com/images/fd/tg/g1/M08/AE/87/CghzfVW7IAOAbNKNAABCrs7mUrY425.jpg,https://you.ctrip.com/sight/tongling472/3804342.html?scene=onlinesearch,30.987948,117.819858
知识科普型,博物馆,52257718,安徽红色文化博物馆,0.0,4,,合肥,合肥,,,,博物馆&展馆,,否,https://dimg04.c-ctrip.com/images/0104c12000byrjluv4ECB.jpg,https://you.ctrip.com/sight/hefei196/4677264.html?scene=onlinesearch,31.79676,117.386554
知识科普型,博物馆,51832701,临泉毛笔博物馆,5.0,1,,临泉,临泉,,,,"博物馆, 博物馆&展馆",,否,https://dimg04.c-ctrip.com/images/0HJ0g12000g8zflorAAFF.jpg,https://you.ctrip.com/sight/linquan2596/4611599.html?scene=onlinesearch,32.973421,115.485088
知识科普型,博物馆,79436985,含山博物馆,4.5,2,,含山,含山,,,,"博物馆, 博物馆&展馆",免费,是,https://dimg04.c-ctrip.com/images/0103s12000b7q2fqnA9A0.jpg,https://you.ctrip.com/sight/hanshan2595/5703269.html?scene=onlinesearch,31.727614,118.096869
知识科普型,博物馆,79436961,定远县博物馆,4.5,2,,定远,定远,,,,"博物馆, 博物馆&展馆",免费,是,https://dimg04.c-ctrip.com/images/0103312000dbk47pf6A97.jpg,https://you.ctrip.com/sight/dingyuan2605/5703326.html?scene=onlinesearch,32.535653,117.677007
知识科普型,博物馆,79437033,万安罗经文化博物馆,0.0,0,,休宁,休宁,,,,"博物馆, 博物馆&展馆",免费,是,https://dimg04.c-ctrip.com/images/0105l12000ccawueb93EC.jpg,https://you.ctrip.com/sight/xiuning2625/5703366.html?scene=onlinesearch,29.795899,118.21775
知识科普型,博物馆,79436942,繁昌区博物馆,4.0,1,,芜湖,芜湖,,,,"博物馆, 博物馆&展馆",免费,是,https://dimg04.c-ctrip.com/images/0105q120009a4evb7A354.png,https://you.ctrip.com/sight/wuhu457/5703372.html?scene=onlinesearch,31.08201,118.198031
知识科普型,博物馆,51617284,灵璧石博物馆,5.0,1,,萧县,萧县,,,,"博物馆, 博物馆&展馆",,否,https://dimg04.c-ctrip.com/images/0103r12000c60wxcp92FC.jpg,https://you.ctrip.com/sight/xiaocounty2621/4582232.html?scene=onlinesearch,34.169899,116.967518
知识科普型,博物馆,79436997,砀山县博物馆,5.0,4,,砀山,砀山,,,,"博物馆, 博物馆&展馆",免费,是,https://dimg04.c-ctrip.com/images/0105t12000axj4u0b194D.jpg,https://you.ctrip.com/sight/dangshan1445967/5703370.html?scene=onlinesearch,34.444349,116.372299
知识科普型,博物馆,148627771,合肥市博物馆,5.0,1,瑶海政务中心/瑶海万达,合肥,合肥 · 瑶海政务中心/瑶海万达,,,,博物馆&展馆,,否,https://dimg04.c-ctrip.com/images/fd/tg/g1/M06/FC/24/CghzflW7H_iATdynAAA-FlXAIeA738.jpg,https://you.ctrip.com/sight/hefei196/148627771.html?scene=onlinesearch,31.835086,117.37252
知识科普型,博物馆,83301,三雕博物馆,4.3,28,,绩溪,绩溪,,,,"博物馆, 博物馆&展馆",免费,是,https://dimg04.c-ctrip.com/images/0100o12000b64c6i9A80A.jpg,https://you.ctrip.com/sight/jixi2627/50614.html?scene=onlinesearch,30.075942,118.600101
知识科普型,博物馆,144142450,寿县博物馆-寿县青少年宫,0.0,0,,寿县,寿县,,,,"科技馆, 博物馆&展馆",,否,https://dimg04.c-ctrip.com/images/0HJ3112000g8lyq4wD936.jpg,https://you.ctrip.com/sight/shoucounty2628/144142450.html?scene=onlinesearch,32.581891,116.787527
知识科普型,博物馆,51578335,中国石榴博物馆,0.0,0,,淮北,淮北,,,,"博物馆, 博物馆&展馆",免费,是,https://dimg04.c-ctrip.com/images/01043120009xxstpiC9AE.jpg,https://you.ctrip.com/sight/huaibei657/4574291.html?scene=onlinesearch,33.924258,116.99288
知识科普型,博物馆,79437015,新安国医博物馆,5.0,1,,歙县,歙县,,,,"博物馆, 博物馆&展馆",免费,是,https://dimg04.c-ctrip.com/images/0103t12000862h1oa2DBC.jpg,https://you.ctrip.com/sight/shecounty527/5703375.html?scene=onlinesearch,29.885262,118.636707
知识科普型,博物馆,143744498,蒙城县博物馆城市规划展示馆导览图,0.0,0,,蒙城,蒙城,,,,,,否,https://dimg04.c-ctrip.com/images/fd/tg/g1/M08/AE/87/CghzfVW7IAOAbNKNAABCrs7mUrY425.jpg,https://you.ctrip.com/sight/mengcheng1872/143744498.html?scene=onlinesearch,33.239528,116.57565
知识科普型,博物馆,144143220,红色博物馆,0.0,0,,淮北,淮北,,,,博物馆&展馆,,否,https://dimg04.c-ctrip.com/images/fd/tg/g1/M06/FC/24/CghzflW7H_iATdynAAA-FlXAIeA738.jpg,https://you.ctrip.com/sight/huaibei657/144143220.html?scene=onlinesearch,33.968641,116.803288
知识科普型,博物馆,145121858,丽达制衣公司校服博物馆,0.0,0,,舒城,舒城,,,,博物馆&展馆,,否,https://dimg04.c-ctrip.com/images/fd/tg/g1/M06/FC/24/CghzflW7H_iATdynAAA-FlXAIeA738.jpg,https://you.ctrip.com/sight/shucheng2630/145121858.html?scene=onlinesearch,31.493601,116.952446
知识科普型,博物馆,145122379,农耕文化博物馆,0.0,0,,蒙城,蒙城,,,,博物馆&展馆,,否,https://dimg04.c-ctrip.com/images/fd/tg/g1/M06/FC/24/CghzflW7H_iATdynAAA-FlXAIeA738.jpg,https://you.ctrip.com/sight/mengcheng1872/145122379.html?scene=onlinesearch,33.375138,116.500558
知识科普型,博物馆,145132381,小李家红色博物馆,0.0,0,,濉溪,濉溪,,,,博物馆&展馆,,否,https://dimg04.c-ctrip.com/images/fd/tg/g1/M06/FC/24/CghzflW7H_iATdynAAA-FlXAIeA738.jpg,https://you.ctrip.com/sight/suixi2594/145132381.html?scene=onlinesearch,33.686926,116.650324
知识科普型,博物馆,145132471,凤阳失恋博物馆,0.0,0,,凤阳,凤阳,,,,博物馆&展馆,,否,https://dimg04.c-ctrip.com/images/fd/tg/g1/M06/FC/24/CghzflW7H_iATdynAAA-FlXAIeA738.jpg,https://you.ctrip.com/sight/fengyang2626/145132471.html?scene=onlinesearch,32.870698,117.577055
知识科普型,博物馆,145152626,涡阳县义门镇赵屯民俗农耕文化博物馆,0.0,0,,涡阳,涡阳,,,,博物馆&展馆,,否,https://dimg04.c-ctrip.com/images/fd/tg/g1/M06/FC/24/CghzflW7H_iATdynAAA-FlXAIeA738.jpg,https://you.ctrip.com/sight/guoyang2635/145152626.html?scene=onlinesearch,33.598029,116.115187
知识科普型,博物馆,145166559,夏夏爸爸美育博物馆,0.0,0,,肥西,肥西,,,,博物馆&展馆,,否,https://dimg04.c-ctrip.com/images/0HJ0o12000g60hgp7200C.jpg,https://you.ctrip.com/sight/feixi2619/145166559.html?scene=onlinesearch,31.801654,117.208878
知识科普型,博物馆,145205391,钟馗酒文化博物馆,0.0,0,,灵璧,灵璧,,,,博物馆&展馆,,否,https://dimg04.c-ctrip.com/images/fd/tg/g1/M06/FC/24/CghzflW7H_iATdynAAA-FlXAIeA738.jpg,https://you.ctrip.com/sight/lingbi2593/145205391.html?scene=onlinesearch,33.527431,117.581096
知识科普型,博物馆,145212658,时光博物馆(方圆荟百太星马国际购物中心店),0.0,0,,太和,太和,,,,博物馆&展馆,,否,https://dimg04.c-ctrip.com/images/fd/tg/g1/M06/FC/24/CghzflW7H_iATdynAAA-FlXAIeA738.jpg,https://you.ctrip.com/sight/taihe2601/145212658.html?scene=onlinesearch,33.182697,115.61595
知识科普型,博物馆,145215149,中国灵芝博物馆,0.0,0,合肥高新区/大蜀山公园,合肥,合肥 · 合肥高新区/大蜀山公园,,,,博物馆&展馆,,否,https://dimg04.c-ctrip.com/images/fd/tg/g1/M06/FC/24/CghzflW7H_iATdynAAA-FlXAIeA738.jpg,https://you.ctrip.com/sight/hefei196/145215149.html?scene=onlinesearch,31.872312,117.14851
知识科普型,博物馆,145242487,肖楼村民俗博物馆,0.0,0,,界首,界首,,,,博物馆&展馆,,否,https://dimg04.c-ctrip.com/images/fd/tg/g1/M06/FC/24/CghzflW7H_iATdynAAA-FlXAIeA738.jpg,https://you.ctrip.com/sight/jieshou2612/145242487.html?scene=onlinesearch,33.297094,115.427753
知识科普型,博物馆,145243587,泗县失恋博物馆,0.0,0,,泗县,泗县,,,,博物馆&展馆,,否,https://dimg04.c-ctrip.com/images/fd/tg/g1/M06/FC/24/CghzflW7H_iATdynAAA-FlXAIeA738.jpg,https://you.ctrip.com/sight/sicounty2633/145243587.html?scene=onlinesearch,33.483834,117.906115
知识科普型,博物馆,145261457,刘耋龄博物馆,0.0,0,,庐江,庐江,,,,博物馆&展馆,,否,https://dimg04.c-ctrip.com/images/fd/tg/g1/M06/FC/24/CghzflW7H_iATdynAAA-FlXAIeA738.jpg,https://you.ctrip.com/sight/lujiang2602/145261457.html?scene=onlinesearch,31.248438,117.284777
知识科普型,博物馆,145278339,濉溪酿酒遗址博物馆,0.0,0,,濉溪,濉溪,,,,博物馆&展馆,,否,https://dimg04.c-ctrip.com/images/fd/tg/g1/M06/FC/24/CghzflW7H_iATdynAAA-FlXAIeA738.jpg,https://you.ctrip.com/sight/suixi2594/145278339.html?scene=onlinesearch,33.921695,116.787364
知识科普型,博物馆,145286423,升金湖红色博物馆,0.0,0,,东至,东至,,,,博物馆&展馆,,否,https://dimg04.c-ctrip.com/images/fd/tg/g1/M06/FC/24/CghzflW7H_iATdynAAA-FlXAIeA738.jpg,https://you.ctrip.com/sight/dongzhi2608/145286423.html?scene=onlinesearch,30.330527,117.054779
知识科普型,博物馆,145296680,博物馆展厅,0.0,0,,亳州,亳州,,,,,,否,https://dimg04.c-ctrip.com/images/fd/tg/g1/M06/FC/24/CghzflW7H_iATdynAAA-FlXAIeA738.jpg,https://you.ctrip.com/sight/bozhou404/145296680.html?scene=onlinesearch,33.996618,115.671362
知识科普型,博物馆,145321832,先报刊博物馆,0.0,0,,长丰,长丰,,,,博物馆&展馆,,否,https://dimg04.c-ctrip.com/images/fd/tg/g1/M06/FC/24/CghzflW7H_iATdynAAA-FlXAIeA738.jpg,https://you.ctrip.com/sight/changfeng2599/145321832.html?scene=onlinesearch,32.011072,117.121788
知识科普型,博物馆,145357366,中国·砀山梨博物馆,0.0,0,,砀山,砀山,,,,博物馆&展馆,,否,https://dimg04.c-ctrip.com/images/fd/tg/g1/M06/FC/24/CghzflW7H_iATdynAAA-FlXAIeA738.jpg,https://you.ctrip.com/sight/dangshan1445967/145357366.html?scene=onlinesearch,34.430476,116.540612
知识科普型,博物馆,145361296,传统玩具博物馆,0.0,0,中庙滨湖城,肥东,肥东 · 中庙滨湖城,,,,博物馆&展馆,,否,https://dimg04.c-ctrip.com/images/fd/tg/g1/M06/FC/24/CghzflW7H_iATdynAAA-FlXAIeA738.jpg,https://you.ctrip.com/sight/feidong2615/145361296.html?scene=onlinesearch,31.657648,117.480565
知识科普型,博物馆,145371006,蜀山·南岗自行车博物馆,0.0,0,,合肥,合肥,,,,博物馆&展馆,,否,https://dimg04.c-ctrip.com/images/fd/tg/g1/M06/FC/24/CghzflW7H_iATdynAAA-FlXAIeA738.jpg,https://you.ctrip.com/sight/hefei196/145371006.html?scene=onlinesearch,31.879935,117.125274
知识科普型,博物馆,145371035,安徽华藏文化博物馆,0.0,0,,合肥,合肥,,,,博物馆&展馆,,否,https://dimg04.c-ctrip.com/images/fd/tg/g1/M06/FC/24/CghzflW7H_iATdynAAA-FlXAIeA738.jpg,https://you.ctrip.com/sight/hefei196/145371035.html?scene=onlinesearch,31.863874,117.076245
知识科普型,博物馆,145383239,百年邮政(聚贤邮政博物馆),0.0,0,,肥东,肥东,,,,博物馆&展馆,,否,https://dimg04.c-ctrip.com/images/1me6q12000h4e6nnw7E0E.jpg,https://you.ctrip.com/sight/feidong2615/145383239.html?scene=onlinesearch,31.694952,117.469128
知识科普型,博物馆,145398864,霍邱县红色文化博物馆,0.0,0,,霍邱,霍邱,,,,博物馆&展馆,,否,https://dimg04.c-ctrip.com/images/fd/tg/g1/M06/FC/24/CghzflW7H_iATdynAAA-FlXAIeA738.jpg,https://you.ctrip.com/sight/huoqiu2606/145398864.html?scene=onlinesearch,32.472302,116.29993
知识科普型,博物馆,145410089,中国(临泉)生肖博物馆,0.0,0,,临泉,临泉,,,,博物馆&展馆,,否,https://dimg04.c-ctrip.com/images/fd/tg/g1/M06/FC/24/CghzflW7H_iATdynAAA-FlXAIeA738.jpg,https://you.ctrip.com/sight/linquan2596/145410089.html?scene=onlinesearch,32.943999,115.300045
知识科普型,博物馆,145425347,石台茶文化博物馆,0.0,0,,石台,石台,,,,博物馆&展馆,,否,https://dimg04.c-ctrip.com/images/fd/tg/g1/M06/FC/24/CghzflW7H_iATdynAAA-FlXAIeA738.jpg,https://you.ctrip.com/sight/shitai2624/145425347.html?scene=onlinesearch,30.193773,117.519111
知识科普型,博物馆,145430253,赵庙民俗博物馆,0.0,0,,太和,太和,,,,博物馆&展馆,,否,https://dimg04.c-ctrip.com/images/fd/tg/g1/M06/FC/24/CghzflW7H_iATdynAAA-FlXAIeA738.jpg,https://you.ctrip.com/sight/taihe2601/145430253.html?scene=onlinesearch,33.410105,115.533608
知识科普型,博物馆,145430860,肥西县高店乡江淮民俗博物馆,0.0,0,,肥西,肥西,,,,博物馆&展馆,,否,https://dimg04.c-ctrip.com/images/fd/tg/g1/M06/FC/24/CghzflW7H_iATdynAAA-FlXAIeA738.jpg,https://you.ctrip.com/sight/feixi2619/145430860.html?scene=onlinesearch,31.890465,116.913988
知识科普型,博物馆,145430871,中国蜀山马拉松文化博物馆,0.0,0,,合肥,合肥,,,,博物馆&展馆,,否,https://dimg04.c-ctrip.com/images/0HJ1k12000g6jkvewBB60.jpg,https://you.ctrip.com/sight/hefei196/145430871.html?scene=onlinesearch,31.913572,117.055696
知识科普型,博物馆,145448777,霍邱县博物馆,0.0,0,,霍邱,霍邱,,,,博物馆&展馆,,否,https://dimg04.c-ctrip.com/images/fd/tg/g1/M06/FC/24/CghzflW7H_iATdynAAA-FlXAIeA738.jpg,https://you.ctrip.com/sight/huoqiu2606/145448777.html?scene=onlinesearch,32.368328,116.307021
知识科普型,博物馆,145489995,传奇壹具博物馆,0.0,0,,太和,太和,,,,博物馆&展馆,,否,https://dimg04.c-ctrip.com/images/fd/tg/g1/M06/FC/24/CghzflW7H_iATdynAAA-FlXAIeA738.jpg,https://you.ctrip.com/sight/taihe2601/145489995.html?scene=onlinesearch,33.155745,115.626903
知识科普型,博物馆,145500199,合肥菜博物馆,0.0,0,,肥东,肥东,,,,博物馆&展馆,,否,https://dimg04.c-ctrip.com/images/fd/tg/g1/M06/FC/24/CghzflW7H_iATdynAAA-FlXAIeA738.jpg,https://you.ctrip.com/sight/feidong2615/145500199.html?scene=onlinesearch,31.828635,117.464688
知识科普型,博物馆,145527951,元亨中兽医博物馆,0.0,0,六安市中心/万达广场/商之都,六安,六安 · 六安市中心/万达广场/商之都,,,,博物馆&展馆,,否,https://dimg04.c-ctrip.com/images/fd/tg/g1/M06/FC/24/CghzflW7H_iATdynAAA-FlXAIeA738.jpg,https://you.ctrip.com/sight/luan502/145527951.html?scene=onlinesearch,31.762844,116.519704
知识科普型,博物馆,145543325,梅里生态米业稻米文化博物馆,0.0,0,,池州,池州,,,,博物馆&展馆,,否,https://dimg04.c-ctrip.com/images/fd/tg/g1/M06/FC/24/CghzflW7H_iATdynAAA-FlXAIeA738.jpg,https://you.ctrip.com/sight/chizhou825/145543325.html?scene=onlinesearch,30.65836,117.442945
知识科普型,博物馆,145546680,和县蔬菜博物馆,0.0,0,,和县,和县,,,,博物馆&展馆,,否,https://dimg04.c-ctrip.com/images/fd/tg/g1/M06/FC/24/CghzflW7H_iATdynAAA-FlXAIeA738.jpg,https://you.ctrip.com/sight/hecounty2598/145546680.html?scene=onlinesearch,31.761363,118.409682
知识科普型,博物馆,145556589,霍山石斛文化博物馆,0.0,0,,霍山,霍山,,,,博物馆&展馆,,否,https://dimg04.c-ctrip.com/images/fd/tg/g1/M06/FC/24/CghzflW7H_iATdynAAA-FlXAIeA738.jpg,https://you.ctrip.com/sight/huoshan2609/145556589.html?scene=onlinesearch,31.090815,115.975332
知识科普型,博物馆,145576753,淮河农耕文化博物馆,0.0,0,,霍邱,霍邱,,,,博物馆&展馆,,否,https://dimg04.c-ctrip.com/images/fd/tg/g1/M06/FC/24/CghzflW7H_iATdynAAA-FlXAIeA738.jpg,https://you.ctrip.com/sight/huoqiu2606/145576753.html?scene=onlinesearch,32.447682,116.332073
知识科普型,博物馆,145588509,徽州豆腐博物馆,0.0,0,,休宁,休宁,,,,博物馆&展馆,,否,https://dimg04.c-ctrip.com/images/fd/tg/g1/M06/FC/24/CghzflW7H_iATdynAAA-FlXAIeA738.jpg,https://you.ctrip.com/sight/xiuning2625/145588509.html?scene=onlinesearch,29.637844,118.193682
知识科普型,博物馆,145596293,三槐堂民俗博物馆,0.0,0,,霍邱,霍邱,,,,博物馆&展馆,,否,https://dimg04.c-ctrip.com/images/fd/tg/g1/M06/FC/24/CghzflW7H_iATdynAAA-FlXAIeA738.jpg,https://you.ctrip.com/sight/huoqiu2606/145596293.html?scene=onlinesearch,32.39973,116.358633
知识科普型,博物馆,145619586,囍拾荟恋爱博物馆,0.0,0,六安市中心/万达广场/商之都,六安,六安 · 六安市中心/万达广场/商之都,,,,博物馆&展馆,,否,https://dimg04.c-ctrip.com/images/fd/tg/g1/M06/FC/24/CghzflW7H_iATdynAAA-FlXAIeA738.jpg,https://you.ctrip.com/sight/luan502/145619586.html?scene=onlinesearch,31.760758,116.472834
知识科普型,博物馆,145627620,江南农具博物馆,0.0,0,,东至,东至,,,,博物馆&展馆,,否,https://dimg04.c-ctrip.com/images/fd/tg/g1/M06/FC/24/CghzflW7H_iATdynAAA-FlXAIeA738.jpg,https://you.ctrip.com/sight/dongzhi2608/145627620.html?scene=onlinesearch,29.776435,117.076376
知识科普型,博物馆,145684499,国彬酒文化收藏博物馆,0.0,0,,临泉,临泉,,,,博物馆&展馆,,否,https://dimg04.c-ctrip.com/images/fd/tg/g1/M06/FC/24/CghzflW7H_iATdynAAA-FlXAIeA738.jpg,https://you.ctrip.com/sight/linquan2596/145684499.html?scene=onlinesearch,32.790972,115.490586
知识科普型,博物馆,145686065,定远石雕艺术博物馆,0.0,0,,定远,定远,,,,博物馆&展馆,,否,https://dimg04.c-ctrip.com/images/fd/tg/g1/M06/FC/24/CghzflW7H_iATdynAAA-FlXAIeA738.jpg,https://you.ctrip.com/sight/dingyuan2605/145686065.html?scene=onlinesearch,32.533601,117.712651
知识科普型,博物馆,145695741,国际仁爱博物馆,0.0,0,,蚌埠,蚌埠,,,,博物馆&展馆,,否,https://dimg04.c-ctrip.com/images/fd/tg/g1/M06/FC/24/CghzflW7H_iATdynAAA-FlXAIeA738.jpg,https://you.ctrip.com/sight/bengbu205/145695741.html?scene=onlinesearch,32.989042,117.393635
知识科普型,博物馆,145720161,固镇县博物馆,0.0,0,,固镇,固镇,,,,博物馆&展馆,,否,https://dimg04.c-ctrip.com/images/fd/tg/g1/M06/FC/24/CghzflW7H_iATdynAAA-FlXAIeA738.jpg,https://you.ctrip.com/sight/guzhen2592/145720161.html?scene=onlinesearch,33.295419,117.327429
知识科普型,博物馆,148538940,涡阳县老子博物馆-东展厅,0.0,0,,涡阳,涡阳,,,,博物馆&展馆,,否,https://dimg04.c-ctrip.com/images/fd/tg/g1/M06/FC/24/CghzflW7H_iATdynAAA-FlXAIeA738.jpg,https://you.ctrip.com/sight/guoyang2635/148538940.html?scene=onlinesearch,33.553729,116.198424
知识科普型,博物馆,148551550,探索牛牛·亲子户外剧本闯关(安徽博物院店),0.0,0,奥体中心/天鹅湖,合肥,合肥 · 奥体中心/天鹅湖,,,,,,否,https://dimg04.c-ctrip.com/images/0102u1200086k28vc0A5C.jpg,https://you.ctrip.com/sight/hefei196/148551550.html?scene=onlinesearch,31.806166,117.227638
知识科普型,博物馆,148564188,溪头镇蓝田农耕博物馆,0.0,0,,歙县,歙县,,,,博物馆&展馆,,否,https://dimg04.c-ctrip.com/images/fd/tg/g1/M06/FC/24/CghzflW7H_iATdynAAA-FlXAIeA738.jpg,https://you.ctrip.com/sight/shecounty527/148564188.html?scene=onlinesearch,30.004801,118.473045
知识科普型,博物馆,148593545,沧溪时光博物馆,0.0,0,太平湖风景区,黄山,黄山 · 太平湖风景区,,,,博物馆&展馆,,否,https://dimg04.c-ctrip.com/images/fd/tg/g1/M06/FC/24/CghzflW7H_iATdynAAA-FlXAIeA738.jpg,https://you.ctrip.com/sight/huangshan120061/148593545.html?scene=onlinesearch,30.45116,118.106284
知识科普型,博物馆,148614608,大庄葡萄博物馆,0.0,0,,淮北,淮北,,,,博物馆&展馆,,否,https://dimg04.c-ctrip.com/images/fd/tg/g1/M06/FC/24/CghzflW7H_iATdynAAA-FlXAIeA738.jpg,https://you.ctrip.com/sight/huaibei657/148614608.html?scene=onlinesearch,34.171976,117.022535
知识科普型,博物馆,148622485,岭脚村老竹大方博物馆,0.0,0,,歙县,歙县,,,,博物馆&展馆,,否,https://dimg04.c-ctrip.com/images/fd/tg/g1/M06/FC/24/CghzflW7H_iATdynAAA-FlXAIeA738.jpg,https://you.ctrip.com/sight/shecounty527/148622485.html?scene=onlinesearch,30.039144,118.860959
知识科普型,博物馆,148671615,许村历史博物馆,0.0,0,,歙县,歙县,,,,博物馆&展馆,,否,https://dimg04.c-ctrip.com/images/fd/tg/g1/M06/FC/24/CghzflW7H_iATdynAAA-FlXAIeA738.jpg,https://you.ctrip.com/sight/shecounty527/148671615.html?scene=onlinesearch,30.003628,118.329801
知识科普型,博物馆,148695115,涡阳县老子博物馆-西展厅,0.0,0,,涡阳,涡阳,,,,博物馆&展馆,,否,https://dimg04.c-ctrip.com/images/fd/tg/g1/M06/FC/24/CghzflW7H_iATdynAAA-FlXAIeA738.jpg,https://you.ctrip.com/sight/guoyang2635/148695115.html?scene=onlinesearch,33.553739,116.198156
知识科普型,博物馆,148914256,气球博物馆,0.0,0,,合肥,合肥,,,,博物馆&展馆,,否,https://dimg04.c-ctrip.com/images/fd/tg/g1/M06/FC/24/CghzflW7H_iATdynAAA-FlXAIeA738.jpg,https://you.ctrip.com/sight/hefei196/148914256.html?scene=onlinesearch,31.864361,117.295773
知识科普型,博物馆,149371350,安徽省祁门红茶博物馆,0.0,0,,祁门,祁门,,,,,,否,https://dimg04.c-ctrip.com/images/fd/tg/g2/M09/B3/FD/CghzgFW7TBOAaqc_AAA9FJcymtg610.jpg,https://you.ctrip.com/sight/qimen2610/149371350.html?scene=onlinesearch,29.847111,117.779817
知识科普型,博物馆,149622028,庐江县地质博物馆,0.0,0,,庐江,庐江,,,,博物馆&展馆,,否,https://dimg04.c-ctrip.com/images/fd/tg/g1/M06/FC/24/CghzflW7H_iATdynAAA-FlXAIeA738.jpg,https://you.ctrip.com/sight/lujiang2602/149622028.html?scene=onlinesearch,31.252057,117.320634
知识科普型,博物馆,150161745,广誉远中医院文化博物馆,0.0,0,,合肥,合肥,,,,博物馆&展馆,,否,https://dimg04.c-ctrip.com/images/fd/tg/g1/M06/FC/24/CghzflW7H_iATdynAAA-FlXAIeA738.jpg,https://you.ctrip.com/sight/hefei196/150161745.html?scene=onlinesearch,31.837785,117.264284
知识科普型,博物馆,150187716,合肥恋爱博物馆,0.0,0,,合肥,合肥,,,,博物馆&展馆,,否,https://dimg04.c-ctrip.com/images/fd/tg/g1/M06/FC/24/CghzflW7H_iATdynAAA-FlXAIeA738.jpg,https://you.ctrip.com/sight/hefei196/150187716.html?scene=onlinesearch,31.710025,117.308075
知识科普型,博物馆,150322541,六安市皖西博物馆学雷锋志愿服务站,0.0,0,六安火车站/市政务中心/南湖湿地公园,六安,六安 · 六安火车站/市政务中心/南湖湿地公园,,,,,,否,https://dimg04.c-ctrip.com/images/fd/tg/g1/M06/FC/24/CghzflW7H_iATdynAAA-FlXAIeA738.jpg,https://you.ctrip.com/sight/luan502/150322541.html?scene=onlinesearch,31.744127,116.530824
知识科普型,博物馆,150345162,物罗万象文化探险(临泉博物馆店),0.0,0,,临泉,临泉,,,,博物馆&展馆,,否,https://dimg04.c-ctrip.com/images/fd/tg/g1/M06/FC/24/CghzflW7H_iATdynAAA-FlXAIeA738.jpg,https://you.ctrip.com/sight/linquan2596/150345162.html?scene=onlinesearch,33.043248,115.270311
知识科普型,博物馆,150362164,定格博物馆,0.0,0,,合肥,合肥,,,,博物馆&展馆,,否,https://dimg04.c-ctrip.com/images/fd/tg/g1/M06/FC/24/CghzflW7H_iATdynAAA-FlXAIeA738.jpg,https://you.ctrip.com/sight/hefei196/150362164.html?scene=onlinesearch,31.868186,117.301311
知识科普型,博物馆,150444138,合肥市新安书画博物馆,0.0,0,,合肥,合肥,,,,博物馆&展馆,,否,https://dimg04.c-ctrip.com/images/fd/tg/g1/M06/FC/24/CghzflW7H_iATdynAAA-FlXAIeA738.jpg,https://you.ctrip.com/sight/hefei196/150444138.html?scene=onlinesearch,31.833401,117.335893
知识科普型,博物馆,151320476,安阳山红色文化博物馆,0.0,0,,霍邱,霍邱,,,,博物馆&展馆,,否,https://dimg04.c-ctrip.com/images/fd/tg/g1/M06/FC/24/CghzflW7H_iATdynAAA-FlXAIeA738.jpg,https://you.ctrip.com/sight/huoqiu2606/151320476.html?scene=onlinesearch,32.273884,115.954766
知识科普型,博物馆,152826664,宿松县博物馆,0.0,0,,宿松,宿松,,,,,,否,https://dimg04.c-ctrip.com/images/fd/tg/g1/M06/FC/24/CghzflW7H_iATdynAAA-FlXAIeA738.jpg,https://you.ctrip.com/sight/susong2597/152826664.html?scene=onlinesearch,30.172766,116.139942
知识科普型,博物馆,152888333,梅桥民俗博物馆,0.0,0,,蚌埠,蚌埠,,,,,,否,https://dimg04.c-ctrip.com/images/fd/tg/g1/M06/FC/24/CghzflW7H_iATdynAAA-FlXAIeA738.jpg,https://you.ctrip.com/sight/bengbu205/152888333.html?scene=onlinesearch,33.038129,117.308717
