大类,子类关键词,景点ID,名称,评分,评论数,区域,城市,地址,分类,等级,特色,标签,门票说明,是否免费,图片链接,详情链接,纬度,经度
知识科普型,博物馆,38381108,成都自然博物馆,4.9,5590,建设路/东郊记忆公园,成都,成都 · 建设路/东郊记忆公园,2025亚洲100亲子景点,,观赏有名的合川马门溪龙,"博物馆, 博物馆&展馆",门票,否,https://dimg04.c-ctrip.com/images/0101v12000f6u1hlu172B.png,https://you.ctrip.com/sight/chengdu104/2571169.html?scene=onlinesearch,30.684371,104.150663
知识科普型,博物馆,24649061,成都蜀锦织绣博物馆,4.5,240,杜甫草堂/省人民医院,成都,成都 · 杜甫草堂/省人民医院,,,保存完整的蜀锦制作工艺,"博物馆, 博物馆&展馆",免费预约,是,https://dimg04.c-ctrip.com/images/1lo2i12000lkp6e5pBCF1.jpg,https://you.ctrip.com/sight/chengdu104/1829928.html?scene=onlinesearch,30.663465,104.043402
知识科普型,博物馆,82720,三星堆博物馆,4.5,15036,,广汉,广汉,2025亚洲100必打卡景点,4A,古蜀文化遗址,"展馆展览, 遛娃宝藏地",门市价,否,https://dimg04.c-ctrip.com/images/0104o12000h0jx9pr937E.jpg,https://you.ctrip.com/sight/guanghan1349/48854.html?scene=onlinesearch,31.007141,104.225247
知识科普型,博物馆,82793,眉山三苏祠博物馆,4.7,1906,眉山市中心,眉山,眉山 · 眉山市中心,眉山亲子景点榜 No.1,4A,瞻仰文豪家族遗物,"博物馆, 赏秋叶",门票,否,https://dimg04.c-ctrip.com/images/0104c12000aa4vvhvA314.jpg,https://you.ctrip.com/sight/meishan914/49071.html?scene=onlinesearch,30.046484,103.838145
知识科普型,博物馆,90391,四川博物院,4.7,1336,杜甫草堂/省人民医院,成都,成都 · 杜甫草堂/省人民医院,四川亲子景点榜 No.14,,收藏张大千丰富的作品,"博物馆, 博物馆&展馆",免费,是,https://dimg04.c-ctrip.com/images/0101s1200093pxu5nE11C.jpg,https://you.ctrip.com/sight/chengdu104/85913.html?scene=onlinesearch,30.667087,104.040528
知识科普型,博物馆,87558,盐业历史博物馆,4.5,2591,自贡市第一人民医院/彩灯公园,自贡,自贡 · 自贡市第一人民医院/彩灯公园,四川夜游必打卡景点榜 No.18,,,"展馆展览, 遛娃宝藏地",门票,否,https://dimg04.c-ctrip.com/images/0106712000iiterec41E0.jpg,https://you.ctrip.com/sight/zigong575/63818.html?scene=onlinesearch,29.355016,104.777752
知识科普型,博物馆,82723,金沙遗址博物馆,4.8,17784,金沙遗址/一品天下,成都,成都 · 金沙遗址/一品天下,四川亲子景点榜 No.4,4A,欣赏神秘的太阳神鸟,"展馆展览, 遛娃宝藏地",门票,否,https://dimg04.c-ctrip.com/images/0103l12000hxop2usDC88.jpg,https://you.ctrip.com/sight/chengdu104/48863.html?scene=onlinesearch,30.687743,104.019116
知识科普型,博物馆,145720750,凉山彝族自治州博物院,0.0,0,西昌市中心,西昌,西昌 · 西昌市中心,,,,,,否,https://dimg04.c-ctrip.com/images/0102q12000in0eg8vC834.jpg,https://you.ctrip.com/sight/xichang592/145720750.html?scene=onlinesearch,27.875034,102.258334
知识科普型,博物馆,82719,刘氏庄园博物馆,4.6,2778,安仁古镇,大邑,大邑 · 安仁古镇,大邑亲子景点榜 No.1,4A,知名地主刘文彩的旧居,"展馆展览, 遛娃宝藏地",门票,否,https://dimg04.c-ctrip.com/images/10040z000000nkfhvD07B.jpg,https://you.ctrip.com/sight/dayi3130/48849.html?scene=onlinesearch,30.513357,103.633434
知识科普型,博物馆,30752363,成都博物馆,4.8,5167,天府广场/成都博物馆,成都,成都 · 天府广场/成都博物馆,四川亲子景点榜 No.6,,馆藏20余万件展品,"展馆展览, 遛娃宝藏地",免费,是,https://dimg04.c-ctrip.com/images/350j1c000001cpign4A54.jpg,https://you.ctrip.com/sight/chengdu104/2006697.html?scene=onlinesearch,30.663395,104.070117
知识科普型,博物馆,145514019,宜宾市博物院,0.0,0,合江门/大观楼,宜宾,宜宾 · 合江门/大观楼,,,,,,否,https://dimg04.c-ctrip.com/images/1me6p12000jbe9b0qA7B9.jpg,https://you.ctrip.com/sight/yibin278/145514019.html?scene=onlinesearch,28.777823,104.620738
知识科普型,博物馆,80656,千佛崖,4.6,1267,,广元,广元,广元必打卡景点榜 No.2,4A,佛龛层叠分布，密如蜂巢,历史建筑,门票,否,https://dimg04.c-ctrip.com/images/350a1a0000018ysgb8AC7.jpg,https://you.ctrip.com/sight/guangyuan593/20448.html?scene=onlinesearch,32.478744,105.854628
知识科普型,博物馆,152581807,宜宾博物院-《走进梵高》XR沉浸数字探索展,0.0,0,临港新天地/宜宾大学城,宜宾,宜宾 · 临港新天地/宜宾大学城,,,,"特色展馆, 展览",,否,https://dimg04.c-ctrip.com/images/1lo4l12000mdnkqqq6D94.jpg,https://you.ctrip.com/sight/yibin278/152581807.html?scene=onlinesearch,28.795645,104.688256
知识科普型,博物馆,76341,武侯祠,4.6,24444,锦里/武侯祠附近地区,成都,成都 · 锦里/武侯祠附近地区,2025亚洲100必打卡景点,4A,祭拜诸葛亮刘备品三国文化,"遛娃宝藏地, 历史建筑",门票,否,https://dimg04.c-ctrip.com/images/0103n12000f6trha712AE.jpg,https://you.ctrip.com/sight/chengdu104/4227.html?scene=onlinesearch,30.652544,104.054375
知识科普型,博物馆,88924,四川建川博物馆聚落,4.7,2635,安仁古镇,大邑,大邑 · 安仁古镇,大邑亲子景点榜 No.2,4A,名家设计的大型博物馆群落,"展馆展览, 遛娃宝藏地",门票,否,https://dimg04.c-ctrip.com/images/0102r12000ikn22yy979C.jpg,https://you.ctrip.com/sight/dayi3130/71986.html?scene=onlinesearch,30.505982,103.626378
知识科普型,博物馆,76340,杜甫草堂,4.7,35604,杜甫草堂/省人民医院,成都,成都 · 杜甫草堂/省人民医院,2025亚洲100必打卡景点,4A,访杜甫旧居 品文化圣地,"遛娃宝藏地, 历史建筑",门票,否,https://dimg04.c-ctrip.com/images/0104712000f6pqdbe0C80.jpg,https://you.ctrip.com/sight/chengdu104/4226.html?scene=onlinesearch,30.666397,104.034848
知识科普型,博物馆,80659,明月峡,4.4,523,,广元,广元,广元亲子景点榜 No.2,4A,链接蜀道南北的古老栈道,自然山水,门票,否,https://dimg04.c-ctrip.com/images/1A0i170000011g2qt628E.jpg,https://you.ctrip.com/sight/guangyuan593/20451.html?scene=onlinesearch,32.634373,105.876351
知识科普型,博物馆,142204284,一片森林儿童博物馆,4.5,41,天府新区/西博城地区,成都,成都 · 天府新区/西博城地区,,,,"博物馆, 博物馆&展馆",门票,否,https://dimg04.c-ctrip.com/images/1lo0p12000csz43q621C3.jpg,https://you.ctrip.com/sight/chengdu104/142204284.html?scene=onlinesearch,30.469058,104.063314
知识科普型,博物馆,10548441,成都川菜博物馆,4.7,695,郫县地区,成都,成都 · 郫县地区,,,"了解川菜, 参与互动, 味觉亲自感受","展馆展览, 遛娃宝藏地",门票,否,https://dimg04.c-ctrip.com/images/01036120009513m4872C0.jpg,https://you.ctrip.com/sight/chengdu104/142568.html?scene=onlinesearch,30.901657,103.936435
知识科普型,博物馆,10530541,水井坊博物馆,4.7,296,九眼桥/四川大学附近地区,成都,成都 · 九眼桥/四川大学附近地区,,,展示水井坊特色酒文化,"博物馆, 博物馆&展馆",门市价,否,https://dimg04.c-ctrip.com/images/1lo2r12000crwiabkECC6.png,https://you.ctrip.com/sight/chengdu104/1407247.html?scene=onlinesearch,30.650927,104.092833
知识科普型,博物馆,22610255,生命奥秘博物馆,4.5,473,天府广场/成都博物馆,成都,成都 · 天府广场/成都博物馆,,,馆藏1000余件珍贵展品,"博物馆, 博物馆&展馆",门票,否,https://dimg04.c-ctrip.com/images/0101c12000f6qy1p16893.jpg,https://you.ctrip.com/sight/chengdu104/1706728.html?scene=onlinesearch,30.663557,104.073
知识科普型,博物馆,143234632,四川活体昆虫博物馆,5.0,35,郫县地区,成都,成都 · 郫县地区,,,,"博物馆, 博物馆&展馆",门票,否,https://dimg04.c-ctrip.com/images/0101a12000cw7r0240A8C.jpg,https://you.ctrip.com/sight/chengdu104/143234632.html?scene=onlinesearch,30.743975,103.998208
知识科普型,博物馆,61939035,立巢航空博物馆,4.7,294,环球中心/世纪城新会展,成都,成都 · 环球中心/世纪城新会展,,,观赏珍贵的航空实物与文献,"展馆展览, 遛娃宝藏地",门票,否,https://dimg04.c-ctrip.com/images/01045120008ijbajg6C8E.jpg,https://you.ctrip.com/sight/chengdu104/5546729.html?scene=onlinesearch,30.574851,104.067363
知识科普型,博物馆,10795327,四川大学(望江校区)-博物馆,4.7,94,九眼桥/四川大学附近地区,成都,成都 · 九眼桥/四川大学附近地区,,,西南历史悠久的博物馆,"博物馆, 博物馆&展馆",门票,否,https://dimg04.c-ctrip.com/images/1lo3012000la679m10BA0.jpg,https://you.ctrip.com/sight/chengdu104/70380.html?scene=onlinesearch,30.642016,104.097264
知识科普型,博物馆,52076448,崇州天演博物馆,4.8,29,崇州市区,崇州,崇州 · 崇州市区,,,藏品陈列展现生命发展进程,"展馆展览, 遛娃宝藏地",门票,否,https://dimg04.c-ctrip.com/images/10041f000001gp90m4E89.jpg,https://you.ctrip.com/sight/chongzhou909/4648132.html?scene=onlinesearch,30.637308,103.709677
知识科普型,博物馆,76448,成都永陵博物馆,4.4,375,宽窄巷子/中医学院附近地区,成都,成都 · 宽窄巷子/中医学院附近地区,,,难得的建于地上的皇陵,"博物馆, 博物馆&展馆",,否,https://dimg04.c-ctrip.com/images/0100912000f6qafsa3219.jpg,https://you.ctrip.com/sight/chengdu104/4602.html?scene=onlinesearch,30.680717,104.053739
知识科普型,博物馆,36589072,攀枝花中国三线建设博物馆,4.7,38,,攀枝花,攀枝花,,,馆藏各类三线建设文物,"博物馆, 博物馆&展馆",免费,是,https://dimg04.c-ctrip.com/images/0102n12000iqgw6ejD74F.jpg,https://you.ctrip.com/sight/panzhihua786/2511398.html?scene=onlinesearch,26.52684,101.740002
知识科普型,博物馆,87560,中国彩灯博物馆,4.6,315,自贡市第一人民医院/彩灯公园,自贡,自贡 · 自贡市第一人民医院/彩灯公园,,,一座彩灯文化的专业博物馆,"遛娃宝藏地, 博物馆",免费,是,https://dimg04.c-ctrip.com/images/0100612000h4yk6bxDACA.jpg,https://you.ctrip.com/sight/zigong575/63823.html?scene=onlinesearch,29.357789,104.775246
知识科普型,博物馆,133977763,九寨藏羌非遗博物馆,4.7,27,九寨华美胜地旅游度假区,九寨沟,九寨沟 · 九寨华美胜地旅游度假区,,,,"博物馆, 博物馆&展馆",,否,https://dimg04.c-ctrip.com/images/1lo1p12000dyi6p4gF8C5.jpg,https://you.ctrip.com/sight/jiuzhaigou25/133977763.html?scene=onlinesearch,33.31128,103.82692
知识科普型,博物馆,30813324,三和老爷车博物馆,4.6,226,金融城/双子塔附近地区,成都,成都 · 金融城/双子塔附近地区,,,,"展馆展览, 遛娃宝藏地",门票,否,https://dimg04.c-ctrip.com/images/0105712000f6snjacA00E.jpg,https://you.ctrip.com/sight/chengdu104/2018418.html?scene=onlinesearch,30.603421,104.047723
知识科普型,博物馆,25344320,乐山市博物馆,4.5,24,乐山大佛景区,乐山,乐山 · 乐山大佛景区,,,了解乐山的历史与文化,"博物馆, 博物馆&展馆",,否,https://dimg04.c-ctrip.com/images/0106b12000izm6b995726.jpg,https://you.ctrip.com/sight/leshan103/1840887.html?scene=onlinesearch,29.568976,103.78296
知识科普型,博物馆,39323174,广元市博物馆,4.6,37,东坝,广元,广元 · 东坝,,,,"博物馆, 博物馆&展馆",免费,是,https://dimg04.c-ctrip.com/images/0105y12000if6bf6l1027.jpg,https://you.ctrip.com/sight/guangyuan593/3504335.html?scene=onlinesearch,32.434831,105.866893
知识科普型,博物馆,56810320,广汉三星堆博物馆-一展馆,5.0,4,,广汉,广汉,,,,"特色展馆, 博物馆&展馆",,否,https://dimg04.c-ctrip.com/images/1me3v12000jlz6aru50A9.jpg,https://you.ctrip.com/sight/guanghan1349/5069564.html?scene=onlinesearch,31.006669,104.227172
知识科普型,博物馆,24649050,成都大熊猫博物馆,4.6,120,熊猫基地/西部战区总医院,成都,成都 · 熊猫基地/西部战区总医院,,,全面了解有关大熊猫的知识,"博物馆, 博物馆&展馆",,否,https://dimg04.c-ctrip.com/images/0100g12000iujn1dwC1BB.jpg,https://you.ctrip.com/sight/chengdu104/1829961.html?scene=onlinesearch,30.739707,104.153189
知识科普型,博物馆,22866070,金沙遗址博物馆-遗迹馆,4.7,51,金沙遗址/一品天下,成都,成都 · 金沙遗址/一品天下,,,,"博物馆, 博物馆&展馆",,否,https://dimg04.c-ctrip.com/images/0102512000b6uoztl0FC5.jpg,https://you.ctrip.com/sight/chengdu104/1713557.html?scene=onlinesearch,30.687278,104.02002
知识科普型,博物馆,13822346,金沙遗址博物馆乌木林,4.7,80,金沙遗址/一品天下,成都,成都 · 金沙遗址/一品天下,,,乌木形态各异，十分壮观,历史建筑,,否,https://dimg04.c-ctrip.com/images/0103u120008outa3b698B.jpg,https://you.ctrip.com/sight/chengdu104/1475904.html?scene=onlinesearch,30.685706,104.0194
知识科普型,博物馆,24651697,绵阳博物馆,4.5,59,富乐山地区,绵阳,绵阳 · 富乐山地区,,,功能齐全的新综合博物馆,"博物馆, 博物馆&展馆",免费,是,https://dimg04.c-ctrip.com/images/0104q120009p71zg6F220.jpg,https://you.ctrip.com/sight/mianyang915/1832566.html?scene=onlinesearch,31.48176,104.78405
知识科普型,博物馆,78745746,李白文化博物馆,4.3,41,,江油,江油,,,,"博物馆, 博物馆&展馆",门票,否,https://dimg04.c-ctrip.com/images/0102w12000f6ugi907A52.jpg,https://you.ctrip.com/sight/jiangyou1037/5700604.html?scene=onlinesearch,31.673378,104.695539
知识科普型,博物馆,38541572,成都武侯祠博物馆-西区,4.8,42,锦里/武侯祠附近地区,成都,成都 · 锦里/武侯祠附近地区,,,湖泊、树林相得益彰,博物馆&展馆,,否,https://dimg04.c-ctrip.com/images/100v1f000001h1c9h2505.jpg,https://you.ctrip.com/sight/chengdu104/2730333.html?scene=onlinesearch,30.650797,104.054019
知识科普型,博物馆,95930,凉山彝族奴隶社会博物馆,4.3,68,邛海西度假区,西昌,西昌 · 邛海西度假区,,,彝族古典风格建筑,"博物馆, 博物馆&展馆",免费,是,https://dimg04.c-ctrip.com/images/0106a12000f6tufl32CB3.jpg,https://you.ctrip.com/sight/xichang592/134005.html?scene=onlinesearch,27.839711,102.275677
知识科普型,博物馆,90181,安仁古镇,4.5,724,安仁古镇,大邑,大邑 · 安仁古镇,成都夜游必打卡景点榜 No.15,5A,历史悠久，有刘氏家族庄园,"遛娃宝藏地, 古镇古村",免费,是,https://dimg04.c-ctrip.com/images/0102m12000mkfjr6e229E.jpg,https://you.ctrip.com/sight/dayi3130/79456.html?scene=onlinesearch,30.512374,103.627653
知识科普型,博物馆,144974604,西昌建川电影博物馆聚落,4.5,4,,西昌,西昌,,,,"博物馆, 博物馆&展馆",门票,否,https://dimg04.c-ctrip.com/images/1me3e12000fuh12w1BCA0.jpg,https://you.ctrip.com/sight/xichang592/144974604.html?scene=onlinesearch,27.888759,102.187656
知识科普型,博物馆,10770500,风水博物馆,4.2,91,,阆中,阆中,,,展览众多,"博物馆, 博物馆&展馆",,否,https://dimg04.c-ctrip.com/images/0106t12000f6reawu97FF.jpg,https://you.ctrip.com/sight/langzhong831/20243.html?scene=onlinesearch,31.579354,105.979633
知识科普型,博物馆,38954429,四川宋瓷博物馆,4.8,38,,遂宁,遂宁,,,,"博物馆, 博物馆&展馆",免费,是,https://dimg04.c-ctrip.com/images/0105s12000f6u19au6BF0.jpg,https://you.ctrip.com/sight/suining605/3139090.html?scene=onlinesearch,30.555354,105.59391
知识科普型,博物馆,22866192,新津区纯阳观博物馆,4.3,25,新津地区/花舞人间景区,成都,成都 · 新津地区/花舞人间景区,,,,"历史建筑, 博物馆",免费,是,https://dimg04.c-ctrip.com/images/01053120006ggkyaeE1B0.jpg,https://you.ctrip.com/sight/chengdu104/1713642.html?scene=onlinesearch,30.427987,103.802847
知识科普型,博物馆,39070464,铁道兵博物馆,3.4,5,,乐山,乐山,,,,博物馆&展馆,免费,是,https://dimg04.c-ctrip.com/images/0104u12000f6r0zkcA0CC.jpg,https://you.ctrip.com/sight/leshan103/3253825.html?scene=onlinesearch,29.292166,103.030995
知识科普型,博物馆,39073048,中国保宁醋文化博物馆,3.7,40,,阆中,阆中,,,,"博物馆, 博物馆&展馆",门票,否,https://dimg04.c-ctrip.com/images/100g0v000000k1jhuAAB1.jpg,https://you.ctrip.com/sight/langzhong831/3256409.html?scene=onlinesearch,31.587415,105.992062
知识科普型,博物馆,79437638,成都川剧艺术博物馆,5.0,42,春熙路/太古里商业区,成都,成都 · 春熙路/太古里商业区,,,,"特色展馆, 博物馆",,否,https://dimg04.c-ctrip.com/images/0ww4b12000cjcu6poB44A.jpg,https://you.ctrip.com/sight/chengdu104/5703979.html?scene=onlinesearch,30.665526,104.086885
知识科普型,博物馆,24654039,雅安博物馆,4.6,43,雅州廊桥/四川农大,雅安,雅安 · 雅州廊桥/四川农大,,,,"博物馆, 博物馆&展馆",免费,是,https://dimg04.c-ctrip.com/images/0104i12000f6q6b2340F2.jpg,https://you.ctrip.com/sight/yaan917/1834877.html?scene=onlinesearch,29.995947,103.0012
知识科普型,博物馆,24654183,宜宾市博物馆,4.5,15,临港新天地/宜宾大学城,宜宾,宜宾 · 临港新天地/宜宾大学城,,,,"博物馆, 博物馆&展馆",免费,是,https://dimg04.c-ctrip.com/images/1mh3l12000aitkz2aCA0A.png,https://you.ctrip.com/sight/yibin278/1835031.html?scene=onlinesearch,28.801712,104.687728
知识科普型,博物馆,61947482,中国皮影博物馆一厅,4.8,9,天府广场/成都博物馆,成都,成都 · 天府广场/成都博物馆,,,,"博物馆, 博物馆&展馆",免费,是,https://dimg04.c-ctrip.com/images/0105v12000f6ug07eD0D3.jpg,https://you.ctrip.com/sight/chengdu104/5547385.html?scene=onlinesearch,30.662968,104.070152
知识科普型,博物馆,145533136,成都武侯祠博物馆-文物区,5.0,1,锦里/武侯祠附近地区,成都,成都 · 锦里/武侯祠附近地区,,,,博物馆&展馆,,否,https://dimg04.c-ctrip.com/images/0104b12000f6t2m51FC7D.jpg,https://you.ctrip.com/sight/chengdu104/145533136.html?scene=onlinesearch,30.652669,104.055661
知识科普型,博物馆,79438868,甘孜藏族自治州博物馆,4.7,9,康定城区,康定,康定 · 康定城区,,,,"博物馆, 博物馆&展馆",免费,是,https://dimg04.c-ctrip.com/images/100g1e000001fubauE23B.jpg,https://you.ctrip.com/sight/kangding344/5705227.html?scene=onlinesearch,30.000062,101.956397
知识科普型,博物馆,143689619,资阳市博物馆,5.0,1,,资阳,资阳,,,,"博物馆, 博物馆&展馆",免费,是,https://dimg04.c-ctrip.com/images/1me5o12000cu5zwwu5233.jpg,https://you.ctrip.com/sight/ziyang918/143689619.html?scene=onlinesearch,30.143716,104.640755
知识科普型,博物馆,80995,川陕革命根据地博物馆,0.0,46,,巴中,巴中,,,馆藏革命文物万余件,博物馆&展馆,免费,是,https://dimg04.c-ctrip.com/images/01039120009on1pi6D870.jpg,https://you.ctrip.com/sight/bazhong703/22127.html?scene=onlinesearch,31.852205,106.769949
知识科普型,博物馆,10543703,摩梭博物馆,3.8,37,走婚桥/草海度假区,盐源,盐源 · 走婚桥/草海度假区,,,展示摩梭民俗风情的博物馆,"博物馆, 博物馆&展馆",,否,https://dimg04.c-ctrip.com/images/100r1f000001goqzc172C.jpg,https://you.ctrip.com/sight/yanyuan3142/128001.html?scene=onlinesearch,27.714023,100.86404
知识科普型,博物馆,79438839,纳溪区护国战争博物馆,4.9,46,纳溪区中心,泸州,泸州 · 纳溪区中心,,,,博物馆&展馆,免费,是,https://dimg04.c-ctrip.com/images/0100r1200095ct5977109.jpg,https://you.ctrip.com/sight/luzhou604/5705221.html?scene=onlinesearch,28.790647,105.399811
知识科普型,博物馆,145464502,广元皇泽寺博物馆,5.0,2,,广元,广元,,,,博物馆&展馆,,否,https://dimg04.c-ctrip.com/images/0HJ1o12000g6qtbxq4D93.jpg,https://you.ctrip.com/sight/guangyuan593/145464502.html?scene=onlinesearch,32.44215,105.820849
知识科普型,博物馆,38503187,达州博物馆,4.4,17,西外新区,达州,达州 · 西外新区,,,,"博物馆, 博物馆&展馆",免费,是,https://dimg04.c-ctrip.com/images/0105r12000f6speep585C.jpg,https://you.ctrip.com/sight/dazhou910/2692148.html?scene=onlinesearch,31.214385,107.471588
知识科普型,博物馆,98148,中国泰迪熊博物馆,3.8,978,国色天乡乐园/温江大学城,成都,成都 · 国色天乡乐园/温江大学城,,,全球较大泰迪熊博物馆,"展馆展览, 遛娃宝藏地",门票,否,https://dimg04.c-ctrip.com/images/0103s12000f6sfsx6E7E3.jpg,https://you.ctrip.com/sight/chengdu104/136614.html?scene=onlinesearch,30.643506,103.804245
知识科普型,博物馆,25514449,中国苴却砚博物馆,4.5,28,攀枝花南站,攀枝花,攀枝花 · 攀枝花南站,,,中国第一个砚文化专题展馆,"博物馆, 博物馆&展馆",免费,是,https://dimg04.c-ctrip.com/images/1A0s1d000001eih0p68DC.jpg,https://you.ctrip.com/sight/panzhihua786/1841735.html?scene=onlinesearch,26.480041,101.761459
知识科普型,博物馆,48211156,四川泸县宋代石刻博物馆,4.4,18,,泸县,泸县,,,宋代石刻众多，雕刻精美,"博物馆, 博物馆&展馆",免费,是,https://dimg04.c-ctrip.com/images/0105t120009dnpy48E3D1.jpg,https://you.ctrip.com/sight/lucounty3157/4332371.html?scene=onlinesearch,29.155693,105.40001
知识科普型,博物馆,13822459,易园园林艺术博物馆,4.5,97,华侨城欢乐谷/西南交大,成都,成都 · 华侨城欢乐谷/西南交大,,,川西园林典范,"园林花园, 特色展馆",免费,是,https://dimg04.c-ctrip.com/images/0104a12000f6tw66e157A.jpg,https://you.ctrip.com/sight/chengdu104/1475976.html?scene=onlinesearch,30.723815,104.021477
知识科普型,博物馆,136246474,南充市博物馆,4.0,1,南充站/西华师范大学华凤校区,南充,南充 · 南充站/西华师范大学华凤校区,,,,"博物馆, 博物馆&展馆",免费,是,https://dimg04.c-ctrip.com/images/1me0z12000erqgu52942B.jpg,https://you.ctrip.com/sight/nanchong782/136246474.html?scene=onlinesearch,30.814594,106.083238
知识科普型,博物馆,24653508,汶川博物馆,4.4,33,汶川城区,汶川,汶川 · 汶川城区,,,展现羌族的历史和文化,"博物馆, 博物馆&展馆",免费,是,https://dimg04.c-ctrip.com/images/0100o12000f6qzgrw5C39.jpg,https://you.ctrip.com/sight/wenchuan3101/1834274.html?scene=onlinesearch,31.478095,103.587705
知识科普型,博物馆,51764661,中国泡菜博物馆,3.9,8,,眉山,眉山,,,,"博物馆, 博物馆&展馆",,否,https://dimg04.c-ctrip.com/images/01004120009p3936e69CE.jpg,https://you.ctrip.com/sight/meishan914/4605016.html?scene=onlinesearch,30.032423,103.860228
知识科普型,博物馆,86402,古蔺县红军长征四渡赤水博物馆,0.0,31,,古蔺,古蔺,,,,"博物馆&展馆, 场馆展馆",免费,是,https://dimg04.c-ctrip.com/images/0106c12000f6sdvqq8903.jpg,https://you.ctrip.com/sight/gulin3166/60781.html?scene=onlinesearch,28.141864,106.04658
知识科普型,博物馆,145708031,三星堆博物馆-青铜馆,0.0,0,,广汉,广汉,,,,博物馆&展馆,免费,是,https://dimg04.c-ctrip.com/images/100c0z000000nl3jr9B71.jpg,https://you.ctrip.com/sight/guanghan1349/145708031.html?scene=onlinesearch,31.007848,104.224012
知识科普型,博物馆,149267277,成都大熊猫繁育研究基地-观光车大熊猫博物馆站,0.0,0,熊猫基地/西部战区总医院,成都,成都 · 熊猫基地/西部战区总医院,,,,,,否,https://dimg04.c-ctrip.com/images/1me3512000ie673qm78C0.jpg,https://you.ctrip.com/sight/chengdu104/149267277.html?scene=onlinesearch,30.739511,104.152352
知识科普型,博物馆,13695607,格萨尔文化博物馆,4.5,32,,色达,色达,,,,"博物馆, 博物馆&展馆",免费,是,https://dimg04.c-ctrip.com/images/0106h120009e1cyb4B9E9.jpg,https://you.ctrip.com/sight/sertar120478/1418311.html?scene=onlinesearch,32.273786,100.3421
知识科普型,博物馆,143247464,广都博物馆,5.0,2,,成都,成都,,,,"博物馆, 博物馆&展馆",免费,是,https://dimg04.c-ctrip.com/images/0105i12000dj68hjj33BC.jpg,https://you.ctrip.com/sight/chengdu104/143247464.html?scene=onlinesearch,30.500129,103.925409
知识科普型,博物馆,82951901,四川雅安西康博物馆,5.0,1,雅州廊桥/四川农大,雅安,雅安 · 雅州廊桥/四川农大,,,,"博物馆, 博物馆&展馆",,否,https://dimg04.c-ctrip.com/images/100s1d000001eolwqA4A5.jpg,https://you.ctrip.com/sight/yaan917/5707951.html?scene=onlinesearch,29.980115,103.01118
知识科普型,博物馆,39705984,卧龙自然与地震博物馆,4.6,7,卧龙,汶川,汶川 · 卧龙,,,,"博物馆, 博物馆&展馆",免费,是,https://dimg04.c-ctrip.com/images/01048120009enluf8E3BA.jpg,https://you.ctrip.com/sight/wenchuan3101/3883645.html?scene=onlinesearch,31.036754,103.189162
知识科普型,博物馆,106457965,仓央嘉措微型博物馆,4.9,82,,理塘,理塘,,,,"博物馆, 博物馆&展馆",,否,https://dimg04.c-ctrip.com/images/01071120008w26bdy944C.jpg,https://you.ctrip.com/sight/litang3150/5714234.html?scene=onlinesearch,30.000471,100.275155
知识科普型,博物馆,85105,峨眉山博物馆,4.6,69,报国寺/峨眉山站,峨眉山,峨眉山 · 报国寺/峨眉山站,,,内有珍贵的恐龙标本,"博物馆, 博物馆&展馆",,否,https://dimg04.c-ctrip.com/images/1me1j12000b8c26qw9789.png,https://you.ctrip.com/sight/emeishan24/54939.html?scene=onlinesearch,29.574323,103.451366
知识科普型,博物馆,52135532,汶川大地震博物馆,0.0,0,安仁古镇,大邑,大邑 · 安仁古镇,,,,"博物馆, 博物馆&展馆",,否,https://dimg04.c-ctrip.com/images/0581w12000b245mci2FCB.jpg,https://you.ctrip.com/sight/dayi3130/4654070.html?scene=onlinesearch,30.506039,103.62494
知识科普型,博物馆,130256030,G318旅行记忆微博物馆,5.0,89,勒通古镇千户藏寨/理塘县人民政府,理塘,理塘 · 勒通古镇千户藏寨/理塘县人民政府,,,,"博物馆, 博物馆&展馆",免费,是,https://dimg04.c-ctrip.com/images/01007120008w269r8AABD.jpg,https://you.ctrip.com/sight/litang3150/5717215.html?scene=onlinesearch,30.001975,100.274305
知识科普型,博物馆,24313473,都江堰市博物馆,4.8,60,都江堰景区及周边,都江堰,都江堰 · 都江堰景区及周边,,,了解都江堰水利工程,"博物馆, 博物馆&展馆",,否,https://dimg04.c-ctrip.com/images/0101p12000f6qzm7608BB.jpg,https://you.ctrip.com/sight/dujiangyan911/1816046.html?scene=onlinesearch,30.991624,103.625125
知识科普型,博物馆,79437612,泸州老窖博物馆,5.0,1,水井沟步行街,泸州,泸州 · 水井沟步行街,,,,"博物馆, 博物馆&展馆",,否,https://dimg04.c-ctrip.com/images/0100m12000f6s1sdw9AEA.jpg,https://you.ctrip.com/sight/luzhou604/5704031.html?scene=onlinesearch,28.890829,105.460868
知识科普型,博物馆,87420,中国羌族博物馆,4.0,16,,茂县,茂县,,,,"博物馆, 博物馆&展馆",免费,是,https://dimg04.c-ctrip.com/images/01058120009e4j76hDCEE.jpg,https://you.ctrip.com/sight/maocounty3164/63385.html?scene=onlinesearch,31.680691,103.845898
知识科普型,博物馆,79438861,庞统祠博物馆,3.4,5,,德阳,德阳,,,,"博物馆, 博物馆&展馆",门市价,否,https://dimg04.c-ctrip.com/images/0106r120008jzz2m5A797.jpg,https://you.ctrip.com/sight/deyang462/5705240.html?scene=onlinesearch,31.295648,104.47477
知识科普型,博物馆,151156390,广安建川博物馆聚落,5.0,1,,广安,广安,,,,博物馆&展馆,门票,否,https://dimg04.c-ctrip.com/images/1lo6s12000kcdu95o5145.jpg,https://you.ctrip.com/sight/guangan693/151156390.html?scene=onlinesearch,30.539955,106.649093
知识科普型,博物馆,38494807,阆中市博物馆,4.3,6,,阆中,阆中,,,,"博物馆, 博物馆&展馆",免费,是,https://dimg04.c-ctrip.com/images/0102b12000b761lkoCB0C.jpg,https://you.ctrip.com/sight/langzhong831/2683968.html?scene=onlinesearch,31.583221,105.975859
知识科普型,博物馆,10521044,鹿野苑石刻艺术博物馆,3.5,13,郫县地区,成都,成都 · 郫县地区,,,,"特色展馆, 博物馆",,否,https://dimg04.c-ctrip.com/images/0100u120008out74nC6FE.jpg,https://you.ctrip.com/sight/chengdu104/145113.html?scene=onlinesearch,30.888034,103.875419
知识科普型,博物馆,145397017,成都自然博物馆-生命探源展厅,4.8,8,建设路/东郊记忆公园,成都,成都 · 建设路/东郊记忆公园,,,,博物馆&展馆,,否,https://dimg04.c-ctrip.com/images/0102i12000m3kc1eeC414.jpg,https://you.ctrip.com/sight/chengdu104/145397017.html?scene=onlinesearch,30.684718,104.150984
知识科普型,博物馆,145352262,中国核聚变博物馆,0.0,0,绿心公园 /大学城,乐山,乐山 · 绿心公园 /大学城,,,,博物馆&展馆,,否,https://dimg04.c-ctrip.com/images/0HJ6c12000g8zrddu7F1F.jpg,https://you.ctrip.com/sight/leshan103/145352262.html?scene=onlinesearch,29.568016,103.739508
知识科普型,博物馆,145558054,广汉三星堆博物馆-文物保护修复展示中心,0.0,0,,广汉,广汉,,,,博物馆&展馆,,否,https://dimg04.c-ctrip.com/images/1me0z12000efb6azy75C7.jpg,https://you.ctrip.com/sight/guanghan1349/145558054.html?scene=onlinesearch,31.006349,104.225185
知识科普型,博物馆,24652054,成都市郫都区博物馆,4.0,21,郫县地区,成都,成都 · 郫县地区,,,战国铜兵器较为有名,"博物馆, 博物馆&展馆",,否,https://dimg04.c-ctrip.com/images/0107112000b5s9cwlB839.jpg,https://you.ctrip.com/sight/chengdu104/1832898.html?scene=onlinesearch,30.814631,103.879885
知识科普型,博物馆,51680764,中国汉阙文化博物馆,3.7,3,,渠县,渠县,,,,"博物馆, 博物馆&展馆",,否,https://dimg04.c-ctrip.com/images/01034120008682o0i89A6.jpg,https://you.ctrip.com/sight/qucounty3141/4591560.html?scene=onlinesearch,31.046337,107.024916
知识科普型,博物馆,15144540,许燎源现代设计艺术博物馆,4.2,25,三圣花乡/华西附二院锦江院区,成都,成都 · 三圣花乡/华西附二院锦江院区,,,生活艺术体验之旅,"特色展馆, 博物馆&展馆",门票,否,https://dimg04.c-ctrip.com/images/100g0d0000006x7r114E5.jpg,https://you.ctrip.com/sight/chengdu104/1485191.html?scene=onlinesearch,30.588908,104.162948
知识科普型,博物馆,24649383,德阳市博物馆,4.3,46,文庙广场,德阳,德阳 · 文庙广场,,,观文物史料，赏孔庙建筑,"博物馆, 博物馆&展馆",免费,是,https://dimg04.c-ctrip.com/images/0100d120008paaycy00E6.jpg,https://you.ctrip.com/sight/deyang462/1830115.html?scene=onlinesearch,31.136856,104.398568
知识科普型,博物馆,133531814,猫咪博物馆,4.9,11,成都火车西站/青羊万达,成都,成都 · 成都火车西站/青羊万达,,,喵星人,"特色展馆, 博物馆",门市价,否,https://dimg04.c-ctrip.com/images/0103t1200099uim1w9F4B.jpg,https://you.ctrip.com/sight/chengdu104/5720286.html?scene=onlinesearch,30.681902,103.979273
知识科普型,博物馆,134058173,交子金融博物馆,5.0,2,金融城/双子塔附近地区,成都,成都 · 金融城/双子塔附近地区,,,,"博物馆, 博物馆&展馆",免费,是,https://dimg04.c-ctrip.com/images/1me1l12000d1yb44o9AFD.jpg,https://you.ctrip.com/sight/chengdu104/134058173.html?scene=onlinesearch,30.58858,104.083033
知识科普型,博物馆,145154149,江口沉银博物馆,0.0,0,,眉山,眉山,,,,博物馆&展馆,,否,https://dimg04.c-ctrip.com/images/0HJ4a12000g2u095492B4.jpg,https://you.ctrip.com/sight/meishan914/145154149.html?scene=onlinesearch,30.231296,103.917021
知识科普型,博物馆,56381191,拾野自然博物馆,4.4,107,339天府熊猫塔/望平街,成都,成都 · 339天府熊猫塔/望平街,,,,"展馆展览, 遛娃宝藏地",门票,否,https://dimg04.c-ctrip.com/images/1lo4v12000bqjjpmp12C9.jpg,https://you.ctrip.com/sight/chengdu104/5015383.html?scene=onlinesearch,30.667702,104.100575
知识科普型,博物馆,145284666,成都永陵博物馆-永陵地宫,5.0,1,宽窄巷子/中医学院附近地区,成都,成都 · 宽窄巷子/中医学院附近地区,,,,博物馆&展馆,,否,https://dimg04.c-ctrip.com/images/0100312000ehp5jctC2F7.jpg,https://you.ctrip.com/sight/chengdu104/145284666.html?scene=onlinesearch,30.679879,104.053289
知识科普型,博物馆,79438866,广安市博物馆,0.0,0,,广安,广安,,,,"博物馆, 博物馆&展馆",免费,是,https://dimg04.c-ctrip.com/images/1me1m12000d88j4dlFEC1.jpg,https://you.ctrip.com/sight/guangan693/5705226.html?scene=onlinesearch,30.461726,106.652018
知识科普型,博物馆,79436455,彭州博物馆,4.2,10,,彭州,彭州,,,,"博物馆, 博物馆&展馆",免费,是,https://dimg04.c-ctrip.com/images/0103k12000941dsdeA439.jpg,https://you.ctrip.com/sight/pengzhou1747/5702821.html?scene=onlinesearch,30.993754,103.935348
知识科普型,博物馆,38403834,中国西昌上山下乡知识青年博物馆,2.0,1,,西昌,西昌,,,,"博物馆, 博物馆&展馆",,否,https://dimg04.c-ctrip.com/images/0104s12000cwunuot37DE.jpg,https://you.ctrip.com/sight/xichang592/2593795.html?scene=onlinesearch,28.162562,102.199562
知识科普型,博物馆,145103072,川北活体昆虫博物馆,5.0,1,园艺山科创园,绵阳,绵阳 · 园艺山科创园,,,,博物馆&展馆,门市价,否,https://dimg04.c-ctrip.com/images/1lo7012000dsf3sq33227.jpg,https://you.ctrip.com/sight/mianyang915/145103072.html?scene=onlinesearch,31.477565,104.705013
知识科普型,博物馆,79438867,阿坝州博物馆,4.3,3,,马尔康,马尔康,,,,"博物馆, 博物馆&展馆",免费,是,https://dimg04.c-ctrip.com/images/0106112000f6s1ysuAC51.png,https://you.ctrip.com/sight/barkam913/5705249.html?scene=onlinesearch,31.901421,102.232864
知识科普型,博物馆,145506484,天府迷你博物馆,0.0,0,天府机场/简阳南站,简阳,简阳 · 天府机场/简阳南站,,,,"博物馆, 博物馆&展馆",,否,https://dimg04.c-ctrip.com/images/0104y12000eyaxx3rE07D.png,https://you.ctrip.com/sight/jianyang3122/145506484.html?scene=onlinesearch,30.316319,104.453646
知识科普型,博物馆,134444519,艾雅康鸟类生态博物馆,5.0,3,邛海东度假区,西昌,西昌 · 邛海东度假区,,,,"博物馆, 博物馆&展馆",门票,否,https://dimg04.c-ctrip.com/images/01035120009pwvh4c1966.jpg,https://you.ctrip.com/sight/xichang592/134444519.html?scene=onlinesearch,27.844707,102.29468
知识科普型,博物馆,24651664,蒙山茶史博物馆,4.8,14,蒙顶山景区及周边,雅安,雅安 · 蒙顶山景区及周边,,,,"博物馆, 博物馆&展馆",,否,https://dimg04.c-ctrip.com/images/0101212000914awoe5767.jpg,https://you.ctrip.com/sight/yaan917/1832537.html?scene=onlinesearch,30.081418,103.056616
知识科普型,博物馆,145193249,雅安大熊猫自然博物馆,0.0,0,,雅安,雅安,,,,博物馆&展馆,,否,https://dimg04.c-ctrip.com/images/0100d12000iq42m0v72A6.jpg,https://you.ctrip.com/sight/yaan917/145193249.html?scene=onlinesearch,30.024601,103.019147
知识科普型,博物馆,24652192,北川羌族民俗博物馆,4.6,28,,北川,北川,,,文物众多，羌族文化浓厚,"博物馆, 博物馆&展馆",免费,是,https://dimg04.c-ctrip.com/images/010671200097p701hC6BB.jpg,https://you.ctrip.com/sight/beichuan1934/1832850.html?scene=onlinesearch,31.616688,104.478517
知识科普型,博物馆,105418301,江油市博物馆,4.5,6,,江油,江油,,,,"博物馆, 博物馆&展馆",免费,是,https://dimg04.c-ctrip.com/images/0106z12000c04qw3j0F7E.jpg,https://you.ctrip.com/sight/jiangyou1037/105418301.html?scene=onlinesearch,31.783938,104.746782
知识科普型,博物馆,24651163,乐山汉崖墓博物馆,5.0,13,乐山大佛景区,乐山,乐山 · 乐山大佛景区,,,观赏形式多样的崖墓群,"博物馆, 博物馆&展馆",免费,是,https://dimg04.c-ctrip.com/images/100s0u000000jabiv4994.jpg,https://you.ctrip.com/sight/leshan103/1832005.html?scene=onlinesearch,29.544746,103.781363
知识科普型,博物馆,52120963,电子科技博物馆,0.0,0,郫县地区,成都,成都 · 郫县地区,,,,"博物馆, 博物馆&展馆",,否,https://dimg04.c-ctrip.com/images/0102l12000arp1kknD98A.png,https://you.ctrip.com/sight/chengdu104/4657424.html?scene=onlinesearch,30.756018,103.933866
知识科普型,博物馆,28177438,炉霍博物馆,0.0,0,,炉霍,炉霍,,,,"博物馆, 博物馆&展馆",,否,https://dimg04.c-ctrip.com/images/100b0n000000ejbnm81A0.jpg,https://you.ctrip.com/sight/luhuo1446223/1925371.html?scene=onlinesearch,31.404222,100.682902
知识科普型,博物馆,79437639,崇州市博物馆,4.8,5,崇州市区,崇州,崇州 · 崇州市区,,,,"博物馆, 博物馆&展馆",免费,是,https://dimg04.c-ctrip.com/images/0580c12000b2463baE4CF.jpg,https://you.ctrip.com/sight/chongzhou909/5704030.html?scene=onlinesearch,30.634634,103.684827
知识科普型,博物馆,38413598,渠县历史博物馆,4.8,14,,渠县,渠县,,,,"博物馆, 博物馆&展馆",免费,是,https://dimg04.c-ctrip.com/images/0105w12000apoy5biE303.jpg,https://you.ctrip.com/sight/qucounty3141/2603459.html?scene=onlinesearch,30.843854,106.977639
知识科普型,博物馆,145414316,成都市双流区芯智慧音乐博物馆,0.0,0,海滨城/双流体育中心,成都,成都 · 海滨城/双流体育中心,,,,博物馆&展馆,,否,https://dimg04.c-ctrip.com/images/1me0412000ex16thvD137.jpg,https://you.ctrip.com/sight/chengdu104/145414316.html?scene=onlinesearch,30.569761,103.897766
知识科普型,博物馆,39655476,共品钱币博物馆,4.9,34,安仁古镇,大邑,大邑 · 安仁古镇,,,,"博物馆, 博物馆&展馆",门票,否,https://dimg04.c-ctrip.com/images/10080q000000gmykl3AD0.jpg,https://you.ctrip.com/sight/dayi3130/3833637.html?scene=onlinesearch,30.514075,103.634801
知识科普型,博物馆,140558190,中国李庄文化抗战博物馆,4.0,1,李庄旅游度假区,宜宾,宜宾 · 李庄旅游度假区,,,,"博物馆, 博物馆&展馆",免费,是,https://dimg04.c-ctrip.com/images/0103j12000bscfp8q0C4E.jpg,https://you.ctrip.com/sight/yibin278/140558190.html?scene=onlinesearch,28.807624,104.801015
知识科普型,博物馆,13811412,成都乌木艺术博物馆,5.0,25,,都江堰,都江堰,,,,"特色展馆, 博物馆&展馆",门票,否,https://dimg04.c-ctrip.com/images/0582p12000b2400ofC647.jpg,https://you.ctrip.com/sight/dujiangyan911/1474974.html?scene=onlinesearch,30.928824,103.62179
知识科普型,博物馆,79438856,成都皮影艺术博物馆,0.0,0,,都江堰,都江堰,,,,"特色展馆, 博物馆",免费,是,https://dimg04.c-ctrip.com/images/0100g12000a0h9tdd27B6.jpg,https://you.ctrip.com/sight/dujiangyan911/5705218.html?scene=onlinesearch,30.93019,103.621487
知识科普型,博物馆,38983087,四川青川地震遗迹国家地质公园地震博物馆,5.0,57,,青川,青川,,,,"博物馆, 博物馆&展馆",免费,是,https://dimg04.c-ctrip.com/images/0105t12000axr8x4qA3F6.jpg,https://you.ctrip.com/sight/qingchuan1446240/3167448.html?scene=onlinesearch,32.394752,105.156936
知识科普型,博物馆,39850381,成都直升机博物馆,1.0,1,红牌楼/大悦城商业区,成都,成都 · 红牌楼/大悦城商业区,,,,"博物馆, 博物馆&展馆",免费,是,https://dimg04.c-ctrip.com/images/0585012000b241fzkCA94.jpg,https://you.ctrip.com/sight/chengdu104/4026842.html?scene=onlinesearch,30.609858,104.020579
知识科普型,博物馆,24651165,乐山乌木博物馆,3.0,9,苏稽旅游区,乐山,乐山 · 苏稽旅游区,,,,"博物馆, 博物馆&展馆",,否,https://dimg04.c-ctrip.com/images/0100k12000atoagc7FF3D.jpg,https://you.ctrip.com/sight/leshan103/1832009.html?scene=onlinesearch,29.592164,103.662237
知识科普型,博物馆,145435799,杨二车娜姆艺术博物馆,0.0,0,尼塞度假区/格姆女神山索道,盐源,盐源 · 尼塞度假区/格姆女神山索道,,,,博物馆&展馆,,否,https://dimg04.c-ctrip.com/images/0HJ4f12000g66waid138C.jpg,https://you.ctrip.com/sight/yanyuan3142/145435799.html?scene=onlinesearch,27.744565,100.77936
知识科普型,博物馆,145142680,罗家坝遗址博物馆,5.0,1,,宣汉,宣汉,,,,博物馆&展馆,,否,https://dimg04.c-ctrip.com/images/0HJ6e12000g34b5bcDC51.jpg,https://you.ctrip.com/sight/xuanhan3129/145142680.html?scene=onlinesearch,31.541019,107.767231
知识科普型,博物馆,13826217,邛窑遗址博物馆,4.2,16,,邛崃,邛崃,,,,"博物馆&展馆, 场馆展馆",免费,是,https://dimg04.c-ctrip.com/images/01011120009zdfnlnCE8E.jpg,https://you.ctrip.com/sight/qionglai1403/1476660.html?scene=onlinesearch,30.404394,103.454652
知识科普型,博物馆,52125668,四川省三都博物馆,4.5,2,华阳/海昌极地海洋公园,成都,成都 · 华阳/海昌极地海洋公园,,,,"博物馆, 博物馆&展馆",免费,是,https://dimg04.c-ctrip.com/images/01017120009wddr5vCE12.jpg,https://you.ctrip.com/sight/chengdu104/4658057.html?scene=onlinesearch,30.531399,104.047311
知识科普型,博物馆,24652931,四川丝绸博物馆,4.3,7,新都大学城,成都,成都 · 新都大学城,,,,"博物馆, 博物馆&展馆",,否,https://dimg04.c-ctrip.com/images/0103z1200092mf8ou604F.jpg,https://you.ctrip.com/sight/chengdu104/1833771.html?scene=onlinesearch,30.785702,104.137406
知识科普型,博物馆,145579450,宜宾竹文化博物馆,0.0,0,临港新天地/宜宾大学城,宜宾,宜宾 · 临港新天地/宜宾大学城,,,,博物馆&展馆,,否,https://dimg04.c-ctrip.com/images/0HJ1e12000g2vo50u8BCA.jpg,https://you.ctrip.com/sight/yibin278/145579450.html?scene=onlinesearch,28.800647,104.688719
知识科普型,博物馆,149967273,多媒体投影大立人解读(三星堆博物馆新馆),0.0,0,,广汉,广汉,,,,博物馆&展馆,,否,https://dimg04.c-ctrip.com/images/0100o12000iz16kyxC87A.jpg,https://you.ctrip.com/sight/guanghan1349/149967273.html?scene=onlinesearch,31.008003,104.226038
知识科普型,博物馆,79004624,阆中王皮影艺术博物馆,4.5,4,,阆中,阆中,,,,"博物馆, 博物馆&展馆",免费,是,https://dimg04.c-ctrip.com/images/0103h12000gjoqhgw8EC1.png,https://you.ctrip.com/sight/langzhong831/5700950.html?scene=onlinesearch,31.579709,105.979893
知识科普型,博物馆,145290365,达州钢琴博物馆,0.0,0,升华广场/汽车南站,达州,达州 · 升华广场/汽车南站,,,,博物馆&展馆,,否,https://dimg04.c-ctrip.com/images/1me0e12000fizn7itBFF5.jpg,https://you.ctrip.com/sight/dazhou910/145290365.html?scene=onlinesearch,31.186917,107.523949
知识科普型,博物馆,39210715,蜀南竹海旅游度假区博物馆,5.0,3,蜀南竹海,长宁,长宁 · 蜀南竹海,,,,"博物馆, 博物馆&展馆",,否,https://dimg04.c-ctrip.com/images/01050120008s7cd4cEF08.jpg,https://you.ctrip.com/sight/changning3114/3392976.html?scene=onlinesearch,28.467421,104.988603
知识科普型,博物馆,18588072,成都市青白江区博物馆,4.7,26,青白江/国际物流港,成都,成都 · 青白江/国际物流港,,,,"博物馆, 博物馆&展馆",免费,是,https://dimg04.c-ctrip.com/images/0100h120009p5t55dF67C.jpg,https://you.ctrip.com/sight/chengdu104/1682296.html?scene=onlinesearch,30.900619,104.28763
知识科普型,博物馆,145539667,瓦屋山大熊猫国家公园博物馆,0.0,0,,洪雅,洪雅,,,,博物馆&展馆,,否,https://dimg04.c-ctrip.com/images/0HJ5612000g66mxs568C7.jpg,https://you.ctrip.com/sight/hongya3096/145539667.html?scene=onlinesearch,29.685525,103.008103
知识科普型,博物馆,144186587,剑南春酒史博物馆,0.0,0,,绵竹,绵竹,,,,博物馆&展馆,,否,https://dimg04.c-ctrip.com/images/0HJ2z12000g2w6nuyFF0D.jpg,https://you.ctrip.com/sight/mianzhu1446217/144186587.html?scene=onlinesearch,31.34186,104.192555
知识科普型,博物馆,105418381,四川监狱博物馆,0.0,0,,眉山,眉山,,,,"博物馆, 博物馆&展馆",免费,是,https://dimg04.c-ctrip.com/images/0HJ5g12000g6p6g1q776D.jpg,https://you.ctrip.com/sight/meishan914/105418381.html?scene=onlinesearch,30.179998,103.864201
知识科普型,博物馆,23866656,中国绸都丝绸博物馆,5.0,5,,南充,南充,,,,"博物馆, 博物馆&展馆",免费,是,https://dimg04.c-ctrip.com/images/01027120009nyaxbl1BD9.jpg,https://you.ctrip.com/sight/nanchong782/1788481.html?scene=onlinesearch,30.753867,106.042584
知识科普型,博物馆,148631171,成都博物馆新馆-一层特展厅,0.0,0,天府广场/成都博物馆,成都,成都 · 天府广场/成都博物馆,,,,,,否,https://dimg04.c-ctrip.com/images/1me4i12000cu1txoz6F30.jpg,https://you.ctrip.com/sight/chengdu104/148631171.html?scene=onlinesearch,30.663645,104.070106
知识科普型,博物馆,148528982,萤火虫微博物馆,5.0,1,天台山景区,邛崃,邛崃 · 天台山景区,,,,"博物馆, 博物馆&展馆",,否,https://dimg04.c-ctrip.com/images/1me4412000fjdo9ch11FE.jpg,https://you.ctrip.com/sight/qionglai1403/148528982.html?scene=onlinesearch,30.28845,103.143074
知识科普型,博物馆,10543803,汉崖墓博物馆,0.0,0,,眉山,眉山,,,,"博物馆, 博物馆&展馆",,否,https://dimg04.c-ctrip.com/images/0104m12000dfct7nvEE86.jpg,https://you.ctrip.com/sight/meishan914/128141.html?scene=onlinesearch,30.222687,103.912385
知识科普型,博物馆,90498457,郫都区豆瓣博物馆,4.0,3,,成都,成都,,,,"博物馆, 博物馆&展馆",,否,https://dimg04.c-ctrip.com/images/0102z12000941dltiD93F.jpg,https://you.ctrip.com/sight/chengdu104/90498457.html?scene=onlinesearch,30.945191,103.79953
知识科普型,博物馆,51710001,泸州石刻艺术博物馆,0.0,0,,泸州,泸州,,,,"特色展馆, 博物馆&展馆",免费,是,https://dimg04.c-ctrip.com/images/0101612000f1wh7xq234A.jpg,https://you.ctrip.com/sight/luzhou604/4597396.html?scene=onlinesearch,28.918073,105.47555
知识科普型,博物馆,140851668,成都大运会博物馆,4.7,3,龙泉驿地区/大运会体育中心,成都,成都 · 龙泉驿地区/大运会体育中心,,,,"博物馆, 博物馆&展馆",免费,是,https://dimg04.c-ctrip.com/images/0100412000c9m6rfrE554.jpg,https://you.ctrip.com/sight/chengdu104/140851668.html?scene=onlinesearch,30.600942,104.256402
知识科普型,博物馆,51866876,战时故宫博物馆,4.0,1,,乐山,乐山,,,,"博物馆, 博物馆&展馆",,否,https://dimg04.c-ctrip.com/images/0104e12000cpe5h3g8A61.jpg,https://you.ctrip.com/sight/leshan103/4620053.html?scene=onlinesearch,29.513292,103.674092
知识科普型,博物馆,79437622,大英汉陶博物馆(天星大道),5.0,3,,大英,大英,,,,"博物馆, 博物馆&展馆",免费,是,https://dimg04.c-ctrip.com/images/0101l12000co1xr4f3354.jpg,https://you.ctrip.com/sight/daying1395/5704041.html?scene=onlinesearch,30.611551,105.24872
知识科普型,博物馆,148622521,双流区追蝶记蝴蝶博物馆,5.0,1,海滨城/双流体育中心,成都,成都 · 海滨城/双流体育中心,,,,博物馆&展馆,,否,https://dimg04.c-ctrip.com/images/1me3i12000fp17jfb4F9C.jpg,https://you.ctrip.com/sight/chengdu104/148622521.html?scene=onlinesearch,30.554987,103.914631
知识科普型,博物馆,79437642,盐亭县博物馆,4.5,2,,盐亭,盐亭,,,,"博物馆, 博物馆&展馆",免费,是,https://dimg04.c-ctrip.com/images/10031f000001g8gur9951.png,https://you.ctrip.com/sight/yanting1446229/5704033.html?scene=onlinesearch,31.213436,105.395124
知识科普型,博物馆,144217018,中江县博物馆,0.0,0,,中江,中江,,,,博物馆&展馆,,否,https://dimg04.c-ctrip.com/images/0HJ5212000g90oufv0169.jpg,https://you.ctrip.com/sight/zhongjiang3155/144217018.html?scene=onlinesearch,31.032374,104.66656
知识科普型,博物馆,24980611,刘文辉旧居陈列馆,0.0,54,安仁古镇,大邑,大邑 · 安仁古镇,,,了解刘文辉将军生平,历史建筑,门票,否,https://dimg04.c-ctrip.com/images/35081b000001a7vla3105.jpg,https://you.ctrip.com/sight/dayi3130/1837693.html?scene=onlinesearch,30.515903,103.633484
知识科普型,博物馆,10793208,天工开物文化旅游景区,4.9,153,乐山高铁站/世豪广场/万达广场,乐山,乐山 · 乐山高铁站/世豪广场/万达广场,,,赏水晶宝石，领略佛教文化,"博物馆, 博物馆&展馆",门票,否,https://dimg04.c-ctrip.com/images/100q1f000001grjzfD4E2.jpg,https://you.ctrip.com/sight/leshan103/1409026.html?scene=onlinesearch,29.621598,103.710467
知识科普型,博物馆,10524160,犍为县文庙博物馆,4.7,105,,犍为,犍为,,,古建筑群规模大，石刻精美,历史建筑,,否,https://dimg04.c-ctrip.com/images/0104k120008ov06j64CC0.jpg,https://you.ctrip.com/sight/qianweicounty3118/127748.html?scene=onlinesearch,29.210407,103.958775
知识科普型,博物馆,10795362,苍溪梨博园,4.4,48,,苍溪,苍溪,,4A,赏花吃梨了解梨乡文化,,门市价,否,https://dimg04.c-ctrip.com/images/100p1f000001gpffl3F42.jpg,https://you.ctrip.com/sight/cangxi3111/70415.html?scene=onlinesearch,31.788593,105.953625
知识科普型,博物馆,72831656,理塘康巴人博物馆,5.0,73,,理塘,理塘,,,,"博物馆, 博物馆&展馆",免费,是,https://dimg04.c-ctrip.com/images/100o190000015sw6hD9CD.jpg,https://you.ctrip.com/sight/litang3150/5659345.html?scene=onlinesearch,30.00019,100.274255
知识科普型,博物馆,38381785,中国成都国际赛车博物馆,5.0,3,三圣花乡/华西附二院锦江院区,成都,成都 · 三圣花乡/华西附二院锦江院区,,,,"博物馆, 博物馆&展馆",,否,https://dimg04.c-ctrip.com/images/0585p12000b241zy97F60.jpg,https://you.ctrip.com/sight/chengdu104/2571846.html?scene=onlinesearch,30.590894,104.127452
知识科普型,博物馆,70531619,失恋博物馆(泸州万象汇店),0.0,0,华润万象汇购物中心,泸州,泸州 · 华润万象汇购物中心,,,,"特色展馆, 博物馆&展馆",,否,https://dimg04.c-ctrip.com/images/100j1d000001e8cdc59A1.png,https://you.ctrip.com/sight/luzhou604/5621375.html?scene=onlinesearch,28.899995,105.417122
知识科普型,博物馆,90498483,竹编博物馆,4.5,2,,崇州,崇州,,,,"博物馆, 博物馆&展馆",,否,https://dimg04.c-ctrip.com/images/0105l12000a51ne9rAF60.jpg,https://you.ctrip.com/sight/chongzhou909/90498483.html?scene=onlinesearch,30.65736,103.59746
知识科普型,博物馆,79438883,万安博物馆,0.0,0,,广元,广元,,,,"博物馆, 博物馆&展馆",免费,是,https://dimg04.c-ctrip.com/images/0105712000cnghv8h3009.jpg,https://you.ctrip.com/sight/guangyuan593/5705233.html?scene=onlinesearch,32.422919,105.865659
知识科普型,博物馆,79438846,中医药传统文化博物馆,0.0,0,郫县地区,成都,成都 · 郫县地区,,,,"博物馆, 博物馆&展馆",免费,是,https://dimg04.c-ctrip.com/images/0HJ3412000g6msfe32546.jpg,https://you.ctrip.com/sight/chengdu104/5705215.html?scene=onlinesearch,30.744317,103.962052
知识科普型,博物馆,79437611,成都中医药大学博物馆,4.9,8,国色天乡乐园/温江大学城,成都,成都 · 国色天乡乐园/温江大学城,,,,"博物馆, 博物馆&展馆",,否,https://dimg04.c-ctrip.com/images/0106912000c4io5pe5267.jpg,https://you.ctrip.com/sight/chengdu104/5704021.html?scene=onlinesearch,30.691949,103.813027
知识科普型,博物馆,143732627,绵竹大唐博物馆,0.0,0,,绵竹,绵竹,,,,"博物馆, 博物馆&展馆",免费,是,https://dimg04.c-ctrip.com/images/0HJ0412000g8yhgmbE306.jpg,https://you.ctrip.com/sight/mianzhu1446217/143732627.html?scene=onlinesearch,31.307571,104.232604
知识科普型,博物馆,145290320,达州市达川区博物馆,0.0,0,城市中心广场,达州,达州 · 城市中心广场,,,,博物馆&展馆,,否,https://dimg04.c-ctrip.com/images/0105m12000e6owy5v4C82.jpg,https://you.ctrip.com/sight/dazhou910/145290320.html?scene=onlinesearch,31.222918,107.529461
知识科普型,博物馆,39809914,青川县博物馆,5.0,35,,青川,青川,,,,"博物馆, 博物馆&展馆",,否,https://dimg04.c-ctrip.com/images/1mh6212000gnoe9yv17F4.jpg,https://you.ctrip.com/sight/qingchuan1446240/3986575.html?scene=onlinesearch,32.587312,105.247139
知识科普型,博物馆,79438879,晏阳初博物馆,5.0,1,,巴中,巴中,,,,"博物馆, 博物馆&展馆",免费,是,https://dimg04.c-ctrip.com/images/0102n12000co7cjp4A5E7.jpg,https://you.ctrip.com/sight/bazhong703/5705248.html?scene=onlinesearch,31.839604,106.785557
知识科普型,博物馆,148767106,稻城县亚丁香巴拉文化博物馆,0.0,0,亚丁村,稻城,稻城 · 亚丁村,,,,博物馆&展馆,,否,https://dimg04.c-ctrip.com/images/0101f12000f69aq607552.png,https://you.ctrip.com/sight/daocheng342/148767106.html?scene=onlinesearch,28.458537,100.346673
知识科普型,博物馆,31661462,西部客家博物馆,4.4,6,蔚然花海/洛带古镇,成都,成都 · 蔚然花海/洛带古镇,,,,"博物馆, 博物馆&展馆",免费,是,https://dimg04.c-ctrip.com/images/0106g12000bqj0f22C307.jpg,https://you.ctrip.com/sight/chengdu104/2029395.html?scene=onlinesearch,30.640873,104.336012
知识科普型,博物馆,39487800,泸州河川剧艺术博物馆,0.0,0,水井沟步行街,泸州,泸州 · 水井沟步行街,,,,"特色展馆, 博物馆&展馆",,否,https://dimg04.c-ctrip.com/images/01A2w12000acu89zd42B6.jpg,https://you.ctrip.com/sight/luzhou604/3667561.html?scene=onlinesearch,28.900964,105.459707
知识科普型,博物馆,79437661,遂宁市安居区博物馆,4.5,2,,遂宁,遂宁,,,,"博物馆, 博物馆&展馆",免费,是,https://dimg04.c-ctrip.com/images/0101b12000bs732wcE153.jpg,https://you.ctrip.com/sight/suining605/5704050.html?scene=onlinesearch,30.358209,105.449135
知识科普型,博物馆,143365599,漫咔萌猫咪博物馆（成都合生汇店）,4.0,1,国色天乡乐园/温江大学城,成都,成都 · 国色天乡乐园/温江大学城,,,,博物馆&展馆,,否,https://dimg04.c-ctrip.com/images/1me6a12000f32t2kfA441.jpg,https://you.ctrip.com/sight/chengdu104/143365599.html?scene=onlinesearch,30.691539,103.869821
知识科普型,博物馆,145276139,合江县汉代画像石棺博物馆,3.0,1,,合江,合江,,,,博物馆&展馆,,否,https://dimg04.c-ctrip.com/images/0106o12000f2svcpv7BB7.jpg,https://you.ctrip.com/sight/hejiang3093/145276139.html?scene=onlinesearch,28.807888,105.844536
知识科普型,博物馆,105418356,泸州市长江博物馆,5.0,1,,合江,合江,,,,"博物馆, 博物馆&展馆",免费,是,https://dimg04.c-ctrip.com/images/0104o12000au662fb1755.jpg,https://you.ctrip.com/sight/hejiang3093/105418356.html?scene=onlinesearch,28.757276,105.642943
知识科普型,博物馆,145410436,四川移民博物馆(吴氏宗祠),0.0,0,,三台,三台,,,,博物馆&展馆,,否,https://dimg04.c-ctrip.com/images/1me1u12000dv61b77FEF1.jpg,https://you.ctrip.com/sight/santai3148/145410436.html?scene=onlinesearch,31.024871,104.86767
知识科普型,博物馆,79436402,荥经县博物馆,4.5,2,,荥经,荥经,,,,"博物馆, 博物馆&展馆",免费,是,https://dimg04.c-ctrip.com/images/0105j12000dh6e04kA6F2.jpg,https://you.ctrip.com/sight/yingjing1446235/5702813.html?scene=onlinesearch,29.801781,102.831919
知识科普型,博物馆,145574540,地质博物馆,0.0,0,长坪沟景区/民族风情街,小金,小金 · 长坪沟景区/民族风情街,,,,博物馆&展馆,,否,https://dimg04.c-ctrip.com/images/0HJ3512000g672xw8BEF6.jpg,https://you.ctrip.com/sight/xiaojin3110/145574540.html?scene=onlinesearch,31.004246,102.851631
知识科普型,博物馆,72830805,喜马拉雅之声微博物馆,5.0,87,,理塘,理塘,,,,"博物馆, 博物馆&展馆",,否,https://dimg04.c-ctrip.com/images/0106r120008da2sgv04E3.jpg,https://you.ctrip.com/sight/litang3150/5659347.html?scene=onlinesearch,30.007731,100.279832
知识科普型,博物馆,145257895,南江县博物馆,0.0,0,,南江,南江,,,,博物馆&展馆,免费,是,https://dimg04.c-ctrip.com/images/0HJ5a12000g6b4en17612.jpg,https://you.ctrip.com/sight/nanjiang3109/145257895.html?scene=onlinesearch,32.352279,106.83245
知识科普型,博物馆,22866145,西昌地震碑林博物馆,5.0,13,邛海西度假区,西昌,西昌 · 邛海西度假区,,,,"博物馆, 博物馆&展馆",,否,https://dimg04.c-ctrip.com/images/0100s12000cmyd3uuB45E.jpg,https://you.ctrip.com/sight/xichang592/1713495.html?scene=onlinesearch,27.837432,102.276873
知识科普型,博物馆,79437675,遂宁观音文化博物馆,0.0,0,船山区政府/市中心医院,遂宁,遂宁 · 船山区政府/市中心医院,,,,"博物馆, 博物馆&展馆",免费,是,https://dimg04.c-ctrip.com/images/0100y12000c3qwqbnF316.jpg,https://you.ctrip.com/sight/suining605/5704008.html?scene=onlinesearch,30.529415,105.564389
知识科普型,博物馆,79437671,望丛玉器博物馆,5.0,1,郫县地区,成都,成都 · 郫县地区,,,,"博物馆, 博物馆&展馆",免费,是,https://dimg04.c-ctrip.com/images/0105x12000cqvgd9y593F.jpg,https://you.ctrip.com/sight/chengdu104/5704061.html?scene=onlinesearch,30.815298,103.881657
知识科普型,博物馆,51971096,百家堂姓氏文化博物馆,3.0,1,蔚然花海/洛带古镇,成都,成都 · 蔚然花海/洛带古镇,,,,"博物馆, 博物馆&展馆",免费,是,https://dimg04.c-ctrip.com/images/0100y12000c7drl0p275D.jpg,https://you.ctrip.com/sight/chengdu104/4635298.html?scene=onlinesearch,30.641231,104.33661
知识科普型,博物馆,38531891,西坝窑博物馆,0.0,0,报国寺/峨眉山站,峨眉山,峨眉山 · 报国寺/峨眉山站,,,,"博物馆, 博物馆&展馆",,否,https://dimg04.c-ctrip.com/images/0HJ3312000g6zd36jA55F.jpg,https://you.ctrip.com/sight/emeishan24/2720652.html?scene=onlinesearch,29.582297,103.47756
知识科普型,博物馆,38456510,中国蚕桑文化博物馆,0.0,0,,南充,南充,,,,"博物馆, 博物馆&展馆",,否,https://dimg04.c-ctrip.com/images/0102a1200096x5gb6840E.png,https://you.ctrip.com/sight/nanchong782/2646071.html?scene=onlinesearch,30.872929,106.080092
知识科普型,博物馆,79437716,成都大珍堂博物馆,0.0,0,双流国际机场/空港花田,成都,成都 · 双流国际机场/空港花田,,,,"博物馆, 博物馆&展馆",,否,https://dimg04.c-ctrip.com/images/0104y12000c08fm3f6685.jpg,https://you.ctrip.com/sight/chengdu104/5704062.html?scene=onlinesearch,30.581619,104.006688
知识科普型,博物馆,145691363,屏山县综合博物馆,0.0,0,,屏山,屏山,,,,博物馆&展馆,,否,https://dimg04.c-ctrip.com/images/0HJ7012000g32vhhyBE92.jpg,https://you.ctrip.com/sight/pingshan1446238/145691363.html?scene=onlinesearch,28.838981,104.35622
知识科普型,博物馆,145186828,傈僳族祖居圣地民俗博物馆,0.0,0,,米易,米易,,,,博物馆&展馆,,否,https://dimg04.c-ctrip.com/images/0HJ2612000g2tb31o5F31.jpg,https://you.ctrip.com/sight/miyi3097/145186828.html?scene=onlinesearch,26.813579,102.17193
知识科普型,博物馆,145362295,建昌景绣博物馆,0.0,0,,西昌,西昌,,,,博物馆&展馆,,否,https://dimg04.c-ctrip.com/images/0HJ4a12000g6iy2264014.jpg,https://you.ctrip.com/sight/xichang592/145362295.html?scene=onlinesearch,27.899913,102.281596
知识科普型,博物馆,145128811,南溪博物馆,0.0,0,,宜宾,宜宾,,,,博物馆&展馆,,否,https://dimg04.c-ctrip.com/images/1me3212000gqveh3eBCA9.jpg,https://you.ctrip.com/sight/yibin278/145128811.html?scene=onlinesearch,28.828578,104.967857
知识科普型,博物馆,79437676,汉轩民俗艺术博物馆,0.0,0,海滨城/双流体育中心,成都,成都 · 海滨城/双流体育中心,,,,"特色展馆, 博物馆&展馆",,否,https://dimg04.c-ctrip.com/images/0104612000c8f8qlr3C41.jpg,https://you.ctrip.com/sight/chengdu104/5704060.html?scene=onlinesearch,30.550177,103.864545
知识科普型,博物馆,143731982,都江堰市开瓶器博物馆,0.0,0,都江堰景区及周边,都江堰,都江堰 · 都江堰景区及周边,,,,"博物馆, 博物馆&展馆",,否,https://dimg04.c-ctrip.com/images/0100h12000de44b3qC9D2.jpg,https://you.ctrip.com/sight/dujiangyan911/143731982.html?scene=onlinesearch,31.003486,103.620863
知识科普型,博物馆,38380492,中国酒文化博物馆,0.0,0,花水湾温泉度假区,大邑,大邑 · 花水湾温泉度假区,,,,"博物馆, 博物馆&展馆",,否,https://dimg04.c-ctrip.com/images/0585s12000b246u0v7D77.jpg,https://you.ctrip.com/sight/dayi3130/2570553.html?scene=onlinesearch,30.588407,103.305604
知识科普型,博物馆,51818704,中国藤椒博物馆,4.0,1,,洪雅,洪雅,,,,"博物馆, 博物馆&展馆",,否,https://dimg04.c-ctrip.com/images/0101o12000auhgo9eBFFE.jpg,https://you.ctrip.com/sight/hongya3096/4613199.html?scene=onlinesearch,29.896961,103.33957
知识科普型,博物馆,145204972,罗江县博物馆,0.0,0,,德阳,德阳,,,,博物馆&展馆,,否,https://dimg04.c-ctrip.com/images/0HJ3012000g8tucosAC36.jpg,https://you.ctrip.com/sight/deyang462/145204972.html?scene=onlinesearch,31.310263,104.521076
知识科普型,博物馆,145381088,江油市博物馆(江油红军文物陈列展厅),0.0,0,,江油,江油,,,,博物馆&展馆,,否,https://dimg04.c-ctrip.com/images/0HJ5212000g8j2xlt0483.jpg,https://you.ctrip.com/sight/jiangyou1037/145381088.html?scene=onlinesearch,31.791712,104.720235
知识科普型,博物馆,145712305,叙永县木雕石刻艺术博物馆(陈列室),0.0,0,,叙永,叙永,,,,博物馆&展馆,,否,https://dimg04.c-ctrip.com/images/0HJ3712000g8nxhv97D59.jpg,https://you.ctrip.com/sight/xuyong3133/145712305.html?scene=onlinesearch,28.161396,105.456147
知识科普型,博物馆,52077123,中国芝麻油博物馆,4.6,5,凤凰山体育公园/大丰,成都,成都 · 凤凰山体育公园/大丰,,,,"博物馆, 博物馆&展馆",,否,https://dimg04.c-ctrip.com/images/1A0o16000000ytsuuA5C5.jpg,https://you.ctrip.com/sight/chengdu104/4651357.html?scene=onlinesearch,30.894471,103.994373
知识科普型,博物馆,133528169,荥窑博物馆,0.0,0,天府新区/西博城地区,成都,成都 · 天府新区/西博城地区,,,,"博物馆, 博物馆&展馆",,否,https://dimg04.c-ctrip.com/images/0106o12000bztrmy69268.jpg,https://you.ctrip.com/sight/chengdu104/57710322.html?scene=onlinesearch,30.404363,104.048997
知识科普型,博物馆,145427339,三农博物馆,0.0,0,天府大道南延线地区,成都,成都 · 天府大道南延线地区,,,,博物馆&展馆,,否,https://dimg04.c-ctrip.com/images/0HJ0o12000g8yrhoiD763.jpg,https://you.ctrip.com/sight/chengdu104/145427339.html?scene=onlinesearch,30.342098,104.098307
知识科普型,博物馆,87897896,百姓博物馆,3.7,3,街子古镇,崇州,崇州 · 街子古镇,,,,"博物馆, 博物馆&展馆",,否,https://dimg04.c-ctrip.com/images/10081g000001hculs6A83.jpg,https://you.ctrip.com/sight/chongzhou909/5709227.html?scene=onlinesearch,30.821106,103.5756
知识科普型,博物馆,145183454,荥经茶厂博物馆(雅安藏茶),0.0,0,,荥经,荥经,,,,博物馆&展馆,,否,https://dimg04.c-ctrip.com/images/0HJ3512000g2wbzrm534B.jpg,https://you.ctrip.com/sight/yingjing1446235/145183454.html?scene=onlinesearch,29.812464,102.850402
知识科普型,博物馆,148647980,四川天府新区明昌博物馆华阳文博馆,0.0,0,华阳/海昌极地海洋公园,成都,成都 · 华阳/海昌极地海洋公园,,,,博物馆&展馆,,否,https://dimg04.c-ctrip.com/images/0HJ1h12000g8xksnm0CCA.jpg,https://you.ctrip.com/sight/chengdu104/148647980.html?scene=onlinesearch,30.500652,104.050292
知识科普型,博物馆,114466649,民俗博物馆,4.0,1,,理县,理县,,,,"博物馆, 博物馆&展馆",免费,是,https://dimg04.c-ctrip.com/images/0106s12000ckr0y5t9A19.jpg,https://you.ctrip.com/sight/licounty1445566/5714822.html?scene=onlinesearch,31.558491,103.319852
知识科普型,博物馆,52079243,文清古蜀农耕文化博物馆,0.0,0,海滨城/双流体育中心,成都,成都 · 海滨城/双流体育中心,,,,"博物馆, 博物馆&展馆",,否,https://dimg04.c-ctrip.com/images/0106812000cqvo1dvE446.jpg,https://you.ctrip.com/sight/chengdu104/4647915.html?scene=onlinesearch,30.561256,103.914981
知识科普型,博物馆,145312472,民俗博物馆,0.0,0,,九寨沟,九寨沟,,,,博物馆&展馆,,否,https://dimg04.c-ctrip.com/images/0HJ1g12000g8whj97EB21.jpg,https://you.ctrip.com/sight/jiuzhaigou25/145312472.html?scene=onlinesearch,33.204447,103.901051
知识科普型,博物馆,145682037,凸酒博物馆,0.0,0,,南充,南充,,,,博物馆&展馆,,否,https://dimg04.c-ctrip.com/images/0HJ0l12000g91v4sx8F3C.jpg,https://you.ctrip.com/sight/nanchong782/145682037.html?scene=onlinesearch,30.762577,106.013062
知识科普型,博物馆,145637307,会理电影博物馆,0.0,0,,会理,会理,,,,博物馆&展馆,,否,https://dimg04.c-ctrip.com/images/0HJ1h12000g6mi3wo31E3.jpg,https://you.ctrip.com/sight/huili3106/145637307.html?scene=onlinesearch,26.664487,102.255325
知识科普型,博物馆,145192234,江奎艺术博物馆,0.0,0,,绵竹,绵竹,,,,博物馆&展馆,,否,https://dimg04.c-ctrip.com/images/0HJ3412000g2sm22e12EB.jpg,https://you.ctrip.com/sight/mianzhu1446217/145192234.html?scene=onlinesearch,31.35085,104.224298
知识科普型,博物馆,145216607,璞石和田玉博物馆,0.0,0,红牌楼/大悦城商业区,成都,成都 · 红牌楼/大悦城商业区,,,,博物馆&展馆,,否,https://dimg04.c-ctrip.com/images/0HJ6n12000g30lfoc9F29.jpg,https://you.ctrip.com/sight/chengdu104/145216607.html?scene=onlinesearch,30.613151,103.985989
知识科普型,博物馆,145630760,成都市人华奇石博物馆,0.0,0,国色天乡乐园/温江大学城,成都,成都 · 国色天乡乐园/温江大学城,,,,博物馆&展馆,,否,https://dimg04.c-ctrip.com/images/0HJ2q12000g6u88ns279B.jpg,https://you.ctrip.com/sight/chengdu104/145630760.html?scene=onlinesearch,30.722222,103.824094
知识科普型,博物馆,148546718,嘉绒吉岗擦擦博物馆,0.0,0,,马尔康,马尔康,,,,博物馆&展馆,,否,https://dimg04.c-ctrip.com/images/0HJ6l12000g6hhmo5F91E.jpg,https://you.ctrip.com/sight/barkam913/148546718.html?scene=onlinesearch,32.213736,102.109651
知识科普型,博物馆,38380248,雄龙天工根石博物馆,5.0,1,郫县地区,成都,成都 · 郫县地区,,,,"博物馆, 博物馆&展馆",,否,https://dimg04.c-ctrip.com/images/0584q12000b242kxa3A65.jpg,https://you.ctrip.com/sight/chengdu104/2570309.html?scene=onlinesearch,30.884125,103.880512
知识科普型,博物馆,51971097,齐盛当代艺术博物馆,0.0,0,蔚然花海/洛带古镇,成都,成都 · 蔚然花海/洛带古镇,,,,"特色展馆, 博物馆&展馆",,否,https://dimg04.c-ctrip.com/images/0102o12000gddahu659D0.jpg,https://you.ctrip.com/sight/chengdu104/4635299.html?scene=onlinesearch,30.644015,104.330107
知识科普型,博物馆,144099941,中外酒器博物馆(长安街),0.0,0,黄龙溪古镇/欢乐田园,成都,成都 · 黄龙溪古镇/欢乐田园,,,,博物馆&展馆,,否,https://dimg04.c-ctrip.com/images/0HJ5l12000g6r7dlb8C21.jpg,https://you.ctrip.com/sight/chengdu104/144099941.html?scene=onlinesearch,30.417126,103.987841
知识科普型,博物馆,145581793,微型通信博物馆,0.0,0,339天府熊猫塔/望平街,成都,成都 · 339天府熊猫塔/望平街,,,,博物馆&展馆,,否,https://dimg04.c-ctrip.com/images/0HJ6812000g8ri50z8D1E.jpg,https://you.ctrip.com/sight/chengdu104/145581793.html?scene=onlinesearch,30.672993,104.085261
知识科普型,博物馆,145652938,时光记忆博物馆,0.0,0,青白江/国际物流港,成都,成都 · 青白江/国际物流港,,,,博物馆&展馆,,否,https://dimg04.c-ctrip.com/images/0HJ0y12000g91xoi447B5.jpg,https://you.ctrip.com/sight/chengdu104/145652938.html?scene=onlinesearch,30.887794,104.320256
知识科普型,博物馆,148550711,浮动博物馆FMP Plant Labo,0.0,0,龙泉驿地区/大运会体育中心,成都,成都 · 龙泉驿地区/大运会体育中心,,,,博物馆&展馆,,否,https://dimg04.c-ctrip.com/images/0HJ2612000g8m25i0550D.jpg,https://you.ctrip.com/sight/chengdu104/148550711.html?scene=onlinesearch,30.575734,104.175159
知识科普型,博物馆,87559,自贡恐龙博物馆,4.5,6023,方特恐龙王国/恐龙博物馆,自贡,自贡 · 方特恐龙王国/恐龙博物馆,,4A,"恐龙化石群遗址, 被誉为""东方龙宫"", 恐龙世界再现","展馆展览, 遛娃宝藏地",门市价,否,https://dimg04.c-ctrip.com/images/0106g12000hzj42489D6F.jpg,https://you.ctrip.com/sight/zigong575/63819.html?scene=onlinesearch,29.401733,104.835515
知识科普型,博物馆,24651482,泸州博物馆,4.6,55,水井沟步行街,泸州,泸州 · 水井沟步行街,,,了解泸州市的历史,"博物馆, 博物馆&展馆",免费,是,https://dimg04.c-ctrip.com/images/100i1h000001hljli38E4.jpg,https://you.ctrip.com/sight/luzhou604/1832327.html?scene=onlinesearch,28.879088,105.438613
知识科普型,博物馆,15139161,华希昆虫博物馆,4.0,30,青城山前山景区及周边,都江堰,都江堰 · 青城山前山景区及周边,,,收藏有众多蝴蝶、昆虫标本,"博物馆, 博物馆&展馆",,否,https://dimg04.c-ctrip.com/images/0101k12000f6si1dh8892.jpg,https://you.ctrip.com/sight/dujiangyan911/1485004.html?scene=onlinesearch,30.901092,103.602653
知识科普型,博物馆,38507677,四川茂林博物馆,0.0,0,宽窄巷子/中医学院附近地区,成都,成都 · 宽窄巷子/中医学院附近地区,,,,"博物馆, 博物馆&展馆",,否,https://dimg04.c-ctrip.com/images/0106s12000cqvklrs13D4.jpg,https://you.ctrip.com/sight/chengdu104/2696538.html?scene=onlinesearch,30.679183,104.055194
知识科普型,博物馆,52077800,成都诚林金丝楠乌木博物馆,0.0,0,,邛崃,邛崃,,,,"博物馆, 博物馆&展馆",,否,https://dimg04.c-ctrip.com/images/0586l12000b24084kB18E.jpg,https://you.ctrip.com/sight/qionglai1403/4647766.html?scene=onlinesearch,30.401877,103.73099
知识科普型,博物馆,145158027,西昌建川电影博物馆聚落-电影声音馆,0.0,0,,西昌,西昌,,,,博物馆&展馆,门票,否,https://dimg04.c-ctrip.com/images/fd/tg/g1/M06/FC/24/CghzflW7H_iATdynAAA-FlXAIeA738.jpg,https://you.ctrip.com/sight/xichang592/145158027.html?scene=onlinesearch,27.888859,102.188855
知识科普型,博物馆,145505250,自贡博物院,0.0,0,,自贡,自贡,,,,,,否,https://dimg04.c-ctrip.com/images/fd/tg/g1/M06/FC/24/CghzflW7H_iATdynAAA-FlXAIeA738.jpg,https://you.ctrip.com/sight/zigong575/145505250.html?scene=onlinesearch,29.373949,104.779778
知识科普型,博物馆,144211019,绵阳科技博物馆球幕影院,0.0,0,富乐山地区,绵阳,绵阳 · 富乐山地区,,,,,,否,https://dimg04.c-ctrip.com/images/0102u1200086k28vc0A5C.jpg,https://you.ctrip.com/sight/mianyang915/144211019.html?scene=onlinesearch,31.485705,104.778337
知识科普型,博物馆,135104552,中国酒都酒文化博物馆,4.0,1,合江门/大观楼,宜宾,宜宾 · 合江门/大观楼,,,,"博物馆, 博物馆&展馆",免费,是,https://dimg04.c-ctrip.com/images/fd/tg/g1/M08/AE/87/CghzfVW7IAOAbNKNAABCrs7mUrY425.jpg,https://you.ctrip.com/sight/yibin278/135104552.html?scene=onlinesearch,28.776941,104.633967
知识科普型,博物馆,150268756,成都武侯祠博物馆-锦里中心,0.0,0,,成都,成都,,,,博物馆&展馆,,否,https://dimg04.c-ctrip.com/images/fd/tg/g1/M06/FC/24/CghzflW7H_iATdynAAA-FlXAIeA738.jpg,https://you.ctrip.com/sight/chengdu104/150268756.html?scene=onlinesearch,30.651127,104.056218
知识科普型,博物馆,150391976,蜀绣博物馆,0.0,0,,西昌,西昌,,,,博物馆&展馆,,否,https://dimg04.c-ctrip.com/images/fd/tg/g1/M06/FC/24/CghzflW7H_iATdynAAA-FlXAIeA738.jpg,https://you.ctrip.com/sight/xichang592/150391976.html?scene=onlinesearch,27.900044,102.28147
知识科普型,博物馆,145207363,恐龙化石博物馆,0.0,0,,峨眉山,峨眉山,,,,博物馆&展馆,,否,https://dimg04.c-ctrip.com/images/fd/tg/g1/M06/FC/24/CghzflW7H_iATdynAAA-FlXAIeA738.jpg,https://you.ctrip.com/sight/emeishan24/145207363.html?scene=onlinesearch,29.603084,103.546157
知识科普型,博物馆,38457207,阆中民间博物馆,0.0,0,,阆中,阆中,,,,"博物馆, 博物馆&展馆",,否,https://dimg04.c-ctrip.com/images/fd/tg/g1/M08/AE/87/CghzfVW7IAOAbNKNAABCrs7mUrY425.jpg,https://you.ctrip.com/sight/langzhong831/2646768.html?scene=onlinesearch,31.593747,105.982991
知识科普型,博物馆,145365213,宝兴县博物馆(土司官寨),0.0,0,,宝兴,宝兴,,,,博物馆&展馆,,否,https://dimg04.c-ctrip.com/images/fd/tg/g1/M06/FC/24/CghzflW7H_iATdynAAA-FlXAIeA738.jpg,https://you.ctrip.com/sight/baoxing3095/145365213.html?scene=onlinesearch,30.376516,102.820551
知识科普型,博物馆,145476049,大熊猫百图唐卡长卷博物馆,0.0,0,长坪沟景区/民族风情街,小金,小金 · 长坪沟景区/民族风情街,,,,博物馆&展馆,,否,https://dimg04.c-ctrip.com/images/fd/tg/g1/M06/FC/24/CghzflW7H_iATdynAAA-FlXAIeA738.jpg,https://you.ctrip.com/sight/xiaojin3110/145476049.html?scene=onlinesearch,31.006809,102.855163
知识科普型,博物馆,143748548,博物馆顺意园,0.0,0,,阆中,阆中,,,,,,否,https://dimg04.c-ctrip.com/images/fd/tg/g1/M08/AE/87/CghzfVW7IAOAbNKNAABCrs7mUrY425.jpg,https://you.ctrip.com/sight/langzhong831/143748548.html?scene=onlinesearch,31.583186,105.975539
知识科普型,博物馆,145714175,金沙遗址博物馆陈列馆-第四展厅千载遗珍,0.0,0,金沙遗址/一品天下,成都,成都 · 金沙遗址/一品天下,,,,,,否,https://dimg04.c-ctrip.com/images/fd/tg/g1/M06/FC/24/CghzflW7H_iATdynAAA-FlXAIeA738.jpg,https://you.ctrip.com/sight/chengdu104/145714175.html?scene=onlinesearch,30.68942,104.020575
知识科普型,博物馆,145226499,都江堰古陶博物馆,0.0,0,,都江堰,都江堰,,,,博物馆&展馆,,否,https://dimg04.c-ctrip.com/images/fd/tg/g1/M06/FC/24/CghzflW7H_iATdynAAA-FlXAIeA738.jpg,https://you.ctrip.com/sight/dujiangyan911/145226499.html?scene=onlinesearch,30.931486,103.619287
知识科普型,博物馆,145295566,换装博物馆(春熙茂业百货店),0.0,0,春熙路/太古里商业区,成都,成都 · 春熙路/太古里商业区,,,,博物馆&展馆,,否,https://dimg04.c-ctrip.com/images/fd/tg/g1/M06/FC/24/CghzflW7H_iATdynAAA-FlXAIeA738.jpg,https://you.ctrip.com/sight/chengdu104/145295566.html?scene=onlinesearch,30.66323,104.084881
知识科普型,博物馆,145404088,四川流动博物馆,0.0,0,杜甫草堂/省人民医院,成都,成都 · 杜甫草堂/省人民医院,,,,博物馆&展馆,,否,https://dimg04.c-ctrip.com/images/fd/tg/g1/M06/FC/24/CghzflW7H_iATdynAAA-FlXAIeA738.jpg,https://you.ctrip.com/sight/chengdu104/145404088.html?scene=onlinesearch,30.667501,104.040859
知识科普型,博物馆,145471169,建川博物馆纪念报纸展销中心,0.0,0,安仁古镇,大邑,大邑 · 安仁古镇,,,,博物馆&展馆,,否,https://dimg04.c-ctrip.com/images/fd/tg/g1/M06/FC/24/CghzflW7H_iATdynAAA-FlXAIeA738.jpg,https://you.ctrip.com/sight/dayi3130/145471169.html?scene=onlinesearch,30.505126,103.626139
知识科普型,博物馆,145461351,金沙遗址博物馆陈列馆-第三展厅天地不绝,0.0,0,金沙遗址/一品天下,成都,成都 · 金沙遗址/一品天下,,,,,,否,https://dimg04.c-ctrip.com/images/fd/tg/g1/M06/FC/24/CghzflW7H_iATdynAAA-FlXAIeA738.jpg,https://you.ctrip.com/sight/chengdu104/145461351.html?scene=onlinesearch,30.689113,104.020964
知识科普型,博物馆,145174035,四川建川博物馆聚落-观光车钓鱼台站,0.0,0,安仁古镇,大邑,大邑 · 安仁古镇,,,,,,否,https://dimg04.c-ctrip.com/images/fd/tg/g1/M06/FC/24/CghzflW7H_iATdynAAA-FlXAIeA738.jpg,https://you.ctrip.com/sight/dayi3130/145174035.html?scene=onlinesearch,30.504805,103.625572
知识科普型,博物馆,148579202,杜鹃花博物馆,0.0,0,,泸定,泸定,,,,博物馆&展馆,,否,https://dimg04.c-ctrip.com/images/fd/tg/g1/M06/FC/24/CghzflW7H_iATdynAAA-FlXAIeA738.jpg,https://you.ctrip.com/sight/luding2059/148579202.html?scene=onlinesearch,29.591914,102.034438
知识科普型,博物馆,145245133,失恋博物馆,0.0,0,华阳/海昌极地海洋公园,成都,成都 · 华阳/海昌极地海洋公园,,,,博物馆&展馆,,否,https://dimg04.c-ctrip.com/images/fd/tg/g1/M06/FC/24/CghzflW7H_iATdynAAA-FlXAIeA738.jpg,https://you.ctrip.com/sight/chengdu104/145245133.html?scene=onlinesearch,30.502443,104.061496
知识科普型,博物馆,143714570,全国民间博物馆馆长联谊会展览中心,0.0,0,黄龙溪古镇/欢乐田园,成都,成都 · 黄龙溪古镇/欢乐田园,,,,"特色展馆, 博物馆&展馆",,否,https://dimg04.c-ctrip.com/images/fd/tg/g2/M02/C5/09/Cghzf1W7IBCAU1soAAA1rXNRb5g042.jpg,https://you.ctrip.com/sight/chengdu104/143714570.html?scene=onlinesearch,30.32469,103.97658
知识科普型,博物馆,143742404,十二桥遗址,0.0,0,宽窄巷子/中医学院附近地区,成都,成都 · 宽窄巷子/中医学院附近地区,,,,历史建筑,,否,https://dimg04.c-ctrip.com/images/fd/tg/g1/M08/FC/24/CghzflW7IACAHgzUAAAvGcMqieg905.jpg,https://you.ctrip.com/sight/chengdu104/143742404.html?scene=onlinesearch,30.670194,104.050719
知识科普型,博物馆,145403138,威远县石板河旅游区地质博物馆,0.0,0,,威远,威远,,,,博物馆&展馆,,否,https://dimg04.c-ctrip.com/images/fd/tg/g1/M06/FC/24/CghzflW7H_iATdynAAA-FlXAIeA738.jpg,https://you.ctrip.com/sight/weiyuan3098/145403138.html?scene=onlinesearch,29.732618,104.531884
知识科普型,博物馆,145170019,中国羌族博物馆-小序厅,0.0,0,,茂县,茂县,,,,博物馆&展馆,,否,https://dimg04.c-ctrip.com/images/fd/tg/g1/M06/FC/24/CghzflW7H_iATdynAAA-FlXAIeA738.jpg,https://you.ctrip.com/sight/maocounty3164/145170019.html?scene=onlinesearch,31.680357,103.845914
知识科普型,博物馆,148690906,得荣民族博物馆,0.0,0,,得荣,得荣,,,,博物馆&展馆,,否,https://dimg04.c-ctrip.com/images/fd/tg/g1/M06/FC/24/CghzflW7H_iATdynAAA-FlXAIeA738.jpg,https://you.ctrip.com/sight/derong1446220/148690906.html?scene=onlinesearch,28.173896,99.398192
知识科普型,博物馆,145698164,标本博物馆荒石公园,0.0,0,环球中心/世纪城新会展,成都,成都 · 环球中心/世纪城新会展,,,,博物馆&展馆,,否,https://dimg04.c-ctrip.com/images/fd/tg/g1/M06/FC/24/CghzflW7H_iATdynAAA-FlXAIeA738.jpg,https://you.ctrip.com/sight/chengdu104/145698164.html?scene=onlinesearch,30.556695,104.053928
知识科普型,博物馆,145505579,黎山艺术吉他博物馆,0.0,0,都江堰景区及周边,都江堰,都江堰 · 都江堰景区及周边,,,,博物馆&展馆,,否,https://dimg04.c-ctrip.com/images/fd/tg/g1/M06/FC/24/CghzflW7H_iATdynAAA-FlXAIeA738.jpg,https://you.ctrip.com/sight/dujiangyan911/145505579.html?scene=onlinesearch,30.993862,103.669952
知识科普型,博物馆,145109516,汉安糖草博物馆,0.0,0,,内江,内江,,,,博物馆&展馆,,否,https://dimg04.c-ctrip.com/images/fd/tg/g1/M06/FC/24/CghzflW7H_iATdynAAA-FlXAIeA738.jpg,https://you.ctrip.com/sight/neijiang823/145109516.html?scene=onlinesearch,29.46873,105.045114
知识科普型,博物馆,79437705,大吉喜马拉雅博物馆,0.0,0,红牌楼/大悦城商业区,成都,成都 · 红牌楼/大悦城商业区,,,,"博物馆, 博物馆&展馆",,否,https://dimg04.c-ctrip.com/images/fd/tg/g1/M08/AE/87/CghzfVW7IAOAbNKNAABCrs7mUrY425.jpg,https://you.ctrip.com/sight/chengdu104/5704053.html?scene=onlinesearch,30.61428,104.036978
知识科普型,博物馆,149271114,四川活体昆虫博物馆,0.0,0,,南充,南充,,,,博物馆&展馆,,否,https://dimg04.c-ctrip.com/images/fd/tg/g1/M06/FC/24/CghzflW7H_iATdynAAA-FlXAIeA738.jpg,https://you.ctrip.com/sight/nanchong782/149271114.html?scene=onlinesearch,30.953621,106.222298
知识科普型,博物馆,152863394,温江区博物馆,0.0,0,国色天乡乐园/温江大学城,成都,成都 · 国色天乡乐园/温江大学城,,,,博物馆&展馆,,否,https://dimg04.c-ctrip.com/images/fd/tg/g1/M06/FC/24/CghzflW7H_iATdynAAA-FlXAIeA738.jpg,https://you.ctrip.com/sight/chengdu104/152863394.html?scene=onlinesearch,30.703984,103.84374
知识科普型,博物馆,145565296,松鼠部落自然博物馆,0.0,0,天府新区/西博城地区,成都,成都 · 天府新区/西博城地区,,,,博物馆&展馆,,否,https://dimg04.c-ctrip.com/images/fd/tg/g1/M06/FC/24/CghzflW7H_iATdynAAA-FlXAIeA738.jpg,https://you.ctrip.com/sight/chengdu104/145565296.html?scene=onlinesearch,30.41207,104.162792
知识科普型,博物馆,150329414,流弦半岛古典吉他博物馆,0.0,0,,成都,成都,,,,博物馆&展馆,,否,https://dimg04.c-ctrip.com/images/fd/tg/g1/M06/FC/24/CghzflW7H_iATdynAAA-FlXAIeA738.jpg,https://you.ctrip.com/sight/chengdu104/150329414.html?scene=onlinesearch,30.913388,103.941416
知识科普型,博物馆,145623942,薰衣草博物馆,0.0,0,天府新区/西博城地区,成都,成都 · 天府新区/西博城地区,,,,博物馆&展馆,,否,https://dimg04.c-ctrip.com/images/fd/tg/g1/M06/FC/24/CghzflW7H_iATdynAAA-FlXAIeA738.jpg,https://you.ctrip.com/sight/chengdu104/145623942.html?scene=onlinesearch,30.442416,104.186225
知识科普型,博物馆,152911069,森邻奇镜自然博物馆(成都悠方购物中心店),0.0,0,金融城/双子塔附近地区,成都,成都 · 金融城/双子塔附近地区,,,,博物馆&展馆,,否,https://dimg04.c-ctrip.com/images/fd/tg/g1/M06/FC/24/CghzflW7H_iATdynAAA-FlXAIeA738.jpg,https://you.ctrip.com/sight/chengdu104/152911069.html?scene=onlinesearch,30.589265,104.063649
知识科普型,博物馆,150315644,好惠捷吉他博物馆,0.0,0,,成都,成都,,,,博物馆&展馆,,否,https://dimg04.c-ctrip.com/images/fd/tg/g1/M06/FC/24/CghzflW7H_iATdynAAA-FlXAIeA738.jpg,https://you.ctrip.com/sight/chengdu104/150315644.html?scene=onlinesearch,30.912961,103.941245
知识科普型,博物馆,145358318,天彭牡丹博物馆,0.0,0,,彭州,彭州,,,,博物馆&展馆,,否,https://dimg04.c-ctrip.com/images/fd/tg/g1/M06/FC/24/CghzflW7H_iATdynAAA-FlXAIeA738.jpg,https://you.ctrip.com/sight/pengzhou1747/145358318.html?scene=onlinesearch,31.093488,103.844432
知识科普型,博物馆,148740738,叠溪松坪沟地质公园博物馆,0.0,0,,茂县,茂县,,,,博物馆&展馆,,否,https://dimg04.c-ctrip.com/images/fd/tg/g1/M06/FC/24/CghzflW7H_iATdynAAA-FlXAIeA738.jpg,https://you.ctrip.com/sight/maocounty3164/148740738.html?scene=onlinesearch,32.04602,103.687147
知识科普型,博物馆,150251566,西昌建川电影博物馆-电影衍生品馆,0.0,0,,西昌,西昌,,,,博物馆&展馆,,否,https://dimg04.c-ctrip.com/images/fd/tg/g1/M06/FC/24/CghzflW7H_iATdynAAA-FlXAIeA738.jpg,https://you.ctrip.com/sight/xichang592/150251566.html?scene=onlinesearch,27.885248,102.181833
知识科普型,博物馆,145302933,四川崇州天演博物馆-2号馆,0.0,0,崇州市区,崇州,崇州 · 崇州市区,,,,博物馆&展馆,,否,https://dimg04.c-ctrip.com/images/fd/tg/g1/M06/FC/24/CghzflW7H_iATdynAAA-FlXAIeA738.jpg,https://you.ctrip.com/sight/chongzhou909/145302933.html?scene=onlinesearch,30.636918,103.711664
知识科普型,博物馆,145658079,南充米粉博物馆,0.0,0,五星花园/北湖公园/1227购物广场,南充,南充 · 五星花园/北湖公园/1227购物广场,,,,博物馆&展馆,,否,https://dimg04.c-ctrip.com/images/fd/tg/g1/M06/FC/24/CghzflW7H_iATdynAAA-FlXAIeA738.jpg,https://you.ctrip.com/sight/nanchong782/145658079.html?scene=onlinesearch,30.803909,106.091076
知识科普型,博物馆,149547567,时光博物馆,0.0,0,中国西南商贸城/泸州高铁站/客运中心站,泸州,泸州 · 中国西南商贸城/泸州高铁站/客运中心站,,,,博物馆&展馆,,否,https://dimg04.c-ctrip.com/images/fd/tg/g1/M06/FC/24/CghzflW7H_iATdynAAA-FlXAIeA738.jpg,https://you.ctrip.com/sight/luzhou604/149547567.html?scene=onlinesearch,28.917928,105.425859
知识科普型,博物馆,145149479,射洪市书画博物馆,0.0,0,,射洪,射洪,,,,博物馆&展馆,,否,https://dimg04.c-ctrip.com/images/fd/tg/g1/M06/FC/24/CghzflW7H_iATdynAAA-FlXAIeA738.jpg,https://you.ctrip.com/sight/shehong1944/145149479.html?scene=onlinesearch,30.872694,105.381588
知识科普型,博物馆,145156821,面包博物馆,0.0,0,国色天乡乐园/温江大学城,成都,成都 · 国色天乡乐园/温江大学城,,,,博物馆&展馆,,否,https://dimg04.c-ctrip.com/images/fd/tg/g1/M06/FC/24/CghzflW7H_iATdynAAA-FlXAIeA738.jpg,https://you.ctrip.com/sight/chengdu104/145156821.html?scene=onlinesearch,30.675695,103.82819
知识科普型,博物馆,145327019,中国乡村振兴国宴博物馆(阳高国宴),0.0,0,,泸州,泸州,,,,博物馆&展馆,,否,https://dimg04.c-ctrip.com/images/fd/tg/g1/M06/FC/24/CghzflW7H_iATdynAAA-FlXAIeA738.jpg,https://you.ctrip.com/sight/luzhou604/145327019.html?scene=onlinesearch,28.968861,105.446736
知识科普型,博物馆,145603328,威远入口(恐龙博物馆方向),0.0,0,,自贡,自贡,,,,,,否,https://dimg04.c-ctrip.com/images/fd/tg/g1/M06/FC/24/CghzflW7H_iATdynAAA-FlXAIeA738.jpg,https://you.ctrip.com/sight/zigong575/145603328.html?scene=onlinesearch,29.385027,104.877088
知识科普型,博物馆,148680342,抚琴街道西北街社区民族服饰微博物馆,0.0,0,华侨城欢乐谷/西南交大,成都,成都 · 华侨城欢乐谷/西南交大,,,,博物馆&展馆,,否,https://dimg04.c-ctrip.com/images/fd/tg/g1/M06/FC/24/CghzflW7H_iATdynAAA-FlXAIeA738.jpg,https://you.ctrip.com/sight/chengdu104/148680342.html?scene=onlinesearch,30.689088,104.048816
知识科普型,博物馆,150179261,绣里锦绣博物馆,0.0,0,,成都,成都,,,,博物馆&展馆,,否,https://dimg04.c-ctrip.com/images/fd/tg/g1/M06/FC/24/CghzflW7H_iATdynAAA-FlXAIeA738.jpg,https://you.ctrip.com/sight/chengdu104/150179261.html?scene=onlinesearch,30.845678,103.953916
知识科普型,博物馆,150192814,西昌建川电影博物馆-影食荟,0.0,0,,西昌,西昌,,,,博物馆&展馆,,否,https://dimg04.c-ctrip.com/images/fd/tg/g1/M06/FC/24/CghzflW7H_iATdynAAA-FlXAIeA738.jpg,https://you.ctrip.com/sight/xichang592/150192814.html?scene=onlinesearch,27.886864,102.1873
知识科普型,博物馆,150270028,世界公共经济组织(WPEO)国宴博物馆(采昀国宴),0.0,0,,成都,成都,,,,博物馆&展馆,,否,https://dimg04.c-ctrip.com/images/fd/tg/g1/M06/FC/24/CghzflW7H_iATdynAAA-FlXAIeA738.jpg,https://you.ctrip.com/sight/chengdu104/150270028.html?scene=onlinesearch,30.662626,103.995446
知识科普型,博物馆,150279722,四川泰来古代艺术博物馆(福气壹生丝绸服饰),0.0,0,,成都,成都,,,,博物馆&展馆,,否,https://dimg04.c-ctrip.com/images/fd/tg/g1/M06/FC/24/CghzflW7H_iATdynAAA-FlXAIeA738.jpg,https://you.ctrip.com/sight/chengdu104/150279722.html?scene=onlinesearch,30.678856,104.051167
知识科普型,博物馆,145611730,宏如古瓷博物馆,0.0,0,新津地区/花舞人间景区,成都,成都 · 新津地区/花舞人间景区,,,,博物馆&展馆,,否,https://dimg04.c-ctrip.com/images/fd/tg/g1/M06/FC/24/CghzflW7H_iATdynAAA-FlXAIeA738.jpg,https://you.ctrip.com/sight/chengdu104/145611730.html?scene=onlinesearch,30.407413,103.807402
知识科普型,博物馆,150366137,农耕博物馆,0.0,0,,成都,成都,,,,博物馆&展馆,,否,https://dimg04.c-ctrip.com/images/fd/tg/g1/M06/FC/24/CghzflW7H_iATdynAAA-FlXAIeA738.jpg,https://you.ctrip.com/sight/chengdu104/150366137.html?scene=onlinesearch,30.498046,103.819045
知识科普型,博物馆,145188785,嘉陵江乌木博物馆,0.0,0,,南充,南充,,,,博物馆&展馆,,否,https://dimg04.c-ctrip.com/images/fd/tg/g1/M06/FC/24/CghzflW7H_iATdynAAA-FlXAIeA738.jpg,https://you.ctrip.com/sight/nanchong782/145188785.html?scene=onlinesearch,30.745702,106.101056
知识科普型,博物馆,145186129,会理失恋博物馆,0.0,0,,会理,会理,,,,博物馆&展馆,,否,https://dimg04.c-ctrip.com/images/fd/tg/g1/M06/FC/24/CghzflW7H_iATdynAAA-FlXAIeA738.jpg,https://you.ctrip.com/sight/huili3106/145186129.html?scene=onlinesearch,26.663476,102.258853
知识科普型,博物馆,145248946,七色风提琴微博物馆,0.0,0,九眼桥/四川大学附近地区,成都,成都 · 九眼桥/四川大学附近地区,,,,博物馆&展馆,,否,https://dimg04.c-ctrip.com/images/fd/tg/g1/M06/FC/24/CghzflW7H_iATdynAAA-FlXAIeA738.jpg,https://you.ctrip.com/sight/chengdu104/145248946.html?scene=onlinesearch,30.645224,104.089399
知识科普型,博物馆,144243907,四川客家博物馆展览厅,0.0,0,龙泉驿地区/大运会体育中心,成都,成都 · 龙泉驿地区/大运会体育中心,,,,博物馆&展馆,,否,https://dimg04.c-ctrip.com/images/fd/tg/g1/M06/FC/24/CghzflW7H_iATdynAAA-FlXAIeA738.jpg,https://you.ctrip.com/sight/chengdu104/144243907.html?scene=onlinesearch,30.567568,104.267354
知识科普型,博物馆,145154078,大气探测博物馆(航空港校区),0.0,0,双流国际机场/空港花田,成都,成都 · 双流国际机场/空港花田,,,,博物馆&展馆,,否,https://dimg04.c-ctrip.com/images/fd/tg/g1/M06/FC/24/CghzflW7H_iATdynAAA-FlXAIeA738.jpg,https://you.ctrip.com/sight/chengdu104/145154078.html?scene=onlinesearch,30.588491,103.99922
知识科普型,博物馆,145246518,水韵丹青博物馆,0.0,0,,乐山,乐山,,,,博物馆&展馆,,否,https://dimg04.c-ctrip.com/images/fd/tg/g1/M06/FC/24/CghzflW7H_iATdynAAA-FlXAIeA738.jpg,https://you.ctrip.com/sight/leshan103/145246518.html?scene=onlinesearch,29.561094,103.764694
知识科普型,博物馆,145361676,中国联通博物馆,0.0,0,富乐山地区,绵阳,绵阳 · 富乐山地区,,,,博物馆&展馆,,否,https://dimg04.c-ctrip.com/images/fd/tg/g1/M06/FC/24/CghzflW7H_iATdynAAA-FlXAIeA738.jpg,https://you.ctrip.com/sight/mianyang915/145361676.html?scene=onlinesearch,31.484133,104.777538
知识科普型,博物馆,145394597,乐山师范学院博物馆,0.0,0,绿心公园 /大学城,乐山,乐山 · 绿心公园 /大学城,,,,博物馆&展馆,,否,https://dimg04.c-ctrip.com/images/fd/tg/g1/M06/FC/24/CghzflW7H_iATdynAAA-FlXAIeA738.jpg,https://you.ctrip.com/sight/leshan103/145394597.html?scene=onlinesearch,29.567315,103.755693
知识科普型,博物馆,145445933,丰裕镇含英民俗博物馆,0.0,0,,资阳,资阳,,,,博物馆&展馆,,否,https://dimg04.c-ctrip.com/images/fd/tg/g1/M06/FC/24/CghzflW7H_iATdynAAA-FlXAIeA738.jpg,https://you.ctrip.com/sight/ziyang918/145445933.html?scene=onlinesearch,30.032008,104.596757
知识科普型,博物馆,145505965,中国白芷博物馆,0.0,0,,遂宁,遂宁,,,,博物馆&展馆,,否,https://dimg04.c-ctrip.com/images/fd/tg/g1/M06/FC/24/CghzflW7H_iATdynAAA-FlXAIeA738.jpg,https://you.ctrip.com/sight/suining605/145505965.html?scene=onlinesearch,30.584031,105.641635
知识科普型,博物馆,145564417,大岗博物馆,0.0,0,,宜宾,宜宾,,,,博物馆&展馆,,否,https://dimg04.c-ctrip.com/images/fd/tg/g1/M06/FC/24/CghzflW7H_iATdynAAA-FlXAIeA738.jpg,https://you.ctrip.com/sight/yibin278/145564417.html?scene=onlinesearch,28.829638,104.968455
知识科普型,博物馆,145667497,中国乡村振兴国宴博物馆(先锋国宴),0.0,0,国色天乡乐园/温江大学城,成都,成都 · 国色天乡乐园/温江大学城,,,,博物馆&展馆,,否,https://dimg04.c-ctrip.com/images/fd/tg/g1/M06/FC/24/CghzflW7H_iATdynAAA-FlXAIeA738.jpg,https://you.ctrip.com/sight/chengdu104/145667497.html?scene=onlinesearch,30.78257,103.809653
知识科普型,博物馆,148545462,中国环保影像博物馆(泸州馆),0.0,0,,泸州,泸州,,,,博物馆&展馆,,否,https://dimg04.c-ctrip.com/images/fd/tg/g1/M06/FC/24/CghzflW7H_iATdynAAA-FlXAIeA738.jpg,https://you.ctrip.com/sight/luzhou604/148545462.html?scene=onlinesearch,28.807667,105.402689
知识科普型,博物馆,149380270,龙泉艺大木质乐器博物馆,0.0,0,龙泉驿地区/大运会体育中心,成都,成都 · 龙泉驿地区/大运会体育中心,,,,,,否,https://dimg04.c-ctrip.com/images/fd/tg/g2/M09/B3/FD/CghzgFW7TBOAaqc_AAA9FJcymtg610.jpg,https://you.ctrip.com/sight/chengdu104/149380270.html?scene=onlinesearch,30.543971,104.26559
知识科普型,博物馆,149554993,德阳市博物馆-文物精品展,0.0,0,文庙广场,德阳,德阳 · 文庙广场,,,,,,否,https://dimg04.c-ctrip.com/images/fd/tg/g1/M06/FC/24/CghzflW7H_iATdynAAA-FlXAIeA738.jpg,https://you.ctrip.com/sight/deyang462/149554993.html?scene=onlinesearch,31.136948,104.39837
知识科普型,博物馆,150149500,成都市新都区古典家居文化博物馆,0.0,0,,成都,成都,,,,博物馆&展馆,,否,https://dimg04.c-ctrip.com/images/fd/tg/g1/M06/FC/24/CghzflW7H_iATdynAAA-FlXAIeA738.jpg,https://you.ctrip.com/sight/chengdu104/150149500.html?scene=onlinesearch,30.847847,104.023358
知识科普型,博物馆,150224389,农耕博物馆,0.0,0,,彭州,彭州,,,,博物馆&展馆,,否,https://dimg04.c-ctrip.com/images/fd/tg/g1/M06/FC/24/CghzflW7H_iATdynAAA-FlXAIeA738.jpg,https://you.ctrip.com/sight/pengzhou1747/150224389.html?scene=onlinesearch,31.209487,103.837168
知识科普型,博物馆,145295899,菊红博物馆,0.0,0,新津地区/花舞人间景区,成都,成都 · 新津地区/花舞人间景区,,,,博物馆&展馆,,否,https://dimg04.c-ctrip.com/images/fd/tg/g1/M06/FC/24/CghzflW7H_iATdynAAA-FlXAIeA738.jpg,https://you.ctrip.com/sight/chengdu104/145295899.html?scene=onlinesearch,30.415263,103.810468
知识科普型,博物馆,145627554,洪雅县哲学社会科学普及基地罗家大院民俗文化博物馆,0.0,0,,洪雅,洪雅,,,,博物馆&展馆,,否,https://dimg04.c-ctrip.com/images/fd/tg/g1/M06/FC/24/CghzflW7H_iATdynAAA-FlXAIeA738.jpg,https://you.ctrip.com/sight/hongya3096/145627554.html?scene=onlinesearch,29.874715,103.27389
知识科普型,博物馆,151308444,气球博物馆(万达广场高坪店),0.0,0,王府井购物中心/川东北金融中心,南充,南充 · 王府井购物中心/川东北金融中心,,,,博物馆&展馆,,否,https://dimg04.c-ctrip.com/images/fd/tg/g1/M06/FC/24/CghzflW7H_iATdynAAA-FlXAIeA738.jpg,https://you.ctrip.com/sight/nanchong782/151308444.html?scene=onlinesearch,30.778263,106.10392
知识科普型,博物馆,150362173,伦敦贝果博物馆(攀枝花首店),0.0,0,,攀枝花,攀枝花,,,,博物馆&展馆,,否,https://dimg04.c-ctrip.com/images/fd/tg/g1/M06/FC/24/CghzflW7H_iATdynAAA-FlXAIeA738.jpg,https://you.ctrip.com/sight/panzhihua786/150362173.html?scene=onlinesearch,26.514349,101.734412
知识科普型,博物馆,149551243,人民渠·渡槽博物馆,0.0,0,,中江,中江,,,,博物馆&展馆,,否,https://dimg04.c-ctrip.com/images/fd/tg/g1/M06/FC/24/CghzflW7H_iATdynAAA-FlXAIeA738.jpg,https://you.ctrip.com/sight/zhongjiang3155/149551243.html?scene=onlinesearch,30.893856,104.633543
知识科普型,博物馆,145222089,好奇心博物馆,0.0,0,,德阳,德阳,,,,博物馆&展馆,,否,https://dimg04.c-ctrip.com/images/fd/tg/g1/M06/FC/24/CghzflW7H_iATdynAAA-FlXAIeA738.jpg,https://you.ctrip.com/sight/deyang462/145222089.html?scene=onlinesearch,31.187114,104.364543
知识科普型,博物馆,145495496,泸菜博物馆,0.0,0,中国西南商贸城/泸州高铁站/客运中心站,泸州,泸州 · 中国西南商贸城/泸州高铁站/客运中心站,,,,博物馆&展馆,,否,https://dimg04.c-ctrip.com/images/fd/tg/g1/M06/FC/24/CghzflW7H_iATdynAAA-FlXAIeA738.jpg,https://you.ctrip.com/sight/luzhou604/145495496.html?scene=onlinesearch,28.920356,105.409392
知识科普型,博物馆,145496081,安居人家博物馆,0.0,0,,遂宁,遂宁,,,,博物馆&展馆,,否,https://dimg04.c-ctrip.com/images/fd/tg/g1/M06/FC/24/CghzflW7H_iATdynAAA-FlXAIeA738.jpg,https://you.ctrip.com/sight/suining605/145496081.html?scene=onlinesearch,30.420682,105.546758
知识科普型,博物馆,145542704,山珍博物馆,0.0,0,锦里/武侯祠附近地区,成都,成都 · 锦里/武侯祠附近地区,,,,博物馆&展馆,,否,https://dimg04.c-ctrip.com/images/fd/tg/g1/M06/FC/24/CghzflW7H_iATdynAAA-FlXAIeA738.jpg,https://you.ctrip.com/sight/chengdu104/145542704.html?scene=onlinesearch,30.652351,104.065486
知识科普型,博物馆,145589620,川渝民俗文化博物馆,0.0,0,,遂宁,遂宁,,,,博物馆&展馆,,否,https://dimg04.c-ctrip.com/images/fd/tg/g1/M06/FC/24/CghzflW7H_iATdynAAA-FlXAIeA738.jpg,https://you.ctrip.com/sight/suining605/145589620.html?scene=onlinesearch,30.378071,105.52603
知识科普型,博物馆,149948455,老酒博物馆,0.0,0,,射洪,射洪,,,,博物馆&展馆,,否,https://dimg04.c-ctrip.com/images/fd/tg/g1/M06/FC/24/CghzflW7H_iATdynAAA-FlXAIeA738.jpg,https://you.ctrip.com/sight/shehong1944/149948455.html?scene=onlinesearch,30.875724,105.399206
知识科普型,博物馆,149967708,0833公社·啤酒博物馆(世豪店),0.0,0,乐山高铁站/世豪广场/万达广场,乐山,乐山 · 乐山高铁站/世豪广场/万达广场,,,,博物馆&展馆,,否,https://dimg04.c-ctrip.com/images/fd/tg/g1/M06/FC/24/CghzflW7H_iATdynAAA-FlXAIeA738.jpg,https://you.ctrip.com/sight/leshan103/149967708.html?scene=onlinesearch,29.606504,103.732724
知识科普型,博物馆,52076463,科幻博物馆,1.0,1,红牌楼/大悦城商业区,成都,成都 · 红牌楼/大悦城商业区,,,,"博物馆, 博物馆&展馆",,否,https://dimg04.c-ctrip.com/images/0104o12000f6tcfea9393.jpg,https://you.ctrip.com/sight/chengdu104/4648141.html?scene=onlinesearch,30.6403,103.983
知识科普型,博物馆,150375024,趣游学公园博物馆亲子研学剧情游儿童乐园,0.0,0,,成都,成都,,,,"博物馆&展馆, 主题乐园&游乐场",,否,https://dimg04.c-ctrip.com/images/fd/tg/g1/M06/FC/24/CghzflW7H_iATdynAAA-FlXAIeA738.jpg,https://you.ctrip.com/sight/chengdu104/150375024.html?scene=onlinesearch,30.718145,104.042395
知识科普型,博物馆,150390070,绵竹清平-汉旺国家地质公园博物馆,0.0,0,,绵竹,绵竹,,,,博物馆&展馆,,否,https://dimg04.c-ctrip.com/images/fd/tg/g1/M06/FC/24/CghzflW7H_iATdynAAA-FlXAIeA738.jpg,https://you.ctrip.com/sight/mianzhu1446217/150390070.html?scene=onlinesearch,31.454378,104.177296
知识科普型,博物馆,150429822,华夏意匠博物馆,0.0,0,,成都,成都,,,,博物馆&展馆,,否,https://dimg04.c-ctrip.com/images/1me1y12000kyfg89653EB.jpg,https://you.ctrip.com/sight/chengdu104/150429822.html?scene=onlinesearch,30.432754,104.067511
知识科普型,博物馆,151267913,中国乡村振兴国宴博物馆(九莲山国宴),0.0,0,,蒲江,蒲江,,,,博物馆&展馆,,否,https://dimg04.c-ctrip.com/images/fd/tg/g1/M06/FC/24/CghzflW7H_iATdynAAA-FlXAIeA738.jpg,https://you.ctrip.com/sight/pujiang3136/151267913.html?scene=onlinesearch,30.232641,103.418229
知识科普型,博物馆,151276002,伦敦贝果博物馆(春熙路店),0.0,0,春熙路/太古里商业区,成都,成都 · 春熙路/太古里商业区,,,,博物馆&展馆,,否,https://dimg04.c-ctrip.com/images/fd/tg/g1/M06/FC/24/CghzflW7H_iATdynAAA-FlXAIeA738.jpg,https://you.ctrip.com/sight/chengdu104/151276002.html?scene=onlinesearch,30.663129,104.0851
知识科普型,博物馆,151305888,成都华珍藏羌文化博物馆,0.0,0,华侨城欢乐谷/西南交大,成都,成都 · 华侨城欢乐谷/西南交大,,,,博物馆&展馆,,否,https://dimg04.c-ctrip.com/images/fd/tg/g1/M06/FC/24/CghzflW7H_iATdynAAA-FlXAIeA738.jpg,https://you.ctrip.com/sight/chengdu104/151305888.html?scene=onlinesearch,30.705601,104.041719
知识科普型,博物馆,151345538,伦敦贝果博物馆(邛崃店),0.0,0,邛崃市区,邛崃,邛崃 · 邛崃市区,,,,博物馆&展馆,,否,https://dimg04.c-ctrip.com/images/fd/tg/g1/M06/FC/24/CghzflW7H_iATdynAAA-FlXAIeA738.jpg,https://you.ctrip.com/sight/qionglai1403/151345538.html?scene=onlinesearch,30.418357,103.462169
知识科普型,博物馆,152788082,伦敦贝果博物馆,0.0,0,华侨城欢乐谷/西南交大,成都,成都 · 华侨城欢乐谷/西南交大,,,,博物馆&展馆,,否,https://dimg04.c-ctrip.com/images/fd/tg/g1/M06/FC/24/CghzflW7H_iATdynAAA-FlXAIeA738.jpg,https://you.ctrip.com/sight/chengdu104/152788082.html?scene=onlinesearch,30.707989,104.051911
知识科普型,博物馆,152806883,洪雅县民俗台会博物馆(五龙祠),0.0,0,,洪雅,洪雅,,,,博物馆&展馆,,否,https://dimg04.c-ctrip.com/images/fd/tg/g1/M06/FC/24/CghzflW7H_iATdynAAA-FlXAIeA738.jpg,https://you.ctrip.com/sight/hongya3096/152806883.html?scene=onlinesearch,29.898574,103.33285
知识科普型,博物馆,152809775,萝卜干博物馆,0.0,0,,成都,成都,,,,博物馆&展馆,,否,https://dimg04.c-ctrip.com/images/fd/tg/g1/M06/FC/24/CghzflW7H_iATdynAAA-FlXAIeA738.jpg,https://you.ctrip.com/sight/chengdu104/152809775.html?scene=onlinesearch,30.905067,103.822015
知识科普型,博物馆,152825769,蓬溪書畫藝術博物館,0.0,0,,蓬溪,蓬溪,,,,,,否,https://dimg04.c-ctrip.com/images/fd/tg/g1/M06/FC/24/CghzflW7H_iATdynAAA-FlXAIeA738.jpg,https://you.ctrip.com/sight/pengxi1446216/152825769.html?scene=onlinesearch,30.781461,105.716811
知识科普型,博物馆,152825890,语宙博物馆,0.0,0,天府新区/西博城地区,成都,成都 · 天府新区/西博城地区,,,,博物馆&展馆,,否,https://dimg04.c-ctrip.com/images/fd/tg/g1/M06/FC/24/CghzflW7H_iATdynAAA-FlXAIeA738.jpg,https://you.ctrip.com/sight/chengdu104/152825890.html?scene=onlinesearch,30.44027,104.096134
知识科普型,博物馆,152839981,富顺縣博物館,0.0,0,,富顺,富顺,,,,,,否,https://dimg04.c-ctrip.com/images/fd/tg/g1/M06/FC/24/CghzflW7H_iATdynAAA-FlXAIeA738.jpg,https://you.ctrip.com/sight/fushun3152/152839981.html?scene=onlinesearch,29.184439,105.008817
知识科普型,博物馆,152877463,化成镇赵家湾博物馆,0.0,0,,巴中,巴中,,,,博物馆&展馆,,否,https://dimg04.c-ctrip.com/images/fd/tg/g1/M06/FC/24/CghzflW7H_iATdynAAA-FlXAIeA738.jpg,https://you.ctrip.com/sight/bazhong703/152877463.html?scene=onlinesearch,31.905326,106.914972
知识科普型,博物馆,152882456,枣林镇灵山村博物馆,0.0,0,,巴中,巴中,,,,博物馆&展馆,,否,https://dimg04.c-ctrip.com/images/fd/tg/g1/M06/FC/24/CghzflW7H_iATdynAAA-FlXAIeA738.jpg,https://you.ctrip.com/sight/bazhong703/152882456.html?scene=onlinesearch,31.976718,106.718721
知识科普型,博物馆,152892428,贝果博物馆,0.0,0,,营山,营山,,,,,,否,https://dimg04.c-ctrip.com/images/fd/tg/g1/M06/FC/24/CghzflW7H_iATdynAAA-FlXAIeA738.jpg,https://you.ctrip.com/sight/yingshan3149/152892428.html?scene=onlinesearch,31.088316,106.582705
知识科普型,博物馆,153127338,制扇至美博物馆,0.0,0,宽窄巷子/中医学院附近地区,成都,成都 · 宽窄巷子/中医学院附近地区,,,,,,否,https://dimg04.c-ctrip.com/images/fd/tg/g1/M06/FC/24/CghzflW7H_iATdynAAA-FlXAIeA738.jpg,https://you.ctrip.com/sight/chengdu104/153127338.html?scene=onlinesearch,30.669934,104.061067
知识科普型,博物馆,153129754,叠溪大地震博物馆,0.0,0,,茂县,茂县,,,,,,否,https://dimg04.c-ctrip.com/images/fd/tg/g1/M06/FC/24/CghzflW7H_iATdynAAA-FlXAIeA738.jpg,https://you.ctrip.com/sight/maocounty3164/153129754.html?scene=onlinesearch,32.079886,103.726054
知识科普型,博物馆,153131910,广汉三星堆博物馆-四号馆(临展),0.0,0,,广汉,广汉,,,,,,否,https://dimg04.c-ctrip.com/images/fd/tg/g1/M06/FC/24/CghzflW7H_iATdynAAA-FlXAIeA738.jpg,https://you.ctrip.com/sight/guanghan1349/153131910.html?scene=onlinesearch,31.006735,104.226802
知识科普型,博物馆,38380780,五津汉陶博物馆,0.0,0,新津地区/花舞人间景区,成都,成都 · 新津地区/花舞人间景区,,,,"博物馆, 博物馆&展馆",,否,https://dimg04.c-ctrip.com/images/0104e12000cqu6hvy5469.jpg,https://you.ctrip.com/sight/chengdu104/2570841.html?scene=onlinesearch,30.419796,103.805118
知识科普型,博物馆,38452630,悬棺博物馆,0.0,0,,珙县,珙县,,,,"特色展馆, 博物馆&展馆",,否,https://dimg04.c-ctrip.com/images/0101c12000a4o629b53A4.png,https://you.ctrip.com/sight/gongcounty3159/2642291.html?scene=onlinesearch,28.035888,104.829677
知识科普型,博物馆,38456339,南部县民间艺术博物馆,0.0,0,,南部县,南部县,,,,"特色展馆, 博物馆&展馆",,否,https://dimg04.c-ctrip.com/images/fd/tg/g1/M06/FC/25/CghzflW7IA-AKV6TAABByEo2c7Y435.jpg,https://you.ctrip.com/sight/nanbucounty3104/2645900.html?scene=onlinesearch,31.357011,106.044964
知识科普型,博物馆,39069688,绵竹明清园博物馆,4.5,2,,绵竹,绵竹,,,,"博物馆, 博物馆&展馆",,否,https://dimg04.c-ctrip.com/images/0104212000cngocbm8C8C.jpg,https://you.ctrip.com/sight/mianzhu1446217/3253149.html?scene=onlinesearch,31.28487,104.237371
知识科普型,博物馆,51572610,成都快乐能量体验式培训中心（建川博物馆),0.0,0,安仁古镇,大邑,大邑 · 安仁古镇,,,,"博物馆, 博物馆&展馆",,否,https://dimg04.c-ctrip.com/images/fd/tg/g1/M08/AE/87/CghzfVW7IAOAbNKNAABCrs7mUrY425.jpg,https://you.ctrip.com/sight/dayi3130/4575249.html?scene=onlinesearch,30.5068,103.628
知识科普型,博物馆,51719692,叠溪地质公园博物馆,0.0,0,,茂县,茂县,,,,博物馆&展馆,,否,https://dimg04.c-ctrip.com/images/010261200099drjzp921C.png,https://you.ctrip.com/sight/maocounty3164/4597948.html?scene=onlinesearch,32.079844,103.726134
知识科普型,博物馆,51866877,乐山华夏蜜蜂博物馆,0.0,0,高新区,乐山,乐山 · 高新区,,,,"博物馆, 博物馆&展馆",,否,https://dimg04.c-ctrip.com/images/0100212000cxqkrkx023E.jpg,https://you.ctrip.com/sight/leshan103/4620054.html?scene=onlinesearch,29.551773,103.724345
知识科普型,博物馆,51970587,成都市立云陶瓷博物馆,0.0,0,华阳/海昌极地海洋公园,成都,成都 · 华阳/海昌极地海洋公园,,,,"博物馆, 博物馆&展馆",,否,https://dimg04.c-ctrip.com/images/fd/tg/g1/M08/AE/87/CghzfVW7IAOAbNKNAABCrs7mUrY425.jpg,https://you.ctrip.com/sight/chengdu104/4635068.html?scene=onlinesearch,30.5144,104.058
知识科普型,博物馆,52079185,四川博物院安仁分院,0.0,0,安仁古镇,大邑,大邑 · 安仁古镇,,,,"博物馆, 博物馆&展馆",,否,https://dimg04.c-ctrip.com/images/fd/tg/g1/M08/AE/87/CghzfVW7IAOAbNKNAABCrs7mUrY425.jpg,https://you.ctrip.com/sight/dayi3130/4647878.html?scene=onlinesearch,30.5113,103.634
知识科普型,博物馆,52079274,紫云鼎书画艺术博物馆,0.0,0,环球中心/世纪城新会展,成都,成都 · 环球中心/世纪城新会展,,,,"特色展馆, 博物馆&展馆",,否,https://dimg04.c-ctrip.com/images/fd/tg/g1/M06/FC/25/CghzflW7IA-AKV6TAABByEo2c7Y435.jpg,https://you.ctrip.com/sight/chengdu104/4647931.html?scene=onlinesearch,30.576839,104.05777
知识科普型,博物馆,52076592,成都瑞鑫汉陶艺术博物馆,0.0,0,蔚然花海/洛带古镇,成都,成都 · 蔚然花海/洛带古镇,,,,"特色展馆, 博物馆&展馆",,否,https://dimg04.c-ctrip.com/images/0101o12000gddd0rlFA56.png,https://you.ctrip.com/sight/chengdu104/4648211.html?scene=onlinesearch,30.639677,104.333887
知识科普型,博物馆,52077013,臻古堂家具博物馆,0.0,0,郫县地区,成都,成都 · 郫县地区,,,,"博物馆, 博物馆&展馆",,否,https://dimg04.c-ctrip.com/images/0102c12000bxbkkqn5F83.jpg,https://you.ctrip.com/sight/chengdu104/4650296.html?scene=onlinesearch,30.767552,103.964346
知识科普型,博物馆,79438848,大邑德源丝绸织绣博物馆,0.0,0,安仁古镇,大邑,大邑 · 安仁古镇,,,,"博物馆, 博物馆&展馆",免费,是,https://dimg04.c-ctrip.com/images/0101m12000cqveoklDF5E.jpg,https://you.ctrip.com/sight/dayi3130/5705195.html?scene=onlinesearch,30.510861,103.630612
知识科普型,博物馆,81469535,缘来缘往爱情博物馆(茂业百货春熙店),0.0,0,春熙路/太古里商业区,成都,成都 · 春熙路/太古里商业区,,,拍照、体验,"特色展馆, 博物馆&展馆",,否,https://dimg04.c-ctrip.com/images/35041c000001dq7cmCCDA.jpg,https://you.ctrip.com/sight/chengdu104/5706430.html?scene=onlinesearch,30.662845,104.08496
知识科普型,博物馆,144186923,巧窝子民俗博物馆,0.0,0,,德阳,德阳,,,,博物馆&展馆,,否,https://dimg04.c-ctrip.com/images/fd/tg/g1/M06/FC/24/CghzflW7H_iATdynAAA-FlXAIeA738.jpg,https://you.ctrip.com/sight/deyang462/144186923.html?scene=onlinesearch,31.137275,104.435178
知识科普型,博物馆,145119401,成都李彬报纸博物馆,0.0,0,建设路/东郊记忆公园,成都,成都 · 建设路/东郊记忆公园,,,,博物馆&展馆,,否,https://dimg04.c-ctrip.com/images/0HJ0a12000g2tjrt0C396.jpg,https://you.ctrip.com/sight/chengdu104/145119401.html?scene=onlinesearch,30.688351,104.14897
知识科普型,博物馆,145123810,爱情博物馆,0.0,0,,巴中,巴中,,,,博物馆&展馆,,否,https://dimg04.c-ctrip.com/images/fd/tg/g1/M06/FC/24/CghzflW7H_iATdynAAA-FlXAIeA738.jpg,https://you.ctrip.com/sight/bazhong703/145123810.html?scene=onlinesearch,31.858938,106.768941
知识科普型,博物馆,145239741,嘉绒吉岗脱模泥塑艺术博物馆,0.0,0,,马尔康,马尔康,,,,博物馆&展馆,,否,https://dimg04.c-ctrip.com/images/fd/tg/g1/M06/FC/24/CghzflW7H_iATdynAAA-FlXAIeA738.jpg,https://you.ctrip.com/sight/barkam913/145239741.html?scene=onlinesearch,32.213736,102.109651
知识科普型,博物馆,145272652,二郎山地质博物馆,0.0,0,,泸定,泸定,,,,博物馆&展馆,,否,https://dimg04.c-ctrip.com/images/1me6a12000dss7dx1AB2D.jpg,https://you.ctrip.com/sight/luding2059/145272652.html?scene=onlinesearch,29.807921,102.21259
知识科普型,博物馆,145283078,西部视界相机博物馆,0.0,0,宽窄巷子/中医学院附近地区,成都,成都 · 宽窄巷子/中医学院附近地区,,,,博物馆&展馆,,否,https://dimg04.c-ctrip.com/images/0HJ6n12000g62zagh6C7D.jpg,https://you.ctrip.com/sight/chengdu104/145283078.html?scene=onlinesearch,30.675056,104.039402
知识科普型,博物馆,145296339,红色博物馆,0.0,0,,巴中,巴中,,,,博物馆&展馆,,否,https://dimg04.c-ctrip.com/images/fd/tg/g1/M06/FC/24/CghzflW7H_iATdynAAA-FlXAIeA738.jpg,https://you.ctrip.com/sight/bazhong703/145296339.html?scene=onlinesearch,31.850176,106.765102
知识科普型,博物馆,145301579,壤巴拉觉囊文化艺术博物馆,0.0,0,,壤塘,壤塘,,,,博物馆&展馆,,否,https://dimg04.c-ctrip.com/images/0HJ4p12000g8zpmt1720A.jpg,https://you.ctrip.com/sight/zamthang1446219/145301579.html?scene=onlinesearch,32.352092,101.191129
知识科普型,博物馆,145344912,熊闷墩大熊猫民间微博物馆,0.0,0,宽窄巷子/中医学院附近地区,成都,成都 · 宽窄巷子/中医学院附近地区,,,,博物馆&展馆,,否,https://dimg04.c-ctrip.com/images/0106w12000js9v47tD0F6.jpg,https://you.ctrip.com/sight/chengdu104/145344912.html?scene=onlinesearch,30.67677,104.060283
知识科普型,博物馆,145345128,易园盆景博物馆,0.0,0,华侨城欢乐谷/西南交大,成都,成都 · 华侨城欢乐谷/西南交大,,,,博物馆&展馆,,否,https://dimg04.c-ctrip.com/images/0HJ0x12000g37fgtl5E09.jpg,https://you.ctrip.com/sight/chengdu104/145345128.html?scene=onlinesearch,30.724415,104.022538
知识科普型,博物馆,145364913,农耕文化博物馆,0.0,0,国色天乡乐园/温江大学城,成都,成都 · 国色天乡乐园/温江大学城,,,,博物馆&展馆,,否,https://dimg04.c-ctrip.com/images/0HJ3612000g8vqiou246A.jpg,https://you.ctrip.com/sight/chengdu104/145364913.html?scene=onlinesearch,30.766705,103.805922
知识科普型,博物馆,145427419,社区音乐博物馆,0.0,0,万象城/牛市口,成都,成都 · 万象城/牛市口,,,,博物馆&展馆,,否,https://dimg04.c-ctrip.com/images/fd/tg/g1/M06/FC/24/CghzflW7H_iATdynAAA-FlXAIeA738.jpg,https://you.ctrip.com/sight/chengdu104/145427419.html?scene=onlinesearch,30.639548,104.115028
知识科普型,博物馆,145433581,树屋探案博物馆,0.0,0,天府广场/成都博物馆,成都,成都 · 天府广场/成都博物馆,,,,博物馆&展馆,,否,https://dimg04.c-ctrip.com/images/fd/tg/g1/M06/FC/24/CghzflW7H_iATdynAAA-FlXAIeA738.jpg,https://you.ctrip.com/sight/chengdu104/145433581.html?scene=onlinesearch,30.661696,104.073428
知识科普型,博物馆,145445983,叙永县博物馆(西南联大叙永分校博物馆),0.0,0,,叙永,叙永,,,,博物馆&展馆,,否,https://dimg04.c-ctrip.com/images/fd/tg/g1/M06/FC/24/CghzflW7H_iATdynAAA-FlXAIeA738.jpg,https://you.ctrip.com/sight/xuyong3133/145445983.html?scene=onlinesearch,28.17508,105.447707
知识科普型,博物馆,145496633,拾野自然博物馆标本研究中心,0.0,0,339天府熊猫塔/望平街,成都,成都 · 339天府熊猫塔/望平街,,,,博物馆&展馆,,否,https://dimg04.c-ctrip.com/images/fd/tg/g1/M06/FC/24/CghzflW7H_iATdynAAA-FlXAIeA738.jpg,https://you.ctrip.com/sight/chengdu104/145496633.html?scene=onlinesearch,30.667261,104.100554
知识科普型,博物馆,145543106,四川建川博物馆聚落-5轰炸机模型,0.0,0,安仁古镇,大邑,大邑 · 安仁古镇,,,,,,否,https://dimg04.c-ctrip.com/images/fd/tg/g1/M06/FC/24/CghzflW7H_iATdynAAA-FlXAIeA738.jpg,https://you.ctrip.com/sight/dayi3130/145543106.html?scene=onlinesearch,30.505833,103.623512
知识科普型,博物馆,145572305,成都锦绣博物馆,0.0,0,天府新区/西博城地区,成都,成都 · 天府新区/西博城地区,,,,博物馆&展馆,,否,https://dimg04.c-ctrip.com/images/fd/tg/g1/M06/FC/24/CghzflW7H_iATdynAAA-FlXAIeA738.jpg,https://you.ctrip.com/sight/chengdu104/145572305.html?scene=onlinesearch,30.443104,104.06477
知识科普型,博物馆,145574877,老酒博物馆,0.0,0,,射洪,射洪,,,,博物馆&展馆,,否,https://dimg04.c-ctrip.com/images/0HJ6c12000g2xg1y60873.jpg,https://you.ctrip.com/sight/shehong1944/145574877.html?scene=onlinesearch,30.875645,105.399224
知识科普型,博物馆,145584281,中国麻将文化博物馆,0.0,0,,遂宁,遂宁,,,,博物馆&展馆,,否,https://dimg04.c-ctrip.com/images/fd/tg/g1/M06/FC/24/CghzflW7H_iATdynAAA-FlXAIeA738.jpg,https://you.ctrip.com/sight/suining605/145584281.html?scene=onlinesearch,30.378116,105.525734
知识科普型,博物馆,145621399,四川建川博物馆聚落-5强击机模型,0.0,0,安仁古镇,大邑,大邑 · 安仁古镇,,,,博物馆&展馆,,否,https://dimg04.c-ctrip.com/images/fd/tg/g1/M06/FC/24/CghzflW7H_iATdynAAA-FlXAIeA738.jpg,https://you.ctrip.com/sight/dayi3130/145621399.html?scene=onlinesearch,30.505716,103.623503
知识科普型,博物馆,145640887,温江乡村气象博物馆,0.0,0,国色天乡乐园/温江大学城,成都,成都 · 国色天乡乐园/温江大学城,,,,博物馆&展馆,,否,https://dimg04.c-ctrip.com/images/fd/tg/g1/M06/FC/24/CghzflW7H_iATdynAAA-FlXAIeA738.jpg,https://you.ctrip.com/sight/chengdu104/145640887.html?scene=onlinesearch,30.748014,103.858285
知识科普型,博物馆,145688410,中国钓鱼文化博物馆,0.0,0,,南部县,南部县,,,,博物馆&展馆,,否,https://dimg04.c-ctrip.com/images/0HJ4i12000g6075ls2590.jpg,https://you.ctrip.com/sight/nanbucounty3104/145688410.html?scene=onlinesearch,31.538859,105.758538
知识科普型,博物馆,145699407,大珍堂博物馆,0.0,0,高新西区/茶店子客运站,成都,成都 · 高新西区/茶店子客运站,,,,博物馆&展馆,,否,https://dimg04.c-ctrip.com/images/0HJ5r12000g695jk352E7.jpg,https://you.ctrip.com/sight/chengdu104/145699407.html?scene=onlinesearch,30.742107,103.995933
知识科普型,博物馆,145713413,金沙遗址博物馆-文物保护中心,0.0,0,金沙遗址/一品天下,成都,成都 · 金沙遗址/一品天下,,,,博物馆&展馆,,否,https://dimg04.c-ctrip.com/images/fd/tg/g1/M06/FC/24/CghzflW7H_iATdynAAA-FlXAIeA738.jpg,https://you.ctrip.com/sight/chengdu104/145713413.html?scene=onlinesearch,30.690048,104.01943
知识科普型,博物馆,146100640,金沙遗址博物馆4D影院(恒辉翡翠花园-停车场店),0.0,0,金沙遗址/一品天下,成都,成都 · 金沙遗址/一品天下,,,,,,否,https://dimg04.c-ctrip.com/images/0102u1200086k28vc0A5C.jpg,https://you.ctrip.com/sight/chengdu104/146100640.html?scene=onlinesearch,30.689137,104.020314
知识科普型,博物馆,148560468,拾野·自然博物馆生物多样性临展厅,0.0,0,成都火车东站/塔子山公园,成都,成都 · 成都火车东站/塔子山公园,,,,博物馆&展馆,,否,https://dimg04.c-ctrip.com/images/fd/tg/g1/M06/FC/24/CghzflW7H_iATdynAAA-FlXAIeA738.jpg,https://you.ctrip.com/sight/chengdu104/148560468.html?scene=onlinesearch,30.643264,104.156979
知识科普型,博物馆,148711965,东方艺术博物馆,0.0,0,天府新区/西博城地区,成都,成都 · 天府新区/西博城地区,,,,博物馆&展馆,,否,https://dimg04.c-ctrip.com/images/fd/tg/g1/M06/FC/24/CghzflW7H_iATdynAAA-FlXAIeA738.jpg,https://you.ctrip.com/sight/chengdu104/148711965.html?scene=onlinesearch,30.433076,104.085279
知识科普型,博物馆,149952390,中国金丝楠艺术博物馆,0.0,0,,芦山,芦山,,,,博物馆&展馆,,否,https://dimg04.c-ctrip.com/images/fd/tg/g1/M06/FC/24/CghzflW7H_iATdynAAA-FlXAIeA738.jpg,https://you.ctrip.com/sight/lushan1446226/149952390.html?scene=onlinesearch,30.141165,102.93792
知识科普型,博物馆,149971547,拾野·自然博物馆生物多样性临展厅,0.0,0,成都火车东站/塔子山公园,成都,成都 · 成都火车东站/塔子山公园,,,,博物馆&展馆,,否,https://dimg04.c-ctrip.com/images/fd/tg/g1/M06/FC/24/CghzflW7H_iATdynAAA-FlXAIeA738.jpg,https://you.ctrip.com/sight/chengdu104/149971547.html?scene=onlinesearch,30.643264,104.156979
知识科普型,博物馆,150159085,中国古文字博物馆,0.0,0,红牌楼/大悦城商业区,成都,成都 · 红牌楼/大悦城商业区,,,,博物馆&展馆,,否,https://dimg04.c-ctrip.com/images/fd/tg/g1/M06/FC/24/CghzflW7H_iATdynAAA-FlXAIeA738.jpg,https://you.ctrip.com/sight/chengdu104/150159085.html?scene=onlinesearch,30.64283,104.010325
知识科普型,博物馆,150218260,安仁精酿啤酒博物馆·丹房POTION(安仁古镇店),0.0,0,,大邑,大邑,,,,博物馆&展馆,,否,https://dimg04.c-ctrip.com/images/fd/tg/g1/M06/FC/24/CghzflW7H_iATdynAAA-FlXAIeA738.jpg,https://you.ctrip.com/sight/dayi3130/150218260.html?scene=onlinesearch,30.574914,103.532506
知识科普型,博物馆,150236053,德格玛哈阿喀艺术博物馆,0.0,0,,德格,德格,,,,博物馆&展馆,,否,https://dimg04.c-ctrip.com/images/fd/tg/g1/M06/FC/24/CghzflW7H_iATdynAAA-FlXAIeA738.jpg,https://you.ctrip.com/sight/dege3140/150236053.html?scene=onlinesearch,32.133508,98.866013
知识科普型,博物馆,150356871,宝贝果London baobeiguo Museum伦敦贝果博物馆(苴国路店),0.0,0,,广元,广元,,,,博物馆&展馆,,否,https://dimg04.c-ctrip.com/images/fd/tg/g1/M06/FC/24/CghzflW7H_iATdynAAA-FlXAIeA738.jpg,https://you.ctrip.com/sight/guangyuan593/150356871.html?scene=onlinesearch,32.433751,105.865843
知识科普型,博物馆,150375695,三元场村自然博物馆,0.0,0,,大邑,大邑,,,,博物馆&展馆,,否,https://dimg04.c-ctrip.com/images/fd/tg/g1/M06/FC/24/CghzflW7H_iATdynAAA-FlXAIeA738.jpg,https://you.ctrip.com/sight/dayi3130/150375695.html?scene=onlinesearch,30.64035,103.392176
知识科普型,博物馆,150413799,巧玩儿博物馆,0.0,0,,成都,成都,,,,博物馆&展馆,,否,https://dimg04.c-ctrip.com/images/fd/tg/g1/M06/FC/24/CghzflW7H_iATdynAAA-FlXAIeA738.jpg,https://you.ctrip.com/sight/chengdu104/150413799.html?scene=onlinesearch,30.65193,104.064369
知识科普型,博物馆,151274520,森邻奇境自然博物馆,0.0,0,万象城/牛市口,成都,成都 · 万象城/牛市口,,,,博物馆&展馆,,否,https://dimg04.c-ctrip.com/images/fd/tg/g1/M06/FC/24/CghzflW7H_iATdynAAA-FlXAIeA738.jpg,https://you.ctrip.com/sight/chengdu104/151274520.html?scene=onlinesearch,30.639406,104.119591
知识科普型,博物馆,152796108,来德博物馆,0.0,0,船山区政府/市中心医院,遂宁,遂宁 · 船山区政府/市中心医院,,,,博物馆&展馆,,否,https://dimg04.c-ctrip.com/images/fd/tg/g1/M06/FC/24/CghzflW7H_iATdynAAA-FlXAIeA738.jpg,https://you.ctrip.com/sight/suining605/152796108.html?scene=onlinesearch,30.530076,105.564223
知识科普型,博物馆,152796504,达州巴人历史博物馆,0.0,0,城市中心广场,达州,达州 · 城市中心广场,,,,博物馆&展馆,,否,https://dimg04.c-ctrip.com/images/fd/tg/g1/M06/FC/24/CghzflW7H_iATdynAAA-FlXAIeA738.jpg,https://you.ctrip.com/sight/dazhou910/152796504.html?scene=onlinesearch,31.222835,107.53006
知识科普型,博物馆,152807052,伦敦贝果博物馆定西大街店,0.0,0,康定城区,康定,康定 · 康定城区,,,,,,否,https://dimg04.c-ctrip.com/images/fd/tg/g1/M06/FC/24/CghzflW7H_iATdynAAA-FlXAIeA738.jpg,https://you.ctrip.com/sight/kangding344/152807052.html?scene=onlinesearch,30.058624,101.972211
知识科普型,博物馆,152815453,伦敦贝果博物馆(眉山店),0.0,0,眉山市中心,眉山,眉山 · 眉山市中心,,,,博物馆&展馆,,否,https://dimg04.c-ctrip.com/images/fd/tg/g1/M06/FC/24/CghzflW7H_iATdynAAA-FlXAIeA738.jpg,https://you.ctrip.com/sight/meishan914/152815453.html?scene=onlinesearch,30.053213,103.842275
知识科普型,博物馆,152818658,梭坡乡嘉荣文化博物馆,0.0,0,,丹巴,丹巴,,,,博物馆&展馆,,否,https://dimg04.c-ctrip.com/images/fd/tg/g1/M06/FC/24/CghzflW7H_iATdynAAA-FlXAIeA738.jpg,https://you.ctrip.com/sight/danba704/152818658.html?scene=onlinesearch,30.854631,101.942298
知识科普型,博物馆,152829909,龙凤古镇博物馆,0.0,0,,遂宁,遂宁,,,,博物馆&展馆,,否,https://dimg04.c-ctrip.com/images/fd/tg/g1/M06/FC/24/CghzflW7H_iATdynAAA-FlXAIeA738.jpg,https://you.ctrip.com/sight/suining605/152829909.html?scene=onlinesearch,30.446574,105.644556
知识科普型,博物馆,152888613,竹海渔乡博物馆,0.0,0,,天全,天全,,,,,,否,https://dimg04.c-ctrip.com/images/fd/tg/g1/M06/FC/24/CghzflW7H_iATdynAAA-FlXAIeA738.jpg,https://you.ctrip.com/sight/tianquan2056/152888613.html?scene=onlinesearch,30.039243,102.742398
知识科普型,博物馆,152899799,伦敦贝果博物馆(华宇广场店),0.0,0,锦华万达/四川师范大学,成都,成都 · 锦华万达/四川师范大学,,,,博物馆&展馆,,否,https://dimg04.c-ctrip.com/images/fd/tg/g1/M06/FC/24/CghzflW7H_iATdynAAA-FlXAIeA738.jpg,https://you.ctrip.com/sight/chengdu104/152899799.html?scene=onlinesearch,30.629112,104.128115
知识科普型,博物馆,152900587,浮动博物馆FMP Plant Labo,0.0,0,华阳/海昌极地海洋公园,成都,成都 · 华阳/海昌极地海洋公园,,,,,,否,https://dimg04.c-ctrip.com/images/fd/tg/g1/M06/FC/24/CghzflW7H_iATdynAAA-FlXAIeA738.jpg,https://you.ctrip.com/sight/chengdu104/152900587.html?scene=onlinesearch,30.515764,104.049059
知识科普型,博物馆,152903391,优普围棋博物馆,0.0,0,郫县地区,成都,成都 · 郫县地区,,,,博物馆&展馆,,否,https://dimg04.c-ctrip.com/images/fd/tg/g1/M06/FC/24/CghzflW7H_iATdynAAA-FlXAIeA738.jpg,https://you.ctrip.com/sight/chengdu104/152903391.html?scene=onlinesearch,30.829592,103.91864
知识科普型,博物馆,152904485,成都艺大木质乐器博物馆,0.0,0,龙泉驿地区/大运会体育中心,成都,成都 · 龙泉驿地区/大运会体育中心,,,,博物馆&展馆,,否,https://dimg04.c-ctrip.com/images/fd/tg/g1/M06/FC/24/CghzflW7H_iATdynAAA-FlXAIeA738.jpg,https://you.ctrip.com/sight/chengdu104/152904485.html?scene=onlinesearch,30.613231,104.308517
知识科普型,博物馆,24650437,华蓥山中国酒文化博物馆,5.0,2,,华蓥,华蓥,,,,"博物馆, 博物馆&展馆",,否,https://dimg04.c-ctrip.com/images/0105g12000dut6ehk4589.jpg,https://you.ctrip.com/sight/huaying3103/1831322.html?scene=onlinesearch,30.308265,106.812033
知识科普型,博物馆,38379777,中国农民工博物馆,0.0,0,,金堂,金堂,,,,"博物馆, 博物馆&展馆",,否,https://dimg04.c-ctrip.com/images/0103o1200096fa005F9FD.png,https://you.ctrip.com/sight/jintang3131/2569838.html?scene=onlinesearch,30.862799,104.410819
知识科普型,博物馆,38960763,天福茶博物馆,0.0,0,,夹江,夹江,,,,"博物馆, 博物馆&展馆",,否,https://dimg04.c-ctrip.com/images/0101y12000clq1dx52B35.jpg,https://you.ctrip.com/sight/jiajiang3108/3145324.html?scene=onlinesearch,29.798795,103.699288
知识科普型,博物馆,39191363,丝绸博物馆,0.0,0,,茂县,茂县,,,,"博物馆, 博物馆&展馆",,否,https://dimg04.c-ctrip.com/images/fd/tg/g1/M08/AE/87/CghzfVW7IAOAbNKNAABCrs7mUrY425.jpg,https://you.ctrip.com/sight/maocounty3164/3373824.html?scene=onlinesearch,31.678379,103.844369
知识科普型,博物馆,51757749,宜宾学院(江北校区)-中国酒包装博物馆,4.0,1,宜宾学院(江北)/五粮液生态园,宜宾,宜宾 · 宜宾学院(江北)/五粮液生态园,,,,"博物馆, 博物馆&展馆",,否,https://dimg04.c-ctrip.com/images/fd/tg/g1/M08/AE/87/CghzfVW7IAOAbNKNAABCrs7mUrY425.jpg,https://you.ctrip.com/sight/yibin278/4604643.html?scene=onlinesearch,28.7995,104.619
知识科普型,博物馆,51822065,中国厨房文化博物馆,3.5,2,,屏山,屏山,,,,"博物馆, 博物馆&展馆",,否,https://dimg04.c-ctrip.com/images/fd/tg/g1/M08/AE/87/CghzfVW7IAOAbNKNAABCrs7mUrY425.jpg,https://you.ctrip.com/sight/pingshan1446238/4613838.html?scene=onlinesearch,28.82553,104.3684
知识科普型,博物馆,51970454,新场老唱片音乐博物馆,5.0,1,,大邑,大邑,,,,"博物馆, 博物馆&展馆",,否,https://dimg04.c-ctrip.com/images/0100w12000dc4wtvj1A5B.jpg,https://you.ctrip.com/sight/dayi3130/4635032.html?scene=onlinesearch,30.5376,103.431
知识科普型,博物馆,51971099,成都艺天民俗博物馆,0.0,0,蔚然花海/洛带古镇,成都,成都 · 蔚然花海/洛带古镇,,,,"博物馆, 博物馆&展馆",,否,https://dimg04.c-ctrip.com/images/0105i12000gdd6acl162E.png,https://you.ctrip.com/sight/chengdu104/4635301.html?scene=onlinesearch,30.639793,104.33424
知识科普型,博物馆,51973346,宇曜古灯文化博物馆,0.0,0,华侨城欢乐谷/西南交大,成都,成都 · 华侨城欢乐谷/西南交大,,,,"博物馆, 博物馆&展馆",,否,https://dimg04.c-ctrip.com/images/0100p12000cqvgrze7B97.jpg,https://you.ctrip.com/sight/chengdu104/4635405.html?scene=onlinesearch,30.719819,104.04806
知识科普型,博物馆,52079170,成都蜀江博物馆,0.0,0,新津地区/花舞人间景区,成都,成都 · 新津地区/花舞人间景区,,,,"博物馆, 博物馆&展馆",,否,https://dimg04.c-ctrip.com/images/0100z12000d8b8l2z2294.jpg,https://you.ctrip.com/sight/chengdu104/4647871.html?scene=onlinesearch,30.415262,103.81052
知识科普型,博物馆,52079171,成都香米园汉陶艺术博物馆,0.0,0,新津地区/花舞人间景区,成都,成都 · 新津地区/花舞人间景区,,,,"特色展馆, 博物馆&展馆",免费,是,https://dimg04.c-ctrip.com/images/0106v12000d98q3zu0831.jpg,https://you.ctrip.com/sight/chengdu104/4647872.html?scene=onlinesearch,30.426294,103.806182
知识科普型,博物馆,52169582,成都绿舟博物馆,0.0,0,国色天乡乐园/温江大学城,成都,成都 · 国色天乡乐园/温江大学城,,,,"博物馆, 博物馆&展馆",,否,https://dimg04.c-ctrip.com/images/0105c12000d8x3d3w7D37.jpg,https://you.ctrip.com/sight/chengdu104/4667249.html?scene=onlinesearch,30.676674,103.935348
知识科普型,博物馆,79438838,沱江文化博物馆,3.0,2,,金堂,金堂,,,,"博物馆, 博物馆&展馆",免费,是,https://dimg04.c-ctrip.com/images/0104s12000bplwrwn4366.jpg,https://you.ctrip.com/sight/jintang3131/5705198.html?scene=onlinesearch,30.679479,104.552141
知识科普型,博物馆,112755306,中国兴文·世界大米博物馆,4.8,6,,兴文,兴文,,,,"博物馆, 博物馆&展馆",,否,https://dimg04.c-ctrip.com/images/1mh0b12000ars5dffC360.jpg,https://you.ctrip.com/sight/xingwen3120/25045577.html?scene=onlinesearch,28.342994,105.062064
知识科普型,博物馆,90498455,雅楠缘金丝楠乌木博物馆(高尔夫大街店),0.0,0,青城外山/都江堰中华大熊猫苑,都江堰,都江堰 · 青城外山/都江堰中华大熊猫苑,,,,"特色展馆, 博物馆&展馆",,否,https://dimg04.c-ctrip.com/images/0105f12000cqv4q0j6617.jpg,https://you.ctrip.com/sight/dujiangyan911/90498455.html?scene=onlinesearch,30.858169,103.582382
知识科普型,博物馆,136470521,四川天府荆溪茶具文化博物馆,0.0,0,海滨城/双流体育中心,成都,成都 · 海滨城/双流体育中心,,,,"博物馆, 博物馆&展馆",,否,https://dimg04.c-ctrip.com/images/0HJ5i12000g8ww2nv0048.jpg,https://you.ctrip.com/sight/chengdu104/136470521.html?scene=onlinesearch,30.5442,103.91168
知识科普型,博物馆,137498543,疯狂兔子宇宙博物馆之兔兔来野,0.0,0,万象城/牛市口,成都,成都 · 万象城/牛市口,,,,"博物馆, 博物馆&展馆",门市价,否,https://dimg04.c-ctrip.com/images/1me1e12000c24mi2lA43D.jpg,https://you.ctrip.com/sight/chengdu104/137498543.html?scene=onlinesearch,30.65547,104.122075
知识科普型,博物馆,143741816,诺水河地质博物馆,0.0,0,,通江,通江,,,,"博物馆, 博物馆&展馆",,否,https://dimg04.c-ctrip.com/images/fd/tg/g1/M08/AE/87/CghzfVW7IAOAbNKNAABCrs7mUrY425.jpg,https://you.ctrip.com/sight/tongjiang3167/143741816.html?scene=onlinesearch,32.383389,107.196623
知识科普型,博物馆,145166657,中国皮影博物馆二厅,0.0,0,天府广场/成都博物馆,成都,成都 · 天府广场/成都博物馆,,,,,,否,https://dimg04.c-ctrip.com/images/fd/tg/g1/M06/FC/24/CghzflW7H_iATdynAAA-FlXAIeA738.jpg,https://you.ctrip.com/sight/chengdu104/145166657.html?scene=onlinesearch,30.663641,104.070131
知识科普型,博物馆,145270614,达州失恋博物馆(后来失恋星空馆),0.0,0,城市中心广场,达州,达州 · 城市中心广场,,,,博物馆&展馆,,否,https://dimg04.c-ctrip.com/images/0HJ5m12000g6jmdhw7EEA.jpg,https://you.ctrip.com/sight/dazhou910/145270614.html?scene=onlinesearch,31.220019,107.506268
知识科普型,博物馆,145304674,中国影绘博物馆展示室1,0.0,0,天府广场/成都博物馆,成都,成都 · 天府广场/成都博物馆,,,,,,否,https://dimg04.c-ctrip.com/images/fd/tg/g1/M06/FC/24/CghzflW7H_iATdynAAA-FlXAIeA738.jpg,https://you.ctrip.com/sight/chengdu104/145304674.html?scene=onlinesearch,30.663043,104.07031
知识科普型,博物馆,145322762,巴中市巴州区晏阳初博物馆-志愿服务站,0.0,0,,巴中,巴中,,,,,,否,https://dimg04.c-ctrip.com/images/fd/tg/g1/M06/FC/24/CghzflW7H_iATdynAAA-FlXAIeA738.jpg,https://you.ctrip.com/sight/bazhong703/145322762.html?scene=onlinesearch,31.840251,106.784894
知识科普型,博物馆,145397502,中国羌族博物馆-主序厅,0.0,0,,茂县,茂县,,,,,,否,https://dimg04.c-ctrip.com/images/0HJ7112000g2rey2p8C40.jpg,https://you.ctrip.com/sight/maocounty3164/145397502.html?scene=onlinesearch,31.680521,103.845463
知识科普型,博物馆,145440938,毅恒金丝楠博物馆,0.0,0,,芦山,芦山,,,,博物馆&展馆,,否,https://dimg04.c-ctrip.com/images/0HJ6c12000g8uc5b7BB60.jpg,https://you.ctrip.com/sight/lushan1446226/145440938.html?scene=onlinesearch,30.142115,102.935987
知识科普型,博物馆,145520369,三台博物馆,0.0,0,,三台,三台,,,,博物馆&展馆,,否,https://dimg04.c-ctrip.com/images/fd/tg/g1/M06/FC/24/CghzflW7H_iATdynAAA-FlXAIeA738.jpg,https://you.ctrip.com/sight/santai3148/145520369.html?scene=onlinesearch,31.109151,105.109599
知识科普型,博物馆,145541778,四川汉室古床博物馆,5.0,1,锦里/武侯祠附近地区,成都,成都 · 锦里/武侯祠附近地区,,,,博物馆&展馆,,否,https://dimg04.c-ctrip.com/images/fd/tg/g1/M06/FC/24/CghzflW7H_iATdynAAA-FlXAIeA738.jpg,https://you.ctrip.com/sight/chengdu104/145541778.html?scene=onlinesearch,30.651594,104.058656
知识科普型,博物馆,145552891,四川建川博物馆聚落-观光车正面战场馆站,0.0,0,安仁古镇,大邑,大邑 · 安仁古镇,,,,,,否,https://dimg04.c-ctrip.com/images/fd/tg/g1/M06/FC/24/CghzflW7H_iATdynAAA-FlXAIeA738.jpg,https://you.ctrip.com/sight/dayi3130/145552891.html?scene=onlinesearch,30.504206,103.626471
知识科普型,博物馆,145590904,成都百家堂姓氏文化博物馆,0.0,0,万象城/牛市口,成都,成都 · 万象城/牛市口,,,,博物馆&展馆,,否,https://dimg04.c-ctrip.com/images/0HJ2o12000g324sxhFE44.jpg,https://you.ctrip.com/sight/chengdu104/145590904.html?scene=onlinesearch,30.643919,104.11781
知识科普型,博物馆,145603544,宜宾市金丝楠木博物馆,0.0,0,,宜宾,宜宾,,,,博物馆&展馆,,否,https://dimg04.c-ctrip.com/images/0HJ4b12000g91f95nDC85.jpg,https://you.ctrip.com/sight/yibin278/145603544.html?scene=onlinesearch,28.735221,104.830907
知识科普型,博物馆,145643498,洛带艺匠古籍文献修复博物馆,5.0,1,蔚然花海/洛带古镇,成都,成都 · 蔚然花海/洛带古镇,,,,博物馆&展馆,,否,https://dimg04.c-ctrip.com/images/1mh0y12000jhfmltc1613.jpg,https://you.ctrip.com/sight/chengdu104/145643498.html?scene=onlinesearch,30.64297,104.334633
知识科普型,博物馆,145660379,温泉博物馆,0.0,0,,米易,米易,,,,博物馆&展馆,,否,https://dimg04.c-ctrip.com/images/fd/tg/g1/M06/FC/24/CghzflW7H_iATdynAAA-FlXAIeA738.jpg,https://you.ctrip.com/sight/miyi3097/145660379.html?scene=onlinesearch,26.904827,102.131938
知识科普型,博物馆,145667516,辉煌巨变博物馆,0.0,0,安仁古镇,大邑,大邑 · 安仁古镇,,,,博物馆&展馆,,否,https://dimg04.c-ctrip.com/images/0HJ5012000g6mwtv4F678.jpg,https://you.ctrip.com/sight/dayi3130/145667516.html?scene=onlinesearch,30.507967,103.626085
知识科普型,博物馆,145677245,中国竹编艺术博物馆-第一馆,0.0,0,,青神,青神,,,,博物馆&展馆,,否,https://dimg04.c-ctrip.com/images/fd/tg/g1/M06/FC/24/CghzflW7H_iATdynAAA-FlXAIeA738.jpg,https://you.ctrip.com/sight/qingshen1446221/145677245.html?scene=onlinesearch,29.818714,103.836015
知识科普型,博物馆,146031384,成都体育学院(武侯校区)-博物馆,0.0,0,锦里/武侯祠附近地区,成都,成都 · 锦里/武侯祠附近地区,,,,博物馆&展馆,,否,https://dimg04.c-ctrip.com/images/0HJ7212000g665x2q59CC.jpg,https://you.ctrip.com/sight/chengdu104/146031384.html?scene=onlinesearch,30.653991,104.05141
知识科普型,博物馆,148698772,西昌记忆民俗文化博物馆,0.0,0,西昌市中心,西昌,西昌 · 西昌市中心,,,,博物馆&展馆,,否,https://dimg04.c-ctrip.com/images/fd/tg/g1/M06/FC/24/CghzflW7H_iATdynAAA-FlXAIeA738.jpg,https://you.ctrip.com/sight/xichang592/148698772.html?scene=onlinesearch,27.891512,102.265984
知识科普型,博物馆,149646982,成都自然博物馆展示厅,0.0,0,建设路/东郊记忆公园,成都,成都 · 建设路/东郊记忆公园,,,,博物馆&展馆,,否,https://dimg04.c-ctrip.com/images/fd/tg/g1/M06/FC/24/CghzflW7H_iATdynAAA-FlXAIeA738.jpg,https://you.ctrip.com/sight/chengdu104/149646982.html?scene=onlinesearch,30.684431,104.149591
知识科普型,博物馆,149687197,四川建川博物馆聚落-5战斗机模型,0.0,0,安仁古镇,大邑,大邑 · 安仁古镇,,,,,,否,https://dimg04.c-ctrip.com/images/fd/tg/g1/M06/FC/24/CghzflW7H_iATdynAAA-FlXAIeA738.jpg,https://you.ctrip.com/sight/dayi3130/149687197.html?scene=onlinesearch,30.506622,103.628481
知识科普型,博物馆,151184246,宝山茶文化博物馆,0.0,0,,彭州,彭州,,,,博物馆&展馆,,否,https://dimg04.c-ctrip.com/images/fd/tg/g1/M06/FC/24/CghzflW7H_iATdynAAA-FlXAIeA738.jpg,https://you.ctrip.com/sight/pengzhou1747/151184246.html?scene=onlinesearch,31.2371,103.78762
知识科普型,博物馆,152798029,汉方中医生活博物馆,0.0,0,国色天乡乐园/温江大学城,成都,成都 · 国色天乡乐园/温江大学城,,,,博物馆&展馆,,否,https://dimg04.c-ctrip.com/images/fd/tg/g1/M06/FC/24/CghzflW7H_iATdynAAA-FlXAIeA738.jpg,https://you.ctrip.com/sight/chengdu104/152798029.html?scene=onlinesearch,30.677417,103.869764
