大类,子类关键词,景点ID,名称,评分,评论数,区域,城市,地址,分类,等级,特色,标签,门票说明,是否免费,图片链接,详情链接,纬度,经度
知识科普型,博物馆,77633779,宁夏地质博物馆,4.8,575,宁夏博物馆/市中心,银川,银川 · 宁夏博物馆/市中心,宁夏亲子景点榜 No.10,,第四批国家二级博物馆,"展馆展览, 遛娃宝藏地",免费预约,是,https://dimg04.c-ctrip.com/images/350c1a00000199ti270CB.jpg,https://you.ctrip.com/sight/yinchuan239/5681469.html?scene=onlinesearch,38.505148,106.242679
知识科普型,博物馆,56810059,西夏陵博物馆,4.5,127,,银川,银川,,,全面系统反映西夏历史,"博物馆, 博物馆&展馆",,否,https://dimg04.c-ctrip.com/images/1lo6p12000fa93vt5D7B8.jpg,https://you.ctrip.com/sight/yinchuan239/5073308.html?scene=onlinesearch,38.447841,106.024401
知识科普型,博物馆,10522941,宁夏博物馆,4.6,691,宁夏博物馆/市中心,银川,银川 · 宁夏博物馆/市中心,宁夏亲子景点榜 No.6,,观赏宁夏岩画与其它文物,"展馆展览, 遛娃宝藏地",免费,是,https://dimg04.c-ctrip.com/images/0105z12000iix85dd1848.jpg,https://you.ctrip.com/sight/yinchuan239/147000.html?scene=onlinesearch,38.490741,106.241639
知识科普型,博物馆,15004581,宁夏枸杞博物馆,4.9,211,,贺兰,贺兰,宁夏亲子景点榜 No.16,,"国家AAA级旅游景区, 中华枸杞文化","博物馆, 博物馆&展馆",免费,是,https://dimg04.c-ctrip.com/images/0102f12000iqg6qkc40B4.jpg,https://you.ctrip.com/sight/helan2119/1478788.html?scene=onlinesearch,38.529905,106.321205
知识科普型,博物馆,88966,固原博物馆,4.7,153,,固原,固原,,4A,国家重要博物馆,"博物馆, 博物馆&展馆",免费,是,https://dimg04.c-ctrip.com/images/0103z12000ifo9u8m1700.jpg,https://you.ctrip.com/sight/guyuan888/72246.html?scene=onlinesearch,36.011358,106.282694
知识科普型,博物馆,79437942,水洞沟遗址博物馆,4.5,25,,灵武,灵武,,,,"历史建筑, 博物馆",,否,https://dimg04.c-ctrip.com/images/0100h12000f6rqf714FAD.jpg,https://you.ctrip.com/sight/lingwu2323/5704303.html?scene=onlinesearch,38.289848,106.527374
知识科普型,博物馆,145683286,贺兰山东麓国际葡萄酒博物馆,2.0,2,览山公园/阅彩城,银川,银川 · 览山公园/阅彩城,,,,"博物馆, 博物馆&展馆",门票,否,https://dimg04.c-ctrip.com/images/1me0812000hs79igc6F16.jpg,https://you.ctrip.com/sight/yinchuan239/145683286.html?scene=onlinesearch,38.5241,106.241316
知识科普型,博物馆,38500141,中卫博物馆,4.1,12,,中卫,中卫,,,馆藏珍品有角柱石浮雕、清代石碑等,"博物馆, 博物馆&展馆",免费,是,https://dimg04.c-ctrip.com/images/0102h12000b09qegmF889.jpg,https://you.ctrip.com/sight/zhongwei1184/2689202.html?scene=onlinesearch,37.506267,105.18472
知识科普型,博物馆,39475120,吴忠市博物馆,3.8,6,,吴忠,吴忠,,,"吴忠溯源, 锦绣吴忠, 综合性地市级博物馆","博物馆, 博物馆&展馆",免费,是,https://dimg04.c-ctrip.com/images/0102c12000bts3qiz350D.jpg,https://you.ctrip.com/sight/wuzhong890/3655081.html?scene=onlinesearch,37.994891,106.164957
知识科普型,博物馆,71416548,宁夏湿地博物馆,4.9,18,,平罗,平罗,,,,"博物馆, 博物馆&展馆",,否,https://dimg04.c-ctrip.com/images/350r170000012z7sb5EA0.jpg,https://you.ctrip.com/sight/pingluo2102/5629367.html?scene=onlinesearch,38.806151,106.372215
知识科普型,博物馆,79436554,石嘴山市博物馆,4.3,3,,石嘴山,石嘴山,,,国家三级博物馆,"博物馆, 博物馆&展馆",免费,是,https://dimg04.c-ctrip.com/images/0105f120008hpehqt60A2.jpg,https://you.ctrip.com/sight/shizuishan889/5702915.html?scene=onlinesearch,38.995312,106.37801
知识科普型,博物馆,79439066,海原地震博物馆,5.0,2,,海原,海原,,,,"博物馆, 博物馆&展馆",免费,是,https://dimg04.c-ctrip.com/images/01057120009e0xikf3A42.jpg,https://you.ctrip.com/sight/haiyuan2325/5705424.html?scene=onlinesearch,36.551025,105.668516
知识科普型,博物馆,143747234,西塔博物馆,5.0,1,,银川,银川,,,,"博物馆, 博物馆&展馆",,否,https://dimg04.c-ctrip.com/images/0106912000dfsjb6f5E6A.jpg,https://you.ctrip.com/sight/yinchuan239/143747234.html?scene=onlinesearch,38.468845,106.277358
知识科普型,博物馆,145506262,沙坡头-沙漠博物馆,0.0,0,沙坡头旅游景区,中卫,中卫 · 沙坡头旅游景区,,,,博物馆&展馆,,否,https://dimg04.c-ctrip.com/images/0HJ0h12000g2xwumk2D04.jpg,https://you.ctrip.com/sight/zhongwei1184/145506262.html?scene=onlinesearch,37.462991,105.016808
知识科普型,博物馆,51609251,宁夏水利博物馆,4.4,5,,青铜峡,青铜峡,,,宁夏水利博物馆,"博物馆, 博物馆&展馆",免费,是,https://dimg04.c-ctrip.com/images/0104412000cjsi0quE3EA.jpg,https://you.ctrip.com/sight/qingtongxia2330/4581914.html?scene=onlinesearch,37.896042,106.006421
知识科普型,博物馆,83751,战国秦长城博物馆,4.2,13,,固原,固原,,,,"历史建筑, 博物馆",免费,是,https://dimg04.c-ctrip.com/images/0105t12000axlsmqq1549.jpg,https://you.ctrip.com/sight/guyuan888/51257.html?scene=onlinesearch,36.034845,106.259192
知识科普型,博物馆,24653997,须弥山博物馆,4.0,16,,固原,固原,,,"丝绸之路, 石窟, 探秘丝绸之路、欣赏佛教石窟艺术的殿堂","博物馆, 博物馆&展馆",免费,是,https://dimg04.c-ctrip.com/images/0105u120009eybul146B2.jpg,https://you.ctrip.com/sight/guyuan888/1834841.html?scene=onlinesearch,36.280113,106.000032
知识科普型,博物馆,79436400,贺兰山自然博物馆,4.0,2,,银川,银川,,,,"科技馆, 博物馆&展馆",免费,是,https://dimg04.c-ctrip.com/images/0104u12000b8d2x37CA46.jpg,https://you.ctrip.com/sight/yinchuan239/5702759.html?scene=onlinesearch,38.547426,106.061607
知识科普型,博物馆,79436459,黄河楼博物馆,0.0,0,,青铜峡,青铜峡,,,,"博物馆, 博物馆&展馆",,否,https://dimg04.c-ctrip.com/images/0104l120008g2ljv9FAA1.jpg,https://you.ctrip.com/sight/qingtongxia2330/5702853.html?scene=onlinesearch,37.9142,105.990995
知识科普型,博物馆,79439053,移民博物馆,0.0,0,,吴忠,吴忠,,,了解当地的历史文化,"博物馆, 博物馆&展馆",免费,是,https://dimg04.c-ctrip.com/images/0102a12000chpoe3m52B8.jpg,https://you.ctrip.com/sight/wuzhong890/5705415.html?scene=onlinesearch,37.440446,106.070248
知识科普型,博物馆,145195664,宁夏瑞信·贺兰山东麓葡萄酒博物馆,0.0,0,漫葡·看见贺兰演艺小镇/镇北堡西部影城度假区,银川,银川 · 漫葡·看见贺兰演艺小镇/镇北堡西部影城度假区,,,,博物馆&展馆,,否,https://dimg04.c-ctrip.com/images/0100d12000f60g7457D6A.png,https://you.ctrip.com/sight/yinchuan239/145195664.html?scene=onlinesearch,38.62976,106.07578
知识科普型,博物馆,24654708,宁夏邮政博物馆,4.8,23,鼓楼/南门广场,银川,银川 · 鼓楼/南门广场,,,展出深厚文化底蕴的邮品,"博物馆, 博物馆&展馆",,否,https://dimg04.c-ctrip.com/images/1002180000014tsr5370F.jpg,https://you.ctrip.com/sight/yinchuan239/1835502.html?scene=onlinesearch,38.472747,106.282371
知识科普型,博物馆,38490935,西北农耕博物馆,3.0,2,,固原,固原,,,"科技类博物馆, 神农氏雕像","博物馆, 博物馆&展馆",免费,是,https://dimg04.c-ctrip.com/images/350q1b000001a2y7lBB9D.jpg,https://you.ctrip.com/sight/guyuan888/2680096.html?scene=onlinesearch,36.034891,106.25924
知识科普型,博物馆,38557580,回族博物馆,4.0,2,,永宁,永宁,,,,"博物馆, 博物馆&展馆",,否,https://dimg04.c-ctrip.com/images/0100g12000b10ye8eE597.jpg,https://you.ctrip.com/sight/yongning2324/2746241.html?scene=onlinesearch,38.297102,106.244699
知识科普型,博物馆,39058751,国务院直属口五七干校博物馆,0.0,9,,石嘴山,石嘴山,,,,"博物馆&展馆, 场馆展馆",免费,是,https://dimg04.c-ctrip.com/images/0100r1200086lq4tv5EA7.jpg,https://you.ctrip.com/sight/shizuishan889/3242412.html?scene=onlinesearch,38.93597,106.361757
知识科普型,博物馆,145318069,沙漠博物馆,0.0,0,,中卫,中卫,,,,博物馆&展馆,,否,https://dimg04.c-ctrip.com/images/0105r12000i0jw9a70251.jpg,https://you.ctrip.com/sight/zhongwei1184/145318069.html?scene=onlinesearch,37.532754,105.119162
知识科普型,博物馆,79437946,灵武博物馆,0.0,0,,灵武,灵武,,,,"博物馆, 博物馆&展馆",免费,是,https://dimg04.c-ctrip.com/images/0HJ4g12000g2wswex794A.jpg,https://you.ctrip.com/sight/lingwu2323/5704302.html?scene=onlinesearch,38.097952,106.332807
知识科普型,博物馆,51606712,六盘山隆德博物馆,0.0,0,,隆德,隆德,,,,"博物馆, 博物馆&展馆",,否,https://dimg04.c-ctrip.com/images/0105u12000c1y6th0185C.jpg,https://you.ctrip.com/sight/longde2326/4581463.html?scene=onlinesearch,35.622603,106.118699
知识科普型,博物馆,39304876,西吉钱币博物馆,5.0,2,,西吉,西吉,,,古老的钱币,"博物馆, 博物馆&展馆",免费,是,https://dimg04.c-ctrip.com/images/01061120008pclguk0F4A.jpg,https://you.ctrip.com/sight/xiji1446188/3486137.html?scene=onlinesearch,35.970777,105.731661
知识科普型,博物馆,79439064,彭阳县博物馆,5.0,2,,彭阳,彭阳,,,,"博物馆, 博物馆&展馆",免费预约,是,https://dimg04.c-ctrip.com/images/0103m12000bje4dvw1F6A.jpg,https://you.ctrip.com/sight/pengyang1446189/5705416.html?scene=onlinesearch,35.862258,106.637061
知识科普型,博物馆,144203325,贺兰山博物馆,0.0,0,,贺兰,贺兰,,,,博物馆&展馆,,否,https://dimg04.c-ctrip.com/images/1me4n12000f5q9ko9EDA3.jpg,https://you.ctrip.com/sight/helan2119/144203325.html?scene=onlinesearch,38.722068,105.998086
知识科普型,博物馆,105418429,宁夏万宝博物馆,0.0,0,,银川,银川,,,,"博物馆, 博物馆&展馆",,否,https://dimg04.c-ctrip.com/images/0HJ5012000g2umyr3800A.jpg,https://you.ctrip.com/sight/yinchuan239/105418429.html?scene=onlinesearch,38.482129,106.167261
知识科普型,博物馆,79439042,同心博物馆,5.0,1,,同心,同心,,,,"博物馆, 博物馆&展馆",免费,是,https://dimg04.c-ctrip.com/images/0106d12000979zsx9AD7E.png,https://you.ctrip.com/sight/tongxin2327/5705421.html?scene=onlinesearch,36.958608,105.913155
知识科普型,博物馆,105418447,塞上江南博物馆,0.0,0,,平罗,平罗,,,,"博物馆, 博物馆&展馆",,否,https://dimg04.c-ctrip.com/images/0105812000c305guy40AB.jpg,https://you.ctrip.com/sight/pingluo2102/105418447.html?scene=onlinesearch,38.83784,106.653592
知识科普型,博物馆,145624622,银川·湿地博物馆,0.0,0,览山公园/阅彩城,银川,银川 · 览山公园/阅彩城,,,,博物馆&展馆,,否,https://dimg04.c-ctrip.com/images/0HJ6f12000g2rxobbE55D.jpg,https://you.ctrip.com/sight/yinchuan239/145624622.html?scene=onlinesearch,38.554789,106.225329
知识科普型,博物馆,145278908,宁夏煤炭地质博物馆,2.0,1,,石嘴山,石嘴山,,,,博物馆&展馆,,否,https://dimg04.c-ctrip.com/images/0HJ4812000g68obxhF342.jpg,https://you.ctrip.com/sight/shizuishan889/145278908.html?scene=onlinesearch,39.252966,106.790722
知识科普型,博物馆,51618700,中卫奇石博物馆,0.0,0,,中卫,中卫,,,,"博物馆, 博物馆&展馆",,否,https://dimg04.c-ctrip.com/images/0102b12000cgql0lx6689.png,https://you.ctrip.com/sight/zhongwei1184/4582246.html?scene=onlinesearch,37.499424,105.190683
知识科普型,博物馆,38451793,宁夏农垦博物馆,5.0,1,,平罗,平罗,,,,"博物馆, 博物馆&展馆",,否,https://dimg04.c-ctrip.com/images/350q17000001327la7810.jpg,https://you.ctrip.com/sight/pingluo2102/2641454.html?scene=onlinesearch,38.836972,106.397333
知识科普型,博物馆,145149083,青铜峡黄河大峡谷旅游区-塔林博物馆,0.0,0,,青铜峡,青铜峡,,,,博物馆&展馆,,否,https://dimg04.c-ctrip.com/images/0HJ2h12000g6r7aw24E71.jpg,https://you.ctrip.com/sight/qingtongxia2330/145149083.html?scene=onlinesearch,37.881888,105.990187
知识科普型,博物馆,148726042,西吉县大飞机航空博物馆,0.0,0,,西吉,西吉,,,,博物馆&展馆,,否,https://dimg04.c-ctrip.com/images/0HJ1i12000g91e6br9BDA.jpg,https://you.ctrip.com/sight/xiji1446188/148726042.html?scene=onlinesearch,35.970777,105.731661
知识科普型,博物馆,79439046,宁夏质量文化博物馆,5.0,3,,贺兰,贺兰,,,,"博物馆, 博物馆&展馆",免费,是,https://dimg04.c-ctrip.com/images/0100g120009apz0vs446F.png,https://you.ctrip.com/sight/helan2119/5705406.html?scene=onlinesearch,38.566974,106.329293
知识科普型,博物馆,145280143,宁夏民间文化博物馆,0.0,0,,隆德,隆德,,,,博物馆&展馆,,否,https://dimg04.c-ctrip.com/images/0HJ3512000g8zzx279F0C.jpg,https://you.ctrip.com/sight/longde2326/145280143.html?scene=onlinesearch,35.624623,106.135831
知识科普型,博物馆,145506951,宁夏亘古奇石博物馆,0.0,0,宁夏博物馆/市中心,银川,银川 · 宁夏博物馆/市中心,,,,博物馆&展馆,,否,https://dimg04.c-ctrip.com/images/0HJ3q12000g33j62x2CDE.jpg,https://you.ctrip.com/sight/yinchuan239/145506951.html?scene=onlinesearch,38.49384,106.211527
知识科普型,博物馆,145338275,贺兰山生态博物馆,0.0,0,,石嘴山,石嘴山,,,,博物馆&展馆,,否,https://dimg04.c-ctrip.com/images/0HJ6n12000g63mvvb8B1F.jpg,https://you.ctrip.com/sight/shizuishan889/145338275.html?scene=onlinesearch,39.066596,106.370464
知识科普型,博物馆,38526496,湿地公园博物馆,0.0,0,,平罗,平罗,,,,"博物馆, 博物馆&展馆",,否,https://dimg04.c-ctrip.com/images/0104r12000981tenyA77E.png,https://you.ctrip.com/sight/pingluo2102/2715357.html?scene=onlinesearch,38.838874,106.653457
知识科普型,博物馆,145732534,颠倒博物馆,0.0,0,鼓楼/南门广场,银川,银川 · 鼓楼/南门广场,,,,博物馆&展馆,,否,https://dimg04.c-ctrip.com/images/0HJ2812000g6byodj454E.jpg,https://you.ctrip.com/sight/yinchuan239/145732534.html?scene=onlinesearch,38.467689,106.290239
知识科普型,博物馆,145888792,大武口失恋博物馆,0.0,0,,石嘴山,石嘴山,,,,博物馆&展馆,,否,https://dimg04.c-ctrip.com/images/0HJ1t12000g93yydzF2A6.jpg,https://you.ctrip.com/sight/shizuishan889/145888792.html?scene=onlinesearch,39.020408,106.384113
知识科普型,博物馆,145348148,凌云博物馆,0.0,0,,平罗,平罗,,,,博物馆&展馆,,否,https://dimg04.c-ctrip.com/images/0HJ6612000g8vreb38CCC.jpg,https://you.ctrip.com/sight/pingluo2102/145348148.html?scene=onlinesearch,38.910917,106.537942
知识科普型,博物馆,145465649,张家场博物馆,0.0,0,,盐池,盐池,,,,博物馆&展馆,,否,https://dimg04.c-ctrip.com/images/0HJ1412000g90epcu6EDC.jpg,https://you.ctrip.com/sight/yanchi1446190/145465649.html?scene=onlinesearch,37.939787,107.373443
知识科普型,博物馆,79437957,复楼博物馆,0.0,0,宁夏博物馆/市中心,银川,银川 · 宁夏博物馆/市中心,,,,"博物馆, 博物馆&展馆",免费,是,https://dimg04.c-ctrip.com/images/0HJ4j12000g60ps3bD524.jpg,https://you.ctrip.com/sight/yinchuan239/5704341.html?scene=onlinesearch,38.471503,106.265274
知识科普型,博物馆,51933954,宁夏长城博物馆,4.0,3,,灵武,灵武,,,,"博物馆, 博物馆&展馆",,否,https://dimg04.c-ctrip.com/images/10071c000001dy4cv0988.jpg,https://you.ctrip.com/sight/lingwu2323/4628619.html?scene=onlinesearch,38.28247,106.532475
知识科普型,博物馆,134006924,宁夏无线电博物馆,4.0,8,览山公园/阅彩城,银川,银川 · 览山公园/阅彩城,,,,"博物馆, 博物馆&展馆",免费,是,https://dimg04.c-ctrip.com/images/0104g12000atjh2xfF71F.jpg,https://you.ctrip.com/sight/yinchuan239/134006924.html?scene=onlinesearch,38.524654,106.241103
知识科普型,博物馆,79439063,火石寨地质博物馆,4.0,1,,西吉,西吉,,,,"博物馆, 博物馆&展馆",,否,https://dimg04.c-ctrip.com/images/0101g12000blhgzri8D9B.jpg,https://you.ctrip.com/sight/xiji1446188/5705422.html?scene=onlinesearch,36.115915,105.777839
知识科普型,博物馆,150330912,宁夏贺兰山国家森林公园-苏峪口博物馆办公楼,0.0,0,,贺兰,贺兰,,,,,,否,https://dimg04.c-ctrip.com/images/fd/tg/g1/M06/FC/24/CghzflW7H_iATdynAAA-FlXAIeA738.jpg,https://you.ctrip.com/sight/helan2119/150330912.html?scene=onlinesearch,38.721919,105.999233
知识科普型,博物馆,145145954,宁夏博物馆(金凤区新馆)-接送点,0.0,0,宁夏博物馆/市中心,银川,银川 · 宁夏博物馆/市中心,,,,,,否,https://dimg04.c-ctrip.com/images/fd/tg/g1/M06/FC/24/CghzflW7H_iATdynAAA-FlXAIeA738.jpg,https://you.ctrip.com/sight/yinchuan239/145145954.html?scene=onlinesearch,38.490191,106.241569
知识科普型,博物馆,145279237,民俗文化博物馆,0.0,0,,银川,银川,,,,博物馆&展馆,,否,https://dimg04.c-ctrip.com/images/fd/tg/g1/M06/FC/24/CghzflW7H_iATdynAAA-FlXAIeA738.jpg,https://you.ctrip.com/sight/yinchuan239/145279237.html?scene=onlinesearch,38.577258,106.563233
知识科普型,博物馆,145726313,生态博物馆,0.0,0,,泾源,泾源,,,,博物馆&展馆,,否,https://dimg04.c-ctrip.com/images/fd/tg/g1/M06/FC/24/CghzflW7H_iATdynAAA-FlXAIeA738.jpg,https://you.ctrip.com/sight/jingyuan2329/145726313.html?scene=onlinesearch,35.370648,106.322541
知识科普型,博物馆,145297447,盐池长城民俗博物馆,0.0,0,,盐池,盐池,,,,博物馆&展馆,,否,https://dimg04.c-ctrip.com/images/fd/tg/g1/M06/FC/24/CghzflW7H_iATdynAAA-FlXAIeA738.jpg,https://you.ctrip.com/sight/yanchi1446190/145297447.html?scene=onlinesearch,37.810241,107.38773
知识科普型,博物馆,148590289,宁夏固原博物馆-主题陈列展厅,0.0,0,,固原,固原,,,,,,否,https://dimg04.c-ctrip.com/images/fd/tg/g1/M06/FC/24/CghzflW7H_iATdynAAA-FlXAIeA738.jpg,https://you.ctrip.com/sight/guyuan888/148590289.html?scene=onlinesearch,36.011323,106.282722
知识科普型,博物馆,145687705,宁夏固原博物馆-互动体验中心,0.0,0,,固原,固原,,,,博物馆&展馆,,否,https://dimg04.c-ctrip.com/images/fd/tg/g1/M06/FC/24/CghzflW7H_iATdynAAA-FlXAIeA738.jpg,https://you.ctrip.com/sight/guyuan888/145687705.html?scene=onlinesearch,36.011288,106.282714
知识科普型,博物馆,145217807,宁夏海原县金福博物馆,0.0,0,,海原,海原,,,,博物馆&展馆,免费,是,https://dimg04.c-ctrip.com/images/fd/tg/g1/M06/FC/24/CghzflW7H_iATdynAAA-FlXAIeA738.jpg,https://you.ctrip.com/sight/haiyuan2325/145217807.html?scene=onlinesearch,36.583333,105.658044
知识科普型,博物馆,145476416,长城博物馆,0.0,0,,中卫,中卫,,,,博物馆&展馆,,否,https://dimg04.c-ctrip.com/images/fd/tg/g1/M06/FC/24/CghzflW7H_iATdynAAA-FlXAIeA738.jpg,https://you.ctrip.com/sight/zhongwei1184/145476416.html?scene=onlinesearch,37.583904,105.147796
知识科普型,博物馆,145633177,农耕民俗文化博物馆,0.0,0,,吴忠,吴忠,,,,博物馆&展馆,,否,https://dimg04.c-ctrip.com/images/fd/tg/g1/M06/FC/24/CghzflW7H_iATdynAAA-FlXAIeA738.jpg,https://you.ctrip.com/sight/wuzhong890/145633177.html?scene=onlinesearch,37.96922,106.220976
知识科普型,博物馆,148749640,黄河农耕博物馆,0.0,0,,吴忠,吴忠,,,,博物馆&展馆,,否,https://dimg04.c-ctrip.com/images/fd/tg/g1/M06/FC/24/CghzflW7H_iATdynAAA-FlXAIeA738.jpg,https://you.ctrip.com/sight/wuzhong890/148749640.html?scene=onlinesearch,37.968727,106.224326
知识科普型,博物馆,145276022,大水坑镇石油博物馆,0.0,0,,盐池,盐池,,,,博物馆&展馆,,否,https://dimg04.c-ctrip.com/images/fd/tg/g1/M06/FC/24/CghzflW7H_iATdynAAA-FlXAIeA738.jpg,https://you.ctrip.com/sight/yanchi1446190/145276022.html?scene=onlinesearch,37.443366,106.973201
知识科普型,博物馆,150306475,活体昆虫博物馆(国芳百货店),0.0,0,,银川,银川,,,,博物馆&展馆,,否,https://dimg04.c-ctrip.com/images/fd/tg/g1/M06/FC/24/CghzflW7H_iATdynAAA-FlXAIeA738.jpg,https://you.ctrip.com/sight/yinchuan239/150306475.html?scene=onlinesearch,38.4676,106.290255
知识科普型,博物馆,150316121,海原县非遗文化传承基地(博物馆),0.0,0,,海原,海原,,,,博物馆&展馆,,否,https://dimg04.c-ctrip.com/images/fd/tg/g1/M06/FC/24/CghzflW7H_iATdynAAA-FlXAIeA738.jpg,https://you.ctrip.com/sight/haiyuan2325/150316121.html?scene=onlinesearch,36.551414,105.657322
知识科普型,博物馆,148687174,兴唐宁夏稻米博物馆,0.0,0,,灵武,灵武,,,,博物馆&展馆,,否,https://dimg04.c-ctrip.com/images/fd/tg/g1/M06/FC/24/CghzflW7H_iATdynAAA-FlXAIeA738.jpg,https://you.ctrip.com/sight/lingwu2323/148687174.html?scene=onlinesearch,38.089625,106.328193
知识科普型,博物馆,145692670,石嘴山市博物馆-工业展厅,0.0,0,,石嘴山,石嘴山,,,,博物馆&展馆,,否,https://dimg04.c-ctrip.com/images/fd/tg/g1/M06/FC/24/CghzflW7H_iATdynAAA-FlXAIeA738.jpg,https://you.ctrip.com/sight/shizuishan889/145692670.html?scene=onlinesearch,38.99525,106.377907
知识科普型,博物馆,148660888,宁夏饮食文化艺术博物馆,0.0,0,鼓楼/南门广场,银川,银川 · 鼓楼/南门广场,,,,博物馆&展馆,,否,https://dimg04.c-ctrip.com/images/fd/tg/g1/M06/FC/24/CghzflW7H_iATdynAAA-FlXAIeA738.jpg,https://you.ctrip.com/sight/yinchuan239/148660888.html?scene=onlinesearch,38.46632,106.29113
知识科普型,博物馆,145139083,星空失恋博物馆(厚几彩润城店),0.0,0,,吴忠,吴忠,,,,博物馆&展馆,,否,https://dimg04.c-ctrip.com/images/fd/tg/g1/M06/FC/24/CghzflW7H_iATdynAAA-FlXAIeA738.jpg,https://you.ctrip.com/sight/wuzhong890/145139083.html?scene=onlinesearch,37.992251,106.196718
知识科普型,博物馆,145189356,巨日奇石博物馆,0.0,0,沙坡头旅游景区,中卫,中卫 · 沙坡头旅游景区,,,,博物馆&展馆,,否,https://dimg04.c-ctrip.com/images/fd/tg/g1/M06/FC/24/CghzflW7H_iATdynAAA-FlXAIeA738.jpg,https://you.ctrip.com/sight/zhongwei1184/145189356.html?scene=onlinesearch,37.506286,105.105116
知识科普型,博物馆,145299131,大武口民俗文化博物馆,0.0,0,,石嘴山,石嘴山,,,,博物馆&展馆,,否,https://dimg04.c-ctrip.com/images/fd/tg/g1/M06/FC/24/CghzflW7H_iATdynAAA-FlXAIeA738.jpg,https://you.ctrip.com/sight/shizuishan889/145299131.html?scene=onlinesearch,38.975141,106.292802
知识科普型,博物馆,145516473,宁夏煤炭地质博物馆机器人展示中心,0.0,0,,石嘴山,石嘴山,,,,博物馆&展馆,,否,https://dimg04.c-ctrip.com/images/fd/tg/g1/M06/FC/24/CghzflW7H_iATdynAAA-FlXAIeA738.jpg,https://you.ctrip.com/sight/shizuishan889/145516473.html?scene=onlinesearch,39.253287,106.790369
知识科普型,博物馆,143750027,宁夏农业博物馆,0.0,0,,平罗,平罗,,,,"博物馆, 博物馆&展馆",,否,https://dimg04.c-ctrip.com/images/fd/tg/g1/M08/AE/87/CghzfVW7IAOAbNKNAABCrs7mUrY425.jpg,https://you.ctrip.com/sight/pingluo2102/143750027.html?scene=onlinesearch,38.836482,106.398053
知识科普型,博物馆,152879788,宁夏长城博物馆,0.0,0,,盐池,盐池,,,,博物馆&展馆,,否,https://dimg04.c-ctrip.com/images/fd/tg/g1/M06/FC/24/CghzflW7H_iATdynAAA-FlXAIeA738.jpg,https://you.ctrip.com/sight/yanchi1446190/152879788.html?scene=onlinesearch,37.805323,107.402476
知识科普型,博物馆,145160117,贺兰山磷矿博物馆,0.0,0,,贺兰,贺兰,,,,博物馆&展馆,,否,https://dimg04.c-ctrip.com/images/fd/tg/g1/M06/FC/24/CghzflW7H_iATdynAAA-FlXAIeA738.jpg,https://you.ctrip.com/sight/helan2119/145160117.html?scene=onlinesearch,38.707068,106.006748
知识科普型,博物馆,145234271,银川市古方秘方中医研究会博物馆,0.0,0,鼓楼/南门广场,银川,银川 · 鼓楼/南门广场,,,,博物馆&展馆,,否,https://dimg04.c-ctrip.com/images/fd/tg/g1/M06/FC/24/CghzflW7H_iATdynAAA-FlXAIeA738.jpg,https://you.ctrip.com/sight/yinchuan239/145234271.html?scene=onlinesearch,38.470406,106.29269
知识科普型,博物馆,145408755,博物馆广场,0.0,0,,固原,固原,,,,,,否,https://dimg04.c-ctrip.com/images/0102u1200086k28vc0A5C.jpg,https://you.ctrip.com/sight/guyuan888/145408755.html?scene=onlinesearch,36.010897,106.283981
知识科普型,博物馆,145446494,梧桐树乡民俗文化博物馆,0.0,0,,灵武,灵武,,,,博物馆&展馆,,否,https://dimg04.c-ctrip.com/images/fd/tg/g1/M06/FC/24/CghzflW7H_iATdynAAA-FlXAIeA738.jpg,https://you.ctrip.com/sight/lingwu2323/145446494.html?scene=onlinesearch,38.170875,106.295784
知识科普型,博物馆,148672751,毛泽东像章博物馆书画院,0.0,0,怀远观光夜市/西夏万达广场,银川,银川 · 怀远观光夜市/西夏万达广场,,,,博物馆&展馆,,否,https://dimg04.c-ctrip.com/images/fd/tg/g1/M06/FC/24/CghzflW7H_iATdynAAA-FlXAIeA738.jpg,https://you.ctrip.com/sight/yinchuan239/148672751.html?scene=onlinesearch,38.500908,106.121783
知识科普型,博物馆,150338431,回商博物馆,0.0,0,,同心,同心,,,,博物馆&展馆,,否,https://dimg04.c-ctrip.com/images/fd/tg/g1/M06/FC/24/CghzflW7H_iATdynAAA-FlXAIeA738.jpg,https://you.ctrip.com/sight/tongxin2327/150338431.html?scene=onlinesearch,36.979089,105.928443
知识科普型,博物馆,145159117,金山集邮文化博物馆,0.0,0,,青铜峡,青铜峡,,,,博物馆&展馆,,否,https://dimg04.c-ctrip.com/images/fd/tg/g1/M06/FC/24/CghzflW7H_iATdynAAA-FlXAIeA738.jpg,https://you.ctrip.com/sight/qingtongxia2330/145159117.html?scene=onlinesearch,38.077184,106.150998
知识科普型,博物馆,152843273,爱恩接发博物馆,0.0,0,建发悠阅城/宝湖公园,银川,银川 · 建发悠阅城/宝湖公园,,,,博物馆&展馆,,否,https://dimg04.c-ctrip.com/images/fd/tg/g1/M06/FC/24/CghzflW7H_iATdynAAA-FlXAIeA738.jpg,https://you.ctrip.com/sight/yinchuan239/152843273.html?scene=onlinesearch,38.452691,106.242782
知识科普型,博物馆,143743271,西部民间书画博物馆,0.0,0,,石嘴山,石嘴山,,,,"博物馆, 博物馆&展馆",,否,https://dimg04.c-ctrip.com/images/fd/tg/g1/M08/AE/87/CghzfVW7IAOAbNKNAABCrs7mUrY425.jpg,https://you.ctrip.com/sight/shizuishan889/143743271.html?scene=onlinesearch,38.933696,106.368731
知识科普型,博物馆,148540959,西吉县乡愁民俗农耕文化博物馆,0.0,0,,西吉,西吉,,,,博物馆&展馆,,否,https://dimg04.c-ctrip.com/images/fd/tg/g1/M06/FC/24/CghzflW7H_iATdynAAA-FlXAIeA738.jpg,https://you.ctrip.com/sight/xiji1446188/148540959.html?scene=onlinesearch,36.028246,105.654118
知识科普型,博物馆,148550824,纸文化博物馆银川市兴庆区新寨路杨家寨四组,0.0,0,,银川,银川,,,,博物馆&展馆,,否,https://dimg04.c-ctrip.com/images/fd/tg/g1/M06/FC/24/CghzflW7H_iATdynAAA-FlXAIeA738.jpg,https://you.ctrip.com/sight/yinchuan239/148550824.html?scene=onlinesearch,38.458355,106.358398
知识科普型,博物馆,148750635,纸文化博物馆,0.0,0,,银川,银川,,,,博物馆&展馆,,否,https://dimg04.c-ctrip.com/images/fd/tg/g1/M06/FC/24/CghzflW7H_iATdynAAA-FlXAIeA738.jpg,https://you.ctrip.com/sight/yinchuan239/148750635.html?scene=onlinesearch,38.452543,106.359449
知识科普型,博物馆,149382292,Whisky Museum威士忌博物馆(建发悠阅城店),0.0,0,建发悠阅城/宝湖公园,银川,银川 · 建发悠阅城/宝湖公园,,,,,,否,https://dimg04.c-ctrip.com/images/fd/tg/g1/M06/FC/24/CghzflW7H_iATdynAAA-FlXAIeA738.jpg,https://you.ctrip.com/sight/yinchuan239/149382292.html?scene=onlinesearch,38.433367,106.247653
知识科普型,博物馆,38986357,石嘴山石文化博物馆,0.0,0,,石嘴山,石嘴山,,,,"博物馆, 博物馆&展馆",,否,https://dimg04.c-ctrip.com/images/fd/tg/g1/M08/AE/87/CghzfVW7IAOAbNKNAABCrs7mUrY425.jpg,https://you.ctrip.com/sight/shizuishan889/3170718.html?scene=onlinesearch,38.935775,106.371718
知识科普型,博物馆,79439031,中华回医药文化博物馆,0.0,0,,银川,银川,,,,"博物馆, 博物馆&展馆",免费,是,https://dimg04.c-ctrip.com/images/fd/tg/g1/M08/AE/87/CghzfVW7IAOAbNKNAABCrs7mUrY425.jpg,https://you.ctrip.com/sight/yinchuan239/5705398.html?scene=onlinesearch,38.4192,106.289
知识科普型,博物馆,51590991,中宁县枸杞博物馆,4.6,5,,中宁,中宁,,,,"博物馆, 博物馆&展馆",,否,https://dimg04.c-ctrip.com/images/0102t120008ayce2k8805.jpg,https://you.ctrip.com/sight/zhongning2328/4576054.html?scene=onlinesearch,37.531599,105.673591
知识科普型,科技馆,13489600,宁夏科技馆,4.8,94,宁夏博物馆/市中心,银川,银川 · 宁夏博物馆/市中心,,,在穹幕影院观看5D电影,"科技馆, 博物馆&展馆",免费,是,https://dimg04.c-ctrip.com/images/0106812000atjgiwp4692.jpg,https://you.ctrip.com/sight/yinchuan239/1413798.html?scene=onlinesearch,38.493933,106.232946
知识科普型,科技馆,148644699,航天科技馆,0.0,0,,银川,银川,,,,博物馆&展馆,,否,https://dimg04.c-ctrip.com/images/0HJ1l12000g94drxu69FA.jpg,https://you.ctrip.com/sight/yinchuan239/148644699.html?scene=onlinesearch,38.444036,106.304793
知识科普型,科技馆,39398694,石嘴山市科技馆,4.7,3,,石嘴山,石嘴山,,,,"科技馆, 博物馆&展馆",免费,是,https://dimg04.c-ctrip.com/images/0105j12000b3gglo2DE2C.jpg,https://you.ctrip.com/sight/shizuishan889/3579255.html?scene=onlinesearch,38.994343,106.376383
知识科普型,科技馆,39077020,宁夏电力科技馆,0.0,0,宁夏博物馆/市中心,银川,银川 · 宁夏博物馆/市中心,,,,"科技馆, 博物馆&展馆",,否,https://dimg04.c-ctrip.com/images/0100712000c2yy4sk4BAB.jpg,https://you.ctrip.com/sight/yinchuan239/3260381.html?scene=onlinesearch,38.478573,106.241799
知识科普型,科技馆,148561978,固原市科技馆,0.0,0,,固原,固原,,,,博物馆&展馆,,否,https://dimg04.c-ctrip.com/images/0HJ1a12000g90rme3F1ED.jpg,https://you.ctrip.com/sight/guyuan888/148561978.html?scene=onlinesearch,36.00699,106.250114
知识科普型,科技馆,145682414,中卫市青少年科技馆,0.0,0,,中卫,中卫,,,,博物馆&展馆,,否,https://dimg04.c-ctrip.com/images/0HJ4v12000g6lmnd222F3.jpg,https://you.ctrip.com/sight/zhongwei1184/145682414.html?scene=onlinesearch,37.515308,105.211996
知识科普型,科技馆,149966789,宁夏科技馆-科技之光,0.0,0,宁夏博物馆/市中心,银川,银川 · 宁夏博物馆/市中心,,,,博物馆&展馆,,否,https://dimg04.c-ctrip.com/images/fd/tg/g1/M06/FC/24/CghzflW7H_iATdynAAA-FlXAIeA738.jpg,https://you.ctrip.com/sight/yinchuan239/149966789.html?scene=onlinesearch,38.494452,106.233075
知识科普型,科技馆,145623392,吴忠市科技馆,5.0,1,,吴忠,吴忠,,,,博物馆&展馆,,否,https://dimg04.c-ctrip.com/images/fd/tg/g1/M06/FC/24/CghzflW7H_iATdynAAA-FlXAIeA738.jpg,https://you.ctrip.com/sight/wuzhong890/145623392.html?scene=onlinesearch,37.994591,106.167887
知识科普型,科技馆,149990357,宁夏科技馆-宇宙探秘,0.0,0,宁夏博物馆/市中心,银川,银川 · 宁夏博物馆/市中心,,,,博物馆&展馆,,否,https://dimg04.c-ctrip.com/images/fd/tg/g1/M06/FC/24/CghzflW7H_iATdynAAA-FlXAIeA738.jpg,https://you.ctrip.com/sight/yinchuan239/149990357.html?scene=onlinesearch,38.494147,106.23299
知识科普型,科技馆,145471640,中卫科技馆,0.0,0,,中卫,中卫,,,,博物馆&展馆,,否,https://dimg04.c-ctrip.com/images/fd/tg/g1/M06/FC/24/CghzflW7H_iATdynAAA-FlXAIeA738.jpg,https://you.ctrip.com/sight/zhongwei1184/145471640.html?scene=onlinesearch,37.499897,105.180604
知识科普型,科技馆,145902931,吴忠科技馆-梦幻剧场,0.0,0,,吴忠,吴忠,,,,,,否,https://dimg04.c-ctrip.com/images/0102u1200086k28vc0A5C.jpg,https://you.ctrip.com/sight/wuzhong890/145902931.html?scene=onlinesearch,37.994563,106.167959
知识科普型,科技馆,145506973,宁夏科技馆-趣·乐园,0.0,0,宁夏博物馆/市中心,银川,银川 · 宁夏博物馆/市中心,,,,博物馆&展馆,,否,https://dimg04.c-ctrip.com/images/fd/tg/g1/M06/FC/24/CghzflW7H_iATdynAAA-FlXAIeA738.jpg,https://you.ctrip.com/sight/yinchuan239/145506973.html?scene=onlinesearch,38.494058,106.233037
知识科普型,科技馆,145457659,银川国际鲜花港科技馆,0.0,0,,银川,银川,,,,博物馆&展馆,,否,https://dimg04.c-ctrip.com/images/fd/tg/g1/M06/FC/24/CghzflW7H_iATdynAAA-FlXAIeA738.jpg,https://you.ctrip.com/sight/yinchuan239/145457659.html?scene=onlinesearch,38.512238,106.346429
知识科普型,科技馆,145437273,中卫市科技馆,0.0,0,,中卫,中卫,,,,博物馆&展馆,,否,https://dimg04.c-ctrip.com/images/fd/tg/g1/M06/FC/24/CghzflW7H_iATdynAAA-FlXAIeA738.jpg,https://you.ctrip.com/sight/zhongwei1184/145437273.html?scene=onlinesearch,37.638538,105.308073
知识科普型,科技馆,145581186,宁夏科技馆-幻·声光,0.0,0,宁夏博物馆/市中心,银川,银川 · 宁夏博物馆/市中心,,,,博物馆&展馆,,否,https://dimg04.c-ctrip.com/images/fd/tg/g1/M06/FC/24/CghzflW7H_iATdynAAA-FlXAIeA738.jpg,https://you.ctrip.com/sight/yinchuan239/145581186.html?scene=onlinesearch,38.49411,106.233254
知识科普型,科技馆,149972163,生活中的科学(宁夏科技馆),0.0,0,宁夏博物馆/市中心,银川,银川 · 宁夏博物馆/市中心,,,,博物馆&展馆,,否,https://dimg04.c-ctrip.com/images/fd/tg/g1/M06/FC/24/CghzflW7H_iATdynAAA-FlXAIeA738.jpg,https://you.ctrip.com/sight/yinchuan239/149972163.html?scene=onlinesearch,38.494483,106.233082
知识科普型,科技馆,143306901,银川市城市学校少年宫(北京东路),0.0,0,鼓楼/南门广场,银川,银川 · 鼓楼/南门广场,,,,,,否,https://dimg04.c-ctrip.com/images/fd/tg/g2/M02/AE/60/CghzgFW7IAOAEslQAAA_0sCVZfg527.jpg,https://you.ctrip.com/sight/yinchuan239/143306901.html?scene=onlinesearch,38.483217,106.280072
知识科普型,科技馆,145475500,盐池科技馆,0.0,0,,盐池,盐池,,,,博物馆&展馆,,否,https://dimg04.c-ctrip.com/images/fd/tg/g1/M06/FC/24/CghzflW7H_iATdynAAA-FlXAIeA738.jpg,https://you.ctrip.com/sight/yanchi1446190/145475500.html?scene=onlinesearch,37.791828,107.396303
知识科普型,科技馆,145673040,惠农区科技馆,0.0,0,,石嘴山,石嘴山,,,,博物馆&展馆,,否,https://dimg04.c-ctrip.com/images/fd/tg/g1/M06/FC/24/CghzflW7H_iATdynAAA-FlXAIeA738.jpg,https://you.ctrip.com/sight/shizuishan889/145673040.html?scene=onlinesearch,39.252958,106.790751
知识科普型,科技馆,145570167,平罗县科技馆,0.0,0,,平罗,平罗,,,,博物馆&展馆,,否,https://dimg04.c-ctrip.com/images/fd/tg/g1/M06/FC/24/CghzflW7H_iATdynAAA-FlXAIeA738.jpg,https://you.ctrip.com/sight/pingluo2102/145570167.html?scene=onlinesearch,38.91647,106.532206
知识科普型,科技馆,145303651,固原市科技馆,0.0,0,,固原,固原,,,,博物馆&展馆,,否,https://dimg04.c-ctrip.com/images/fd/tg/g1/M06/FC/24/CghzflW7H_iATdynAAA-FlXAIeA738.jpg,https://you.ctrip.com/sight/guyuan888/145303651.html?scene=onlinesearch,36.038515,106.27844
知识科普型,科技馆,148712668,宁夏西吉县龙王坝乡村科技馆,0.0,0,,西吉,西吉,,,,博物馆&展馆,,否,https://dimg04.c-ctrip.com/images/fd/tg/g1/M06/FC/24/CghzflW7H_iATdynAAA-FlXAIeA738.jpg,https://you.ctrip.com/sight/xiji1446188/148712668.html?scene=onlinesearch,35.964287,105.626184
知识科普型,科技馆,143690550,少年宫,0.0,0,,灵武,灵武,,,,,,否,https://dimg04.c-ctrip.com/images/fd/tg/g2/M02/AE/60/CghzgFW7IAOAEslQAAA_0sCVZfg527.jpg,https://you.ctrip.com/sight/lingwu2323/143690550.html?scene=onlinesearch,38.102104,106.34059
知识科普型,科技馆,145583246,同心县青少年科技馆,0.0,0,,同心,同心,,,,博物馆&展馆,,否,https://dimg04.c-ctrip.com/images/fd/tg/g1/M06/FC/24/CghzflW7H_iATdynAAA-FlXAIeA738.jpg,https://you.ctrip.com/sight/tongxin2327/145583246.html?scene=onlinesearch,36.970563,105.924744
知识科普型,科技馆,149984250,奇磁电(宁夏科技馆),0.0,0,宁夏博物馆/市中心,银川,银川 · 宁夏博物馆/市中心,,,,博物馆&展馆,,否,https://dimg04.c-ctrip.com/images/fd/tg/g1/M06/FC/24/CghzflW7H_iATdynAAA-FlXAIeA738.jpg,https://you.ctrip.com/sight/yinchuan239/149984250.html?scene=onlinesearch,38.494422,106.233166
知识科普型,科技馆,151290292,中国流动科技馆,0.0,0,,贺兰,贺兰,,,,博物馆&展馆,,否,https://dimg04.c-ctrip.com/images/fd/tg/g1/M06/FC/24/CghzflW7H_iATdynAAA-FlXAIeA738.jpg,https://you.ctrip.com/sight/helan2119/151290292.html?scene=onlinesearch,38.550544,106.342014
知识科普型,科技馆,145605108,九中科技馆-C座,0.0,0,览山公园/阅彩城,银川,银川 · 览山公园/阅彩城,,,,,,否,https://dimg04.c-ctrip.com/images/fd/tg/g1/M06/FC/24/CghzflW7H_iATdynAAA-FlXAIeA738.jpg,https://you.ctrip.com/sight/yinchuan239/145605108.html?scene=onlinesearch,38.508163,106.21266
知识科普型,科技馆,152821472,未来之星生活科技馆,0.0,0,,贺兰,贺兰,,,,博物馆&展馆,,否,https://dimg04.c-ctrip.com/images/fd/tg/g1/M06/FC/24/CghzflW7H_iATdynAAA-FlXAIeA738.jpg,https://you.ctrip.com/sight/helan2119/152821472.html?scene=onlinesearch,38.555442,106.35358
知识科普型,动物园,38957067,银川动物园,4.5,37,鼓楼/南门广场,银川,银川 · 鼓楼/南门广场,,,原为西夏国元吴宫遗址,动物园&水族馆,,否,https://dimg04.c-ctrip.com/images/100h1f000001grwpg19E7.jpg,https://you.ctrip.com/sight/yinchuan239/3141628.html?tagId=286&scene=onlinesearch,38.48437,106.272673
知识科普型,动物园,145506761,华夏奇石山文化旅游区-户外动物园,0.0,0,,石嘴山,石嘴山,,,,动物园&水族馆,,否,https://dimg04.c-ctrip.com/images/fd/tg/g1/M06/FC/24/CghzflW7H_iATdynAAA-FlXAIeA738.jpg,https://you.ctrip.com/sight/shizuishan889/145506761.html?tagId=286&scene=onlinesearch,38.997662,106.3972
知识科普型,动物园,145126142,膨胀动物园,0.0,0,,银川,银川,,,,动物园&水族馆,,否,https://dimg04.c-ctrip.com/images/fd/tg/g1/M06/FC/24/CghzflW7H_iATdynAAA-FlXAIeA738.jpg,https://you.ctrip.com/sight/yinchuan239/145126142.html?tagId=286&scene=onlinesearch,38.468046,106.287535
知识科普型,动物园,38451181,珍奇特动物园,0.0,0,,青铜峡,青铜峡,,,,动物园&水族馆,,否,https://dimg04.c-ctrip.com/images/fd/tg/g2/M08/AE/60/CghzgFW7H_iAHrajAAA9JobItL4932.jpg,https://you.ctrip.com/sight/qingtongxia2330/2640842.html?tagId=286&scene=onlinesearch,38.017651,106.169633
知识科普型,植物园,10544615,宁夏农旅产业园,4.1,99,,贺兰,贺兰,,,景观丰富多样,"清凉漂流, 遛娃宝藏地",,否,https://dimg04.c-ctrip.com/images/1lo4712000h9d8pvt1FE9.jpg,https://you.ctrip.com/sight/helan2119/129297.html?scene=onlinesearch,38.589185,106.330032
知识科普型,植物园,38956659,六盘山珍稀植物园,0.0,0,,隆德,隆德,,,,"植物园, 公园&植物园",,否,https://dimg04.c-ctrip.com/images/010151200097ptuqy7730.jpg,https://you.ctrip.com/sight/longde2326/3141220.html?scene=onlinesearch,35.632392,106.152294
知识科普型,植物园,38490879,六盘山生态植物园,4.0,2,,泾源,泾源,,,,"植物园, 公园&植物园",,否,https://dimg04.c-ctrip.com/images/0104712000937yzcu60BC.png,https://you.ctrip.com/sight/jingyuan2329/2680040.html?scene=onlinesearch,35.368949,106.314942
知识科普型,植物园,38499654,马鞍山生态园,5.0,1,,灵武,灵武,,,,,,否,https://dimg04.c-ctrip.com/images/0102f1200096wrkih3389.png,https://you.ctrip.com/sight/lingwu2323/2688715.html?scene=onlinesearch,38.321542,106.412424
知识科普型,植物园,51888475,花博园-中阿友谊博览园,0.0,0,览山公园/阅彩城,银川,银川 · 览山公园/阅彩城,,,,,,否,https://dimg04.c-ctrip.com/images/0106o12000dcdutk5E083.jpg,https://you.ctrip.com/sight/yinchuan239/4623616.html?scene=onlinesearch,38.538982,106.227958
知识科普型,植物园,38499635,海澜金沙生态园,3.0,1,,永宁,永宁,,,,,,否,https://dimg04.c-ctrip.com/images/01059120009c0ev19AC70.png,https://you.ctrip.com/sight/yongning2324/2688696.html?scene=onlinesearch,38.370715,106.178211
知识科普型,植物园,39293928,林枫生态园,0.0,0,,吴忠,吴忠,,,,"植物园, 公园&植物园",,否,https://dimg04.c-ctrip.com/images/0HJ1312000g2wu4v88D3E.jpg,https://you.ctrip.com/sight/wuzhong890/3475389.html?scene=onlinesearch,37.803332,106.282415
知识科普型,植物园,51607552,六盘山生态植物园-凉亭,4.0,2,,泾源,泾源,,,,历史建筑,,否,https://dimg04.c-ctrip.com/images/fd/tg/g1/M08/FC/24/CghzflW7IACAHgzUAAAvGcMqieg905.jpg,https://you.ctrip.com/sight/jingyuan2329/4582178.html?scene=onlinesearch,35.370105,106.318273
知识科普型,植物园,51888509,荣恒园,0.0,0,宁夏博物馆/市中心,银川,银川 · 宁夏博物馆/市中心,,,,,,否,https://dimg04.c-ctrip.com/images/fd/tg/g2/M08/C4/B0/CghzgVW7H_mAH93mAAA_kl5amJk965.jpg,https://you.ctrip.com/sight/yinchuan239/4623635.html?scene=onlinesearch,38.494071,106.243115
知识科普型,植物园,145457645,植物园村郊野公园,0.0,0,,永宁,永宁,,,,,,否,https://dimg04.c-ctrip.com/images/fd/tg/g1/M06/FC/24/CghzflW7H_iATdynAAA-FlXAIeA738.jpg,https://you.ctrip.com/sight/yongning2324/145457645.html?scene=onlinesearch,38.391909,106.178547
知识科普型,植物园,148682457,植物园清真大寺,0.0,0,,银川,银川,,,,,,否,https://dimg04.c-ctrip.com/images/fd/tg/g1/M06/FC/24/CghzflW7H_iATdynAAA-FlXAIeA738.jpg,https://you.ctrip.com/sight/yinchuan239/148682457.html?scene=onlinesearch,38.410437,106.174492
知识科普型,植物园,151269852,沙坡头沙生植物园,0.0,0,沙坡头旅游景区,中卫,中卫 · 沙坡头旅游景区,,,,公园&植物园,,否,https://dimg04.c-ctrip.com/images/fd/tg/g1/M06/FC/24/CghzflW7H_iATdynAAA-FlXAIeA738.jpg,https://you.ctrip.com/sight/zhongwei1184/151269852.html?scene=onlinesearch,37.473884,105.009416
知识科普型,植物园,148552094,松鹤陵园植物园办事处,0.0,0,鼓楼/南门广场,银川,银川 · 鼓楼/南门广场,,,,,,否,https://dimg04.c-ctrip.com/images/fd/tg/g1/M06/FC/24/CghzflW7H_iATdynAAA-FlXAIeA738.jpg,https://you.ctrip.com/sight/yinchuan239/148552094.html?scene=onlinesearch,38.468263,106.27892
知识科普型,植物园,151290257,人保财险金凤区良田镇植物园村,0.0,0,,银川,银川,,,,,,否,https://dimg04.c-ctrip.com/images/fd/tg/g1/M06/FC/24/CghzflW7H_iATdynAAA-FlXAIeA738.jpg,https://you.ctrip.com/sight/yinchuan239/151290257.html?scene=onlinesearch,38.41183,106.179106
知识科普型,历史文化遗产,136542942,盐州古城历史文化旅游区,5.0,3,,盐池,盐池,,4A,,,免费,是,https://dimg04.c-ctrip.com/images/0104i12000f6qs0qvD8DB.jpg,https://you.ctrip.com/sight/yanchi1446190/136542942.html?scene=onlinesearch,37.802726,107.398768
知识科普型,历史文化遗产,38450980,盐池县革命历史纪念园,4.7,8,,盐池,盐池,,,展示当地民俗文化的博物馆,"博物馆, 博物馆&展馆",免费,是,https://dimg04.c-ctrip.com/images/0100f12000asgupkf267F.jpg,https://you.ctrip.com/sight/yanchi1446190/2640641.html?scene=onlinesearch,37.775945,107.384648
知识科普型,历史文化遗产,51537193,星海广场-历史文化园,4.0,1,,石嘴山,石嘴山,,,,地标观景,,否,https://dimg04.c-ctrip.com/images/0106v12000di98e9pE3B2.jpg,https://you.ctrip.com/sight/shizuishan889/4568600.html?scene=onlinesearch,38.9878,106.39
知识科普型,历史文化遗产,145663826,银川历史地震科普浮雕,0.0,0,,银川,银川,,,,,,否,https://dimg04.c-ctrip.com/images/fd/tg/g1/M06/FC/24/CghzflW7H_iATdynAAA-FlXAIeA738.jpg,https://you.ctrip.com/sight/yinchuan239/145663826.html?scene=onlinesearch,38.523614,106.316795
知识科普型,历史文化遗产,145673134,红四连革命历史纪念馆,0.0,0,,石嘴山,石嘴山,,,,,,否,https://dimg04.c-ctrip.com/images/fd/tg/g1/M06/FC/24/CghzflW7H_iATdynAAA-FlXAIeA738.jpg,https://you.ctrip.com/sight/shizuishan889/145673134.html?scene=onlinesearch,38.999235,106.36947
知识科普型,历史文化遗产,145506724,红四军革命历史纪念碑,0.0,0,,石嘴山,石嘴山,,,,,,否,https://dimg04.c-ctrip.com/images/fd/tg/g1/M06/FC/24/CghzflW7H_iATdynAAA-FlXAIeA738.jpg,https://you.ctrip.com/sight/shizuishan889/145506724.html?scene=onlinesearch,39.079493,106.364215
知识科普型,历史文化遗产,150135429,星海湖历史文化展示馆,0.0,0,,石嘴山,石嘴山,,,,,,否,https://dimg04.c-ctrip.com/images/fd/tg/g1/M06/FC/24/CghzflW7H_iATdynAAA-FlXAIeA738.jpg,https://you.ctrip.com/sight/shizuishan889/150135429.html?scene=onlinesearch,38.996967,106.411159
知识科普型,工业遗产,129747241,洗煤厂工业遗址公园,4.8,12,,石嘴山,石嘴山,,,,避暑纳凉,,否,https://dimg04.c-ctrip.com/images/01070120008uvw3eo819D.jpg,https://you.ctrip.com/sight/shizuishan889/5716657.html?scene=onlinesearch,39.031371,106.395781
知识科普型,工业遗产,136057643,石炭井工业遗址公园,0.0,0,,石嘴山,石嘴山,,,,历史建筑,,否,https://dimg04.c-ctrip.com/images/1me4i12000dnhsjsbBA8E.jpg,https://you.ctrip.com/sight/shizuishan889/136057643.html?scene=onlinesearch,39.226803,106.363292
知识科普型,工业遗产,145408182,石炭井工业文旅影视小镇,0.0,0,,石嘴山,石嘴山,,,,,,否,https://dimg04.c-ctrip.com/images/0HJ2k12000g2sbb9x3AAD.jpg,https://you.ctrip.com/sight/shizuishan889/145408182.html?scene=onlinesearch,39.222129,106.361259
知识科普型,工业遗产,145392097,宁夏工业职业学院-文体中心,0.0,0,怀远观光夜市/西夏万达广场,银川,银川 · 怀远观光夜市/西夏万达广场,,,,,,否,https://dimg04.c-ctrip.com/images/fd/tg/g1/M06/FC/24/CghzflW7H_iATdynAAA-FlXAIeA738.jpg,https://you.ctrip.com/sight/yinchuan239/145392097.html?scene=onlinesearch,38.503881,106.137829
知识科普型,工业遗产,143729254,昊升农机汽车城工业文化主题公园,0.0,0,,永宁,永宁,,,,,,否,https://dimg04.c-ctrip.com/images/fd/tg/g1/M06/FC/24/CghzflW7H_iATdynAAA-FlXAIeA738.jpg,https://you.ctrip.com/sight/yongning2324/143729254.html?scene=onlinesearch,38.348004,106.272427
知识科普型,工业遗产,51289830,工业文化园,0.0,0,,石嘴山,石嘴山,,,,地标观景,,否,https://dimg04.c-ctrip.com/images/fd/tg/g1/M07/FC/25/CghzflW7IASANUuCAAAtJkkq6KA204.jpg,https://you.ctrip.com/sight/shizuishan889/4568890.html?scene=onlinesearch,38.9898,106.393
知识科普型,工业遗产,145506740,宁夏工业学校-图书馆,0.0,0,,石嘴山,石嘴山,,,,,,否,https://dimg04.c-ctrip.com/images/fd/tg/g1/M06/FC/24/CghzflW7H_iATdynAAA-FlXAIeA738.jpg,https://you.ctrip.com/sight/shizuishan889/145506740.html?scene=onlinesearch,38.967553,106.401994
知识科普型,工业遗产,150149955,自治区工业和信息化厅老干部活动室,0.0,0,鼓楼/南门广场,银川,银川 · 鼓楼/南门广场,,,,,,否,https://dimg04.c-ctrip.com/images/fd/tg/g1/M06/FC/24/CghzflW7H_iATdynAAA-FlXAIeA738.jpg,https://you.ctrip.com/sight/yinchuan239/150149955.html?scene=onlinesearch,38.47247,106.289959
自然观赏型,国家公园,83186,沙坡头,4.8,28282,沙坡头旅游景区,中卫,中卫 · 沙坡头旅游景区,2025中国100必打卡景点,5A,"大漠、黄河、高山、绿洲, 欣赏浩瀚沙漠和滔滔黄河","清凉漂流, 遛娃宝藏地",门票,否,https://dimg04.c-ctrip.com/images/100o0q000000ga82rCD2E.jpg,https://you.ctrip.com/sight/zhongwei1184/50442.html?scene=onlinesearch,37.480855,105.008407
自然观赏型,自然保护区,83570,哈巴湖生态旅游区,3.9,59,,盐池,盐池,,4A,"观星空露营, 小胡杨","避暑纳凉, 草原采风",门票,否,https://dimg04.c-ctrip.com/images/0100u12000f6q0mgy07FE.jpg,https://you.ctrip.com/sight/yanchi1446190/51029.html?scene=onlinesearch,37.727941,107.067002
自然观赏型,自然保护区,58277689,宁夏云雾山国家级自然保护区,4.3,3,,固原,固原,,,,"草原采风, 自然山水",,否,https://dimg04.c-ctrip.com/images/0103k12000b8mlvq9AC39.jpg,https://you.ctrip.com/sight/guyuan888/5142833.html?scene=onlinesearch,36.249265,106.404628
自然观赏型,自然保护区,83544,罗山国家级自然保护区,0.0,8,,同心,同心,,,物种繁多,"登高爬山, 自然山水",,否,https://dimg04.c-ctrip.com/images/0103r12000b5vjcpl2CFB.jpg,https://you.ctrip.com/sight/tongxin2327/50992.html?scene=onlinesearch,37.253704,106.316546
自然观赏型,自然保护区,50612020,宁夏南华山国家级自然保护区,5.0,1,,海原,海原,,,,登高爬山,,否,https://dimg04.c-ctrip.com/images/0106v12000960u0im37DC.png,https://you.ctrip.com/sight/haiyuan2325/4481205.html?scene=onlinesearch,36.436785,105.614591
自然观赏型,自然保护区,83583,青铜峡鸟岛自然保护区,4.3,8,,青铜峡,青铜峡,,,山水相映，鸟儿成群,,,否,https://dimg04.c-ctrip.com/images/0HJ6d12000g94i2802137.jpg,https://you.ctrip.com/sight/qingtongxia2330/51050.html?scene=onlinesearch,37.765661,105.921842
自然观赏型,自然保护区,145624848,宁夏南华山国家级自然保护区黄石崖,0.0,0,,海原,海原,,,,,,否,https://dimg04.c-ctrip.com/images/0HJ4y12000g2ro1nxBD8D.jpg,https://you.ctrip.com/sight/haiyuan2325/145624848.html?scene=onlinesearch,36.437779,105.709803
自然观赏型,自然保护区,145487701,宁夏南华山国家级自然保护区四桥沟,0.0,0,,海原,海原,,,,,,否,https://dimg04.c-ctrip.com/images/0HJ4y12000g2ro1nxBD8D.jpg,https://you.ctrip.com/sight/haiyuan2325/145487701.html?scene=onlinesearch,36.468411,105.61934
自然观赏型,自然保护区,145347225,宁夏灵武白芨滩国家级自然保护区,0.0,0,,灵武,灵武,,,,,,否,https://dimg04.c-ctrip.com/images/fd/tg/g1/M06/FC/24/CghzflW7H_iATdynAAA-FlXAIeA738.jpg,https://you.ctrip.com/sight/lingwu2323/145347225.html?scene=onlinesearch,38.108598,106.341122
自然观赏型,自然保护区,145457907,宁夏南华山国家级自然保护区大马莲沟,0.0,0,,海原,海原,,,,,,否,https://dimg04.c-ctrip.com/images/fd/tg/g1/M06/FC/24/CghzflW7H_iATdynAAA-FlXAIeA738.jpg,https://you.ctrip.com/sight/haiyuan2325/145457907.html?scene=onlinesearch,36.422128,105.647613
自然观赏型,自然保护区,145715791,宁夏南华山国家级自然保护区-马万山,0.0,0,,海原,海原,,,,,,否,https://dimg04.c-ctrip.com/images/fd/tg/g1/M06/FC/24/CghzflW7H_iATdynAAA-FlXAIeA738.jpg,https://you.ctrip.com/sight/haiyuan2325/145715791.html?scene=onlinesearch,36.447123,105.650475
自然观赏型,自然保护区,145298005,青铜峡库区湿地自然保护区,0.0,0,,青铜峡,青铜峡,,,,,,否,https://dimg04.c-ctrip.com/images/fd/tg/g1/M06/FC/24/CghzflW7H_iATdynAAA-FlXAIeA738.jpg,https://you.ctrip.com/sight/qingtongxia2330/145298005.html?scene=onlinesearch,37.762325,105.911999
自然观赏型,自然保护区,152820328,白芨滩国家级自然保护区大泉管理站,0.0,0,,灵武,灵武,,,,,,否,https://dimg04.c-ctrip.com/images/fd/tg/g1/M06/FC/24/CghzflW7H_iATdynAAA-FlXAIeA738.jpg,https://you.ctrip.com/sight/lingwu2323/152820328.html?scene=onlinesearch,37.959735,106.390527
自然观赏型,自然保护区,145624875,宁夏南华山国家级自然保护区柴山沟,0.0,0,,海原,海原,,,,,,否,https://dimg04.c-ctrip.com/images/fd/tg/g1/M06/FC/24/CghzflW7H_iATdynAAA-FlXAIeA738.jpg,https://you.ctrip.com/sight/haiyuan2325/145624875.html?scene=onlinesearch,36.446502,105.619159
自然观赏型,自然保护区,145664071,宁夏南华山国家级自然保护区五桥沟,0.0,0,,海原,海原,,,,,,否,https://dimg04.c-ctrip.com/images/fd/tg/g1/M06/FC/24/CghzflW7H_iATdynAAA-FlXAIeA738.jpg,https://you.ctrip.com/sight/haiyuan2325/145664071.html?scene=onlinesearch,36.483757,105.622675
自然观赏型,自然保护区,149985343,宁夏南华山国家级自然保护区平岘顶,0.0,0,,海原,海原,,,,,,否,https://dimg04.c-ctrip.com/images/fd/tg/g1/M06/FC/24/CghzflW7H_iATdynAAA-FlXAIeA738.jpg,https://you.ctrip.com/sight/haiyuan2325/149985343.html?scene=onlinesearch,36.45558,105.633952
自然观赏型,自然保护区,150136013,宁夏南华山国家级自然保护区干涝坝埫,0.0,0,,海原,海原,,,,,,否,https://dimg04.c-ctrip.com/images/fd/tg/g1/M06/FC/24/CghzflW7H_iATdynAAA-FlXAIeA738.jpg,https://you.ctrip.com/sight/haiyuan2325/150136013.html?scene=onlinesearch,36.424962,105.613961
自然观赏型,自然保护区,152792413,六盘山自然保护区,0.0,0,,泾源,泾源,,,,,,否,https://dimg04.c-ctrip.com/images/fd/tg/g1/M06/FC/24/CghzflW7H_iATdynAAA-FlXAIeA738.jpg,https://you.ctrip.com/sight/jingyuan2329/152792413.html?scene=onlinesearch,35.494905,106.317735
自然观赏型,自然保护区,145348769,宁夏南华山国家级自然保护区马场沟,0.0,0,,海原,海原,,,,,,否,https://dimg04.c-ctrip.com/images/fd/tg/g1/M06/FC/24/CghzflW7H_iATdynAAA-FlXAIeA738.jpg,https://you.ctrip.com/sight/haiyuan2325/145348769.html?scene=onlinesearch,36.496693,105.550757
自然观赏型,自然保护区,150292782,宁夏南华山国家级自然保护区-祁家套子梁,0.0,0,,海原,海原,,,,,,否,https://dimg04.c-ctrip.com/images/fd/tg/g1/M06/FC/24/CghzflW7H_iATdynAAA-FlXAIeA738.jpg,https://you.ctrip.com/sight/haiyuan2325/150292782.html?scene=onlinesearch,36.373126,105.615059
自然观赏型,自然保护区,145566224,宁夏南华山国家级自然保护区青羊山,0.0,0,,海原,海原,,,,,,否,https://dimg04.c-ctrip.com/images/fd/tg/g1/M06/FC/24/CghzflW7H_iATdynAAA-FlXAIeA738.jpg,https://you.ctrip.com/sight/haiyuan2325/145566224.html?scene=onlinesearch,36.508086,105.535057
自然观赏型,自然保护区,152831486,宁夏南华山国家自然保护区管理处,0.0,0,,海原,海原,,,,,,否,https://dimg04.c-ctrip.com/images/fd/tg/g1/M06/FC/24/CghzflW7H_iATdynAAA-FlXAIeA738.jpg,https://you.ctrip.com/sight/haiyuan2325/152831486.html?scene=onlinesearch,36.553909,105.640388
自然观赏型,自然保护区,145190486,宁夏南华山国家级自然保护区樱桃沟,0.0,0,,海原,海原,,,,,,否,https://dimg04.c-ctrip.com/images/fd/tg/g1/M06/FC/24/CghzflW7H_iATdynAAA-FlXAIeA738.jpg,https://you.ctrip.com/sight/haiyuan2325/145190486.html?scene=onlinesearch,36.351474,105.67706
自然观赏型,生态景区,143736106,长流水原生态景区,0.0,0,,中卫,中卫,,,,,,否,https://dimg04.c-ctrip.com/images/0HJ4u12000g894lc5FF0C.jpg,https://you.ctrip.com/sight/zhongwei1184/143736106.html?scene=onlinesearch,37.457315,104.889259
自然观赏型,生态景区,150107320,丝路骑士腾格里探索家营地,5.0,25,,中卫,中卫,,,,,免费,是,https://dimg04.c-ctrip.com/images/1lo5c12000k4wy4by189A.jpg,https://you.ctrip.com/sight/zhongwei1184/150107320.html?scene=onlinesearch,37.457987,104.898669
自然观赏型,生态景区,149971944,庙庙湖生态旅游景区,0.0,0,,平罗,平罗,,,,,,否,https://dimg04.c-ctrip.com/images/fd/tg/g1/M06/FC/24/CghzflW7H_iATdynAAA-FlXAIeA738.jpg,https://you.ctrip.com/sight/pingluo2102/149971944.html?scene=onlinesearch,38.84677,106.807278
自然观赏型,生态景区,83627088,棚湖湾树莓生态景区,1.0,2,,永宁,永宁,,,,,,否,https://dimg04.c-ctrip.com/images/0102u1200086k28vc0A5C.jpg,https://you.ctrip.com/sight/yongning2324/5708213.html?scene=onlinesearch,38.295429,105.98935
体验考察型,农庄,152155259,农垦农庄,0.0,0,怀远观光夜市/西夏万达广场,银川,银川 · 怀远观光夜市/西夏万达广场,,,,,,否,https://dimg04.c-ctrip.com/images/1lo4v12000m2suwrdDD80.png,https://you.ctrip.com/sight/yinchuan239/152155259.html?scene=onlinesearch,38.484529,106.195313
体验考察型,农庄,79910803,中卫市柳园亲子休闲农庄,0.0,0,,中卫,中卫,,,,,,否,https://dimg04.c-ctrip.com/images/0HJ4h12000g6l56qf998A.jpg,https://you.ctrip.com/sight/zhongwei1184/79910803.html?scene=onlinesearch,37.575214,105.173389
体验考察型,农庄,146107053,琉璃方农庄,0.0,0,,银川,银川,,,,,,否,https://dimg04.c-ctrip.com/images/0HJ5j12000g6awdb61C7C.jpg,https://you.ctrip.com/sight/yinchuan239/146107053.html?scene=onlinesearch,38.432975,106.414463
体验考察型,农庄,150311012,携程度假农庄(宁夏中宁黄羊古落联营店),0.0,0,,中宁,中宁,,,,,,否,https://dimg04.c-ctrip.com/images/0102u1200086k28vc0A5C.jpg,https://you.ctrip.com/sight/zhongning2328/150311012.html?scene=onlinesearch,37.521635,105.554033
体验考察型,农庄,145829299,东成农庄垂钓中心,0.0,0,,银川,银川,,,,,,否,https://dimg04.c-ctrip.com/images/0102u1200086k28vc0A5C.jpg,https://you.ctrip.com/sight/yinchuan239/145829299.html?scene=onlinesearch,38.491426,106.460561
体验考察型,农庄,145878338,吴忠市红寺堡区石子沟休闲农庄,0.0,0,,吴忠,吴忠,,,,,,否,https://dimg04.c-ctrip.com/images/0102u1200086k28vc0A5C.jpg,https://you.ctrip.com/sight/wuzhong890/145878338.html?scene=onlinesearch,37.41999,106.178161
体验考察型,农庄,149266757,杏福李休闲农庄,0.0,0,,银川,银川,,,,,,否,https://dimg04.c-ctrip.com/images/0102u1200086k28vc0A5C.jpg,https://you.ctrip.com/sight/yinchuan239/149266757.html?scene=onlinesearch,38.481774,106.063011
体验考察型,农庄,146047835,新刘家寨农庄(马术俱乐部),0.0,0,,灵武,灵武,,,,,,否,https://dimg04.c-ctrip.com/images/0102u1200086k28vc0A5C.jpg,https://you.ctrip.com/sight/lingwu2323/146047835.html?scene=onlinesearch,38.104922,106.607331
体验考察型,农庄,151081705,金龙湾休闲农庄,0.0,0,,贺兰,贺兰,,,,,,否,https://dimg04.c-ctrip.com/images/0102u1200086k28vc0A5C.jpg,https://you.ctrip.com/sight/helan2119/151081705.html?scene=onlinesearch,38.707064,106.300475
体验考察型,研学,133851953,腾格里研学大本营露营地,5.0,23,,中卫,中卫,,,你的沙漠，你在他的怀抱里,,,否,https://dimg04.c-ctrip.com/images/01068120009cuya492F33.jpg,https://you.ctrip.com/sight/zhongwei1184/133851953.html?scene=onlinesearch,37.518109,105.187489
体验考察型,研学,145466662,沙坡头村实践研学旅行营地,5.0,1,沙坡头旅游景区,中卫,中卫 · 沙坡头旅游景区,,,,,,否,https://dimg04.c-ctrip.com/images/fd/tg/g1/M06/FC/24/CghzflW7H_iATdynAAA-FlXAIeA738.jpg,https://you.ctrip.com/sight/zhongwei1184/145466662.html?scene=onlinesearch,37.46531,105.032005
体验考察型,研学,152790810,得闲农事教育研学基地冰场游乐园,0.0,0,,中卫,中卫,,,,,,否,https://dimg04.c-ctrip.com/images/fd/tg/g1/M06/FC/24/CghzflW7H_iATdynAAA-FlXAIeA738.jpg,https://you.ctrip.com/sight/zhongwei1184/152790810.html?scene=onlinesearch,37.56417,105.158905
体验考察型,研学,152895080,五星村农耕文化研学旅游基地,0.0,0,,平罗,平罗,,,,,,否,https://dimg04.c-ctrip.com/images/fd/tg/g1/M06/FC/24/CghzflW7H_iATdynAAA-FlXAIeA738.jpg,https://you.ctrip.com/sight/pingluo2102/152895080.html?scene=onlinesearch,38.990735,106.672549
体验考察型,研学,152791961,海原县树台乡红色足迹追忆研学中心,0.0,0,,海原,海原,,,,,,否,https://dimg04.c-ctrip.com/images/fd/tg/g1/M06/FC/24/CghzflW7H_iATdynAAA-FlXAIeA738.jpg,https://you.ctrip.com/sight/haiyuan2325/152791961.html?scene=onlinesearch,36.511114,105.397138
体验考察型,夏令营,145604964,宁夏励战营地军事夏令营,0.0,0,,贺兰,贺兰,,,,,,否,https://dimg04.c-ctrip.com/images/fd/tg/g1/M06/FC/24/CghzflW7H_iATdynAAA-FlXAIeA738.jpg,https://you.ctrip.com/sight/helan2119/145604964.html?tagId=286&scene=onlinesearch,38.589913,106.368171
体验考察型,生态农业园,136625838,塞上渔乡生态农业观光园,5.0,1,,贺兰,贺兰,,,,,,否,https://dimg04.c-ctrip.com/images/1lo5g12000b0dgtea52E6.jpg,https://you.ctrip.com/sight/helan2119/136625838.html?scene=onlinesearch,38.6318,106.369899
体验考察型,生态农业园,136638213,利思·田园蜜语农业生态产业园,0.0,0,,贺兰,贺兰,,,,度假村,,否,https://dimg04.c-ctrip.com/images/1me4r12000ggq9hux8915.jpg,https://you.ctrip.com/sight/helan2119/136638213.html?scene=onlinesearch,38.608925,106.25037
体验考察型,生态农业园,144303153,市外淘园生态农业观光园,0.0,0,,银川,银川,,,,,,否,https://dimg04.c-ctrip.com/images/1lo3812000cuv3eam7DD2.png,https://you.ctrip.com/sight/yinchuan239/144303153.html?scene=onlinesearch,38.512137,106.498407
体验考察型,生态农业园,130370106,王太堡生态农业观光园,0.0,0,,永宁,永宁,,,,,,否,https://dimg04.c-ctrip.com/images/1lo4t12000b8czzblED9B.jpg,https://you.ctrip.com/sight/yongning2324/5717384.html?scene=onlinesearch,38.256096,106.266061
体验考察型,生态农业园,145188920,农业生态园,0.0,0,漫葡·看见贺兰演艺小镇/镇北堡西部影城度假区,银川,银川 · 漫葡·看见贺兰演艺小镇/镇北堡西部影城度假区,,,,,,否,https://dimg04.c-ctrip.com/images/0HJ3j12000g6ndklvFB68.jpg,https://you.ctrip.com/sight/yinchuan239/145188920.html?scene=onlinesearch,38.6203,106.081391
励志拓展型,红色教育,148682502,红色教育主题公园,0.0,0,,永宁,永宁,,,,,,否,https://dimg04.c-ctrip.com/images/fd/tg/g1/M06/FC/24/CghzflW7H_iATdynAAA-FlXAIeA738.jpg,https://you.ctrip.com/sight/yongning2324/148682502.html?scene=onlinesearch,38.26602,106.173906
励志拓展型,红色教育,150221242,红色廉政教育基地,0.0,0,,盐池,盐池,,,,,,否,https://dimg04.c-ctrip.com/images/fd/tg/g1/M06/FC/24/CghzflW7H_iATdynAAA-FlXAIeA738.jpg,https://you.ctrip.com/sight/yanchi1446190/150221242.html?scene=onlinesearch,37.275875,107.180274
励志拓展型,国防教育,146053192,国防教育广场,0.0,0,,中卫,中卫,,,,,,否,https://dimg04.c-ctrip.com/images/0102u1200086k28vc0A5C.jpg,https://you.ctrip.com/sight/zhongwei1184/146053192.html?scene=onlinesearch,37.515421,105.21129
励志拓展型,大学,145278073,北方民族大学-图书馆,0.0,0,怀远观光夜市/西夏万达广场,银川,银川 · 怀远观光夜市/西夏万达广场,,,,,,否,https://dimg04.c-ctrip.com/images/0HJ3712000g69tdvt8C63.jpg,https://you.ctrip.com/sight/yinchuan239/145278073.html?scene=onlinesearch,38.501417,106.113505
励志拓展型,大学,145834991,宁夏医科大学双怡校区东区-弘健体育馆,0.0,0,宁夏医科大总医院/银川汽车站,银川,银川 · 宁夏医科大总医院/银川汽车站,,,,,,否,https://dimg04.c-ctrip.com/images/0HJ0a12000g2wyxsd85DD.jpg,https://you.ctrip.com/sight/yinchuan239/145834991.html?scene=onlinesearch,38.443738,106.288638
励志拓展型,大学,145327547,北方民族大学-教工篮球场,0.0,0,怀远观光夜市/西夏万达广场,银川,银川 · 怀远观光夜市/西夏万达广场,,,,,,否,https://dimg04.c-ctrip.com/images/0HJ4z12000g2v76rl267F.jpg,https://you.ctrip.com/sight/yinchuan239/145327547.html?scene=onlinesearch,38.505508,106.116012
励志拓展型,大学,145446468,北方民族大学-禁毒教育基地,0.0,0,怀远观光夜市/西夏万达广场,银川,银川 · 怀远观光夜市/西夏万达广场,,,,,,否,https://dimg04.c-ctrip.com/images/0HJ5k12000g2w193x610E.jpg,https://you.ctrip.com/sight/yinchuan239/145446468.html?scene=onlinesearch,38.500567,106.11829
励志拓展型,大学,145476006,宁夏大学新华学院-图书馆,0.0,0,怀远观光夜市/西夏万达广场,银川,银川 · 怀远观光夜市/西夏万达广场,,,,,,否,https://dimg04.c-ctrip.com/images/0HJ0y12000g8u4a1mAFD8.jpg,https://you.ctrip.com/sight/yinchuan239/145476006.html?scene=onlinesearch,38.506522,106.125679
励志拓展型,大学,145486168,北方民族大学博雅楼-篮球场,0.0,0,怀远观光夜市/西夏万达广场,银川,银川 · 怀远观光夜市/西夏万达广场,,,,,,否,https://dimg04.c-ctrip.com/images/0HJ4712000g37sjv078AC.jpg,https://you.ctrip.com/sight/yinchuan239/145486168.html?scene=onlinesearch,38.504036,106.116162
励志拓展型,大学,145613634,北方民族大学(西区)-假山公园,0.0,0,怀远观光夜市/西夏万达广场,银川,银川 · 怀远观光夜市/西夏万达广场,,,,,,否,https://dimg04.c-ctrip.com/images/fd/tg/g1/M06/FC/24/CghzflW7H_iATdynAAA-FlXAIeA738.jpg,https://you.ctrip.com/sight/yinchuan239/145613634.html?scene=onlinesearch,38.503787,106.10617
励志拓展型,大学,144204715,北方民族大学-美术馆,0.0,0,怀远观光夜市/西夏万达广场,银川,银川 · 怀远观光夜市/西夏万达广场,,,,"博物馆&展馆, 美术馆&艺术馆",,否,https://dimg04.c-ctrip.com/images/fd/tg/g1/M06/FC/24/CghzflW7H_iATdynAAA-FlXAIeA738.jpg,https://you.ctrip.com/sight/yinchuan239/144204715.html?scene=onlinesearch,38.504411,106.117851
励志拓展型,大学,145912802,北方民族大学-游泳馆(室内综合训练馆),0.0,0,怀远观光夜市/西夏万达广场,银川,银川 · 怀远观光夜市/西夏万达广场,,,,,,否,https://dimg04.c-ctrip.com/images/0102u1200086k28vc0A5C.jpg,https://you.ctrip.com/sight/yinchuan239/145912802.html?scene=onlinesearch,38.500662,106.115314
励志拓展型,大学,145382539,宁夏医科大学(雁湖校区)-逸夫图书馆,0.0,0,宁夏医科大总医院/银川汽车站,银川,银川 · 宁夏医科大总医院/银川汽车站,,,,,,否,https://dimg04.c-ctrip.com/images/fd/tg/g1/M06/FC/24/CghzflW7H_iATdynAAA-FlXAIeA738.jpg,https://you.ctrip.com/sight/yinchuan239/145382539.html?scene=onlinesearch,38.420587,106.284656
励志拓展型,大学,145708344,银川大学(王太校区)图书馆,0.0,0,,永宁,永宁,,,,,,否,https://dimg04.c-ctrip.com/images/fd/tg/g1/M06/FC/24/CghzflW7H_iATdynAAA-FlXAIeA738.jpg,https://you.ctrip.com/sight/yongning2324/145708344.html?scene=onlinesearch,38.254352,106.240085
励志拓展型,大学,150174010,北方民族大学-篮球场,0.0,0,怀远观光夜市/西夏万达广场,银川,银川 · 怀远观光夜市/西夏万达广场,,,,,,否,https://dimg04.c-ctrip.com/images/0102u1200086k28vc0A5C.jpg,https://you.ctrip.com/sight/yinchuan239/150174010.html?scene=onlinesearch,38.502765,106.111383
励志拓展型,大学,145580135,宁夏师范大学(古雁校区)-存包点,0.0,0,,固原,固原,,,,,,否,https://dimg04.c-ctrip.com/images/fd/tg/g1/M06/FC/24/CghzflW7H_iATdynAAA-FlXAIeA738.jpg,https://you.ctrip.com/sight/guyuan888/145580135.html?scene=onlinesearch,36.028017,106.253998
励志拓展型,大学,145701974,宁夏大学(中卫校区)-图书馆,0.0,0,,中卫,中卫,,,,,,否,https://dimg04.c-ctrip.com/images/fd/tg/g1/M06/FC/24/CghzflW7H_iATdynAAA-FlXAIeA738.jpg,https://you.ctrip.com/sight/zhongwei1184/145701974.html?scene=onlinesearch,37.501787,105.178015
励志拓展型,大学,145164503,宁夏大学新华学院(南校区)-第二图书馆,0.0,0,怀远观光夜市/西夏万达广场,银川,银川 · 怀远观光夜市/西夏万达广场,,,,,,否,https://dimg04.c-ctrip.com/images/fd/tg/g1/M06/FC/24/CghzflW7H_iATdynAAA-FlXAIeA738.jpg,https://you.ctrip.com/sight/yinchuan239/145164503.html?scene=onlinesearch,38.50533,106.124863
励志拓展型,大学,145288003,北方民族大学-创新创业学院一楼-创新创业成果展厅,0.0,0,怀远观光夜市/西夏万达广场,银川,银川 · 怀远观光夜市/西夏万达广场,,,,,,否,https://dimg04.c-ctrip.com/images/fd/tg/g1/M06/FC/24/CghzflW7H_iATdynAAA-FlXAIeA738.jpg,https://you.ctrip.com/sight/yinchuan239/145288003.html?scene=onlinesearch,38.501515,106.119194
励志拓展型,大学,145564697,宁夏大学新华学院图书馆-北馆,0.0,0,怀远观光夜市/西夏万达广场,银川,银川 · 怀远观光夜市/西夏万达广场,,,,,,否,https://dimg04.c-ctrip.com/images/fd/tg/g1/M06/FC/24/CghzflW7H_iATdynAAA-FlXAIeA738.jpg,https://you.ctrip.com/sight/yinchuan239/145564697.html?scene=onlinesearch,38.506269,106.124933
励志拓展型,大学,145297932,宁夏大学(朔方校区)-图书馆,0.0,0,怀远观光夜市/西夏万达广场,银川,银川 · 怀远观光夜市/西夏万达广场,,,,,,否,https://dimg04.c-ctrip.com/images/fd/tg/g1/M06/FC/24/CghzflW7H_iATdynAAA-FlXAIeA738.jpg,https://you.ctrip.com/sight/yinchuan239/145297932.html?scene=onlinesearch,38.500439,106.142758
励志拓展型,大学,145642993,宁夏大学文萃校区-图书馆二馆,0.0,0,怀远观光夜市/西夏万达广场,银川,银川 · 怀远观光夜市/西夏万达广场,,,,,,否,https://dimg04.c-ctrip.com/images/fd/tg/g1/M06/FC/24/CghzflW7H_iATdynAAA-FlXAIeA738.jpg,https://you.ctrip.com/sight/yinchuan239/145642993.html?scene=onlinesearch,38.507431,106.142725
励志拓展型,大学,146155858,宁夏大学-贺兰山校区-网球场,0.0,0,怀远观光夜市/西夏万达广场,银川,银川 · 怀远观光夜市/西夏万达广场,,,,,,否,https://dimg04.c-ctrip.com/images/0102u1200086k28vc0A5C.jpg,https://you.ctrip.com/sight/yinchuan239/146155858.html?scene=onlinesearch,38.508249,106.14433
励志拓展型,大学,145118934,宁夏大学(怀远校区)-逸夫图书馆,0.0,0,怀远观光夜市/西夏万达广场,银川,银川 · 怀远观光夜市/西夏万达广场,,,,,,否,https://dimg04.c-ctrip.com/images/fd/tg/g1/M06/FC/24/CghzflW7H_iATdynAAA-FlXAIeA738.jpg,https://you.ctrip.com/sight/yinchuan239/145118934.html?scene=onlinesearch,38.505342,106.144846
励志拓展型,大学,145150193,宁夏医科大学(双怡校区)-图书馆,0.0,0,宁夏医科大总医院/银川汽车站,银川,银川 · 宁夏医科大总医院/银川汽车站,,,,,,否,https://dimg04.c-ctrip.com/images/fd/tg/g1/M06/FC/24/CghzflW7H_iATdynAAA-FlXAIeA738.jpg,https://you.ctrip.com/sight/yinchuan239/145150193.html?scene=onlinesearch,38.445034,106.284932
励志拓展型,大学,145408769,宁夏师范大学(古雁校区)-自习室,0.0,0,,固原,固原,,,,,,否,https://dimg04.c-ctrip.com/images/fd/tg/g1/M06/FC/24/CghzflW7H_iATdynAAA-FlXAIeA738.jpg,https://you.ctrip.com/sight/guyuan888/145408769.html?scene=onlinesearch,36.028017,106.253998
励志拓展型,大学,145783816,宁夏师范大学(古雁校区)体育馆,0.0,0,,固原,固原,,,,,,否,https://dimg04.c-ctrip.com/images/0102u1200086k28vc0A5C.jpg,https://you.ctrip.com/sight/guyuan888/145783816.html?scene=onlinesearch,36.025037,106.255946
励志拓展型,大学,145868033,手柄主机游戏·手柄电玩连锁(北方民族大学店),0.0,0,怀远观光夜市/西夏万达广场,银川,银川 · 怀远观光夜市/西夏万达广场,,,,,,否,https://dimg04.c-ctrip.com/images/0102u1200086k28vc0A5C.jpg,https://you.ctrip.com/sight/yinchuan239/145868033.html?scene=onlinesearch,38.502158,106.121268
励志拓展型,大学,146162565,宁夏医科大学-体育馆,0.0,0,,银川,银川,,,,,,否,https://dimg04.c-ctrip.com/images/0102u1200086k28vc0A5C.jpg,https://you.ctrip.com/sight/yinchuan239/146162565.html?scene=onlinesearch,38.419707,106.28328
励志拓展型,大学,152825760,宁夏大学怀远校区文化广场,0.0,0,怀远观光夜市/西夏万达广场,银川,银川 · 怀远观光夜市/西夏万达广场,,,,,,否,https://dimg04.c-ctrip.com/images/0102u1200086k28vc0A5C.jpg,https://you.ctrip.com/sight/yinchuan239/152825760.html?scene=onlinesearch,38.502341,106.146481
励志拓展型,大学,145198973,北方民族大学(西校区)-篮球场,0.0,0,怀远观光夜市/西夏万达广场,银川,银川 · 怀远观光夜市/西夏万达广场,,,,,,否,https://dimg04.c-ctrip.com/images/0102u1200086k28vc0A5C.jpg,https://you.ctrip.com/sight/yinchuan239/145198973.html?scene=onlinesearch,38.504235,106.102398
励志拓展型,大学,145554853,北方民族大学(西校区)-网球场,0.0,0,怀远观光夜市/西夏万达广场,银川,银川 · 怀远观光夜市/西夏万达广场,,,,,,否,https://dimg04.c-ctrip.com/images/0102u1200086k28vc0A5C.jpg,https://you.ctrip.com/sight/yinchuan239/145554853.html?scene=onlinesearch,38.503155,106.102397
励志拓展型,大学,152829918,宁夏大学(贺兰山校区)-消防法律主题公园,0.0,0,怀远观光夜市/西夏万达广场,银川,银川 · 怀远观光夜市/西夏万达广场,,,,,,否,https://dimg04.c-ctrip.com/images/fd/tg/g1/M06/FC/24/CghzflW7H_iATdynAAA-FlXAIeA738.jpg,https://you.ctrip.com/sight/yinchuan239/152829918.html?scene=onlinesearch,38.507259,106.149456
励志拓展型,大学,143695591,宁夏大学金凤校区-文化活动中心,0.0,0,宁夏博物馆/市中心,银川,银川 · 宁夏博物馆/市中心,,,,,,否,https://dimg04.c-ctrip.com/images/0102u1200086k28vc0A5C.jpg,https://you.ctrip.com/sight/yinchuan239/143695591.html?scene=onlinesearch,38.478269,106.233856
励志拓展型,大学,145150646,宁夏师范大学(古雁校区)-图书馆,0.0,0,,固原,固原,,,,,,否,https://dimg04.c-ctrip.com/images/fd/tg/g1/M06/FC/24/CghzflW7H_iATdynAAA-FlXAIeA738.jpg,https://you.ctrip.com/sight/guyuan888/145150646.html?scene=onlinesearch,36.02792,106.2541
励志拓展型,大学,145289107,宁夏大学金凤校区图书馆,0.0,0,宁夏博物馆/市中心,银川,银川 · 宁夏博物馆/市中心,,,,,,否,https://dimg04.c-ctrip.com/images/fd/tg/g1/M06/FC/24/CghzflW7H_iATdynAAA-FlXAIeA738.jpg,https://you.ctrip.com/sight/yinchuan239/145289107.html?scene=onlinesearch,38.477203,106.233164
励志拓展型,大学,145619048,宁夏大学怀远校区凌云广场,0.0,0,怀远观光夜市/西夏万达广场,银川,银川 · 怀远观光夜市/西夏万达广场,,,,,,否,https://dimg04.c-ctrip.com/images/0102u1200086k28vc0A5C.jpg,https://you.ctrip.com/sight/yinchuan239/145619048.html?scene=onlinesearch,38.502396,106.147778
励志拓展型,大学,145778305,中国矿业大学银川学院运动场,0.0,0,,银川,银川,,,,,,否,https://dimg04.c-ctrip.com/images/0102u1200086k28vc0A5C.jpg,https://you.ctrip.com/sight/yinchuan239/145778305.html?scene=onlinesearch,38.521711,106.161272
励志拓展型,大学,146016933,宁夏大学B区-体操馆(怀远校区),0.0,0,怀远观光夜市/西夏万达广场,银川,银川 · 怀远观光夜市/西夏万达广场,,,,,,否,https://dimg04.c-ctrip.com/images/0102u1200086k28vc0A5C.jpg,https://you.ctrip.com/sight/yinchuan239/146016933.html?scene=onlinesearch,38.499837,106.146501
励志拓展型,大学,149274384,北方民族大学-体育馆,0.0,0,怀远观光夜市/西夏万达广场,银川,银川 · 怀远观光夜市/西夏万达广场,,,,,,否,https://dimg04.c-ctrip.com/images/0102u1200086k28vc0A5C.jpg,https://you.ctrip.com/sight/yinchuan239/149274384.html?scene=onlinesearch,38.504215,106.111543
励志拓展型,大学,149967897,宁夏开放大学-图书馆,0.0,0,宁夏博物馆/市中心,银川,银川 · 宁夏博物馆/市中心,,,,,,否,https://dimg04.c-ctrip.com/images/fd/tg/g1/M06/FC/24/CghzflW7H_iATdynAAA-FlXAIeA738.jpg,https://you.ctrip.com/sight/yinchuan239/149967897.html?scene=onlinesearch,38.478842,106.23673
励志拓展型,大学,150233000,北方民族大学-居里夫人雕塑,0.0,0,,银川,银川,,,,,,否,https://dimg04.c-ctrip.com/images/fd/tg/g1/M06/FC/24/CghzflW7H_iATdynAAA-FlXAIeA738.jpg,https://you.ctrip.com/sight/yinchuan239/150233000.html?scene=onlinesearch,38.504822,106.110347
励志拓展型,大学,150253672,炫威桌球俱乐部(医科大学店),0.0,0,,银川,银川,,,,,,否,https://dimg04.c-ctrip.com/images/0102u1200086k28vc0A5C.jpg,https://you.ctrip.com/sight/yinchuan239/150253672.html?scene=onlinesearch,38.42237,106.284412
励志拓展型,大学,150310566,北方民族大学-石榴花开雕塑,0.0,0,怀远观光夜市/西夏万达广场,银川,银川 · 怀远观光夜市/西夏万达广场,,,,,,否,https://dimg04.c-ctrip.com/images/fd/tg/g1/M06/FC/24/CghzflW7H_iATdynAAA-FlXAIeA738.jpg,https://you.ctrip.com/sight/yinchuan239/150310566.html?scene=onlinesearch,38.500699,106.115341
励志拓展型,大学,150315725,北方民族大学-达尔文雕塑,0.0,0,,银川,银川,,,,,,否,https://dimg04.c-ctrip.com/images/fd/tg/g1/M06/FC/24/CghzflW7H_iATdynAAA-FlXAIeA738.jpg,https://you.ctrip.com/sight/yinchuan239/150315725.html?scene=onlinesearch,38.501765,106.118095
励志拓展型,大学,150320227,北方民族大学-中心花园,0.0,0,,银川,银川,,,,公园&植物园,,否,https://dimg04.c-ctrip.com/images/fd/tg/g1/M06/FC/24/CghzflW7H_iATdynAAA-FlXAIeA738.jpg,https://you.ctrip.com/sight/yinchuan239/150320227.html?scene=onlinesearch,38.502745,106.114517
励志拓展型,大学,151318312,北方民族大学-小操场,0.0,0,怀远观光夜市/西夏万达广场,银川,银川 · 怀远观光夜市/西夏万达广场,,,,,,否,https://dimg04.c-ctrip.com/images/0102u1200086k28vc0A5C.jpg,https://you.ctrip.com/sight/yinchuan239/151318312.html?scene=onlinesearch,38.505928,106.11274
文化康乐型,影视城,10558661,镇北堡西部影城,4.5,18165,漫葡·看见贺兰演艺小镇/镇北堡西部影城度假区,银川,银川 · 漫葡·看见贺兰演艺小镇/镇北堡西部影城度假区,宁夏亲子景点榜 No.1,5A,荒凉的影视城中当一回明星,"嗨玩乐园, 遛娃宝藏地",门票,否,https://dimg04.c-ctrip.com/images/10010z000000ny7agFB63.jpg,https://you.ctrip.com/sight/yinchuan239/8834.html?scene=onlinesearch,38.621701,106.078345
文化康乐型,影视城,22867562,月亮门,4.5,150,漫葡·看见贺兰演艺小镇/镇北堡西部影城度假区,银川,银川 · 漫葡·看见贺兰演艺小镇/镇北堡西部影城度假区,,,高耸的月亮门孤独而壮丽,影视基地,,否,https://dimg04.c-ctrip.com/images/0101912000mov6u4z5647.jpg,https://you.ctrip.com/sight/yinchuan239/1715043.html?scene=onlinesearch,38.62033,106.07636
文化康乐型,影视城,10795140,黄河横城旅游休闲度假区,2.9,41,,银川,银川,,4A,以黄河文化为主题的度假村,"历史建筑, 影视基地",门票,否,https://dimg04.c-ctrip.com/images/0104s12000993qmioBDD3.jpg,https://you.ctrip.com/sight/yinchuan239/70193.html?scene=onlinesearch,38.368827,106.437132
文化康乐型,影视城,136632767,清水营村影视基地,0.0,0,,灵武,灵武,,,"千年古树(河心榆), 大泉眼和天然草坪, 明长城",影视基地,,否,https://dimg04.c-ctrip.com/images/1lo6p12000b2ezwn0CA3B.jpg,https://you.ctrip.com/sight/lingwu2323/136632767.html?scene=onlinesearch,38.196358,106.728655
文化康乐型,文化小镇,145239757,宁夏马莲湖农旅文化小镇,0.0,0,,贺兰,贺兰,,,,,,否,https://dimg04.c-ctrip.com/images/0HJ1112000g6zksxk376B.jpg,https://you.ctrip.com/sight/helan2119/145239757.html?scene=onlinesearch,38.647787,106.383818
文化康乐型,文化小镇,148555868,青铜峡市鸽子山葡萄酒文化旅游小镇,0.0,0,,青铜峡,青铜峡,,,,,,否,https://dimg04.c-ctrip.com/images/fd/tg/g1/M06/FC/24/CghzflW7H_iATdynAAA-FlXAIeA738.jpg,https://you.ctrip.com/sight/qingtongxia2330/148555868.html?scene=onlinesearch,38.037853,105.862656
文化康乐型,文化小镇,150373414,懿善源文化康养小镇,0.0,0,,贺兰,贺兰,,,,,,否,https://dimg04.c-ctrip.com/images/fd/tg/g1/M06/FC/24/CghzflW7H_iATdynAAA-FlXAIeA738.jpg,https://you.ctrip.com/sight/helan2119/150373414.html?scene=onlinesearch,38.550039,106.324081
