大类,子类关键词,景点ID,名称,评分,评论数,区域,城市,地址,分类,等级,特色,标签,门票说明,是否免费,图片链接,详情链接,纬度,经度
知识科普型,博物馆,109032354,晋商博物院,4.8,237,柳巷/钟楼街,太原,太原 · 柳巷/钟楼街,太原必打卡景点榜 No.7,,,"历史建筑, 博物馆",门票,否,https://dimg04.c-ctrip.com/images/0106v1200090g5essC7F4.jpg,https://you.ctrip.com/sight/taiyuan167/5714471.html?scene=onlinesearch,37.881086,112.569081
知识科普型,博物馆,88189,山西博物院,4.8,2867,山西博物院/太原新城吾悦广场,太原,太原 · 山西博物院/太原新城吾悦广场,2025中国100亲子景点,,荟萃了山西文物的精华,"展馆展览, 遛娃宝藏地",免费,是,https://dimg04.c-ctrip.com/images/100u1f000001gq9bh9986.jpg,https://you.ctrip.com/sight/taiyuan167/66076.html?scene=onlinesearch,37.871448,112.537791
知识科普型,博物馆,83199,晋祠博物馆,4.8,13094,太原古县城/晋祠,太原,太原 · 太原古县城/晋祠,2025亚洲100亲子景点,5A,晋国宗祠园林建筑群,"历史建筑, 博物馆",门票,否,https://dimg04.c-ctrip.com/images/0106t12000a434k2hB478.jpg,https://you.ctrip.com/sight/taiyuan167/50464.html?scene=onlinesearch,37.714955,112.447886
知识科普型,博物馆,83217,中国煤炭博物馆,4.4,2250,山西博物院/太原新城吾悦广场,太原,太原 · 山西博物院/太原新城吾悦广场,山西亲子景点榜 No.7,4A,再现地下模拟矿井,"展馆展览, 遛娃宝藏地",门票,否,https://dimg04.c-ctrip.com/images/0102n120009dwsxt47E86.jpg,https://you.ctrip.com/sight/taiyuan167/50498.html?scene=onlinesearch,37.863054,112.534971
知识科普型,博物馆,144236939,山西博物院-展馆,5.0,4,山西博物院/太原新城吾悦广场,太原,太原 · 山西博物院/太原新城吾悦广场,,,,,,否,https://dimg04.c-ctrip.com/images/0HJ6f12000g2vi6vr70A3.jpg,https://you.ctrip.com/sight/taiyuan167/144236939.html?scene=onlinesearch,37.871484,112.53766
知识科普型,博物馆,89816,大同市博物馆,4.4,604,大同南站/方特欢乐世界,大同,大同 · 大同南站/方特欢乐世界,山西亲子景点榜 No.8,,"胡汉交融, 阵列式文物陈列, 粗犷大气","博物馆, 博物馆&展馆",免费,是,https://dimg04.c-ctrip.com/images/10080z000000njn4vC50E.jpg,https://you.ctrip.com/sight/datong275/76845.html?scene=onlinesearch,40.096835,113.371342
知识科普型,博物馆,79292,日升昌票号,4.6,807,平遥古城内,平遥,平遥 · 平遥古城内,,,展示古代银行业的辉煌历史,"博物馆, 博物馆&展馆",,否,https://dimg04.c-ctrip.com/images/0104512000iln30lp83C1.jpg,https://you.ctrip.com/sight/pingyao365/16563.html?scene=onlinesearch,37.211337,112.190204
知识科普型,博物馆,89514,乔家大院,4.6,12356,乔家大院,祁县,祁县 · 乔家大院,山西必打卡景点榜 No.10,,乔家大院拍摄地,历史建筑,门票,否,https://dimg04.c-ctrip.com/images/100v0z000000nnlpp028B.jpg,https://you.ctrip.com/sight/qicounty3039/74743.html?scene=onlinesearch,37.412043,112.448047
知识科普型,博物馆,79614,永乐宫,4.7,1254,,芮城,芮城,运城必打卡景点榜 No.2,4A,观赏精美绝伦的元代壁画,历史建筑,门票,否,https://dimg04.c-ctrip.com/images/0100612000f7fd71oDE74.jpg,https://you.ctrip.com/sight/ruicheng2986/17428.html?scene=onlinesearch,34.726083,110.69982
知识科普型,博物馆,79438076,太原北齐壁画博物馆,4.8,327,太原火车站,太原,太原 · 太原火车站,太原必打卡景点榜 No.6,,,"博物馆, 博物馆&展馆",免费,是,https://dimg04.c-ctrip.com/images/0102p12000dtvpi53B4D9.jpg,https://you.ctrip.com/sight/taiyuan167/5704422.html?scene=onlinesearch,37.842657,112.624899
知识科普型,博物馆,38648021,大同煤炭博物馆,4.4,108,,大同,大同,大同亲子景点榜 No.4,,,"博物馆, 博物馆&展馆",门票,否,https://dimg04.c-ctrip.com/images/0100312000islagjz244E.jpg,https://you.ctrip.com/sight/datong275/2835682.html?scene=onlinesearch,40.1105,113.142339
知识科普型,博物馆,89511,三多堂博物馆,3.9,95,,晋中,晋中,,,明清晋商巨富曹家的院落,"博物馆, 博物馆&展馆",门票,否,https://dimg04.c-ctrip.com/images/1008180000013ywydB56B.jpg,https://you.ctrip.com/sight/jinzhong639/74739.html?scene=onlinesearch,37.397241,112.520009
知识科普型,博物馆,24651297,临汾博物馆,4.7,61,,临汾,临汾,临汾亲子景点榜 No.2,,建于一九九三年,"博物馆, 博物馆&展馆",免费,是,https://dimg04.c-ctrip.com/images/0104e12000iqk3e8n37B4.jpg,https://you.ctrip.com/sight/linfen318/1832103.html?scene=onlinesearch,36.07861,111.48939
知识科普型,博物馆,83357,协同庆票号(中国钱庄博物馆),4.6,168,平遥古城内,平遥,平遥 · 平遥古城内,,,五进式钱庄院落,"博物馆, 博物馆&展馆",,否,https://dimg04.c-ctrip.com/images/010031200087eaai19216.jpg,https://you.ctrip.com/sight/pingyao365/50721.html?scene=onlinesearch,37.21048,112.191255
知识科普型,博物馆,93660084,山西青铜博物馆,4.7,45,万象城/博物馆,太原,太原 · 万象城/博物馆,太原亲子景点榜 No.10,,,"博物馆, 博物馆&展馆",免费,是,https://dimg04.c-ctrip.com/images/01038120005xwv5ep9CB9.jpg,https://you.ctrip.com/sight/taiyuan167/5710709.html?scene=onlinesearch,37.811282,112.53996
知识科普型,博物馆,24654441,运城博物馆,4.7,46,南风广场,运城,运城 · 南风广场,,,观文化浮雕，品辉煌历史,"博物馆, 博物馆&展馆",免费,是,https://dimg04.c-ctrip.com/images/0105q12000ipu42st9F37.jpg,https://you.ctrip.com/sight/yuncheng397/1835276.html?scene=onlinesearch,35.044389,111.038822
知识科普型,博物馆,77107,河边民俗博物馆,4.4,114,,定襄,定襄,,4A,"晋北清末民初独特民俗文化, 异彩纷呈的民间艺术","遛娃宝藏地, 博物馆",门市价,否,https://dimg04.c-ctrip.com/images/0105s12000f6scfov6C42.jpg,https://you.ctrip.com/sight/dingxiang2992/7931.html?scene=onlinesearch,38.595658,113.116373
知识科普型,博物馆,84050,玉皇庙彩塑壁画博物馆,4.8,29,,泽州,泽州,,,,"历史建筑, 博物馆",免费,是,https://dimg04.c-ctrip.com/images/0103312000ira4jmgEA49.jpg,https://you.ctrip.com/sight/zezhou3032/51697.html?scene=onlinesearch,35.552011,112.949621
知识科普型,博物馆,39266019,太原市博物馆,4.6,61,万象城/博物馆,太原,太原 · 万象城/博物馆,,,文化岛大平台广场上的标志性建筑,"博物馆, 博物馆&展馆",免费,是,https://dimg04.c-ctrip.com/images/0105412000iq80duk1860.jpg,https://you.ctrip.com/sight/taiyuan167/3447680.html?scene=onlinesearch,37.811304,112.540026
知识科普型,博物馆,149547137,陶寺遗址博物馆,4.0,5,,襄汾,襄汾,,,,博物馆&展馆,,否,https://dimg04.c-ctrip.com/images/1mh3w12000ixb5fk07A2C.jpg,https://you.ctrip.com/sight/xiangfen3027/149547137.html?scene=onlinesearch,35.906706,111.501064
知识科普型,博物馆,24650838,晋城博物馆,4.8,55,人民广场/国贸广场,晋城,晋城 · 人民广场/国贸广场,,,,"博物馆, 博物馆&展馆",免费,是,https://dimg04.c-ctrip.com/images/0104z120009d44eqc6158.jpg,https://you.ctrip.com/sight/jincheng665/1831713.html?scene=onlinesearch,35.496856,112.875445
知识科普型,博物馆,134777854,北魏明堂遗址博物馆,4.5,6,东信广场商圈,大同,大同 · 东信广场商圈,,,,"博物馆, 博物馆&展馆",,否,https://dimg04.c-ctrip.com/images/0102012000o1fbkkcBAF3.jpg,https://you.ctrip.com/sight/datong275/134777854.html?scene=onlinesearch,40.072754,113.317036
知识科普型,博物馆,39222618,介休市博物馆,4.6,16,,介休,介休,,,,"博物馆, 博物馆&展馆",免费,是,https://dimg04.c-ctrip.com/images/100v0o000000ez732DF41.jpg,https://you.ctrip.com/sight/jiexiu2982/3404879.html?scene=onlinesearch,37.04156,111.938965
知识科普型,博物馆,24654568,长治博物馆,4.6,62,,长治,长治,,,明清琉璃，战国青铜为特色,"博物馆, 博物馆&展馆",免费,是,https://dimg04.c-ctrip.com/images/100e1f000001gt2lg66E9.jpg,https://you.ctrip.com/sight/changzhi901/1835411.html?scene=onlinesearch,36.217326,113.100548
知识科普型,博物馆,79613,蒲津渡遗址博物馆,4.3,340,,永济,永济,,,"渡口铁牛, 雕塑艺术","历史建筑, 博物馆&展馆",免费,是,https://dimg04.c-ctrip.com/images/0106m12000o0bhox88716.jpg,https://you.ctrip.com/sight/yongji1772/17427.html?scene=onlinesearch,34.852915,110.2975
知识科普型,博物馆,145155937,太原双塔寺-双塔博物馆,5.0,3,太原火车站,太原,太原 · 太原火车站,,,,"博物馆, 博物馆&展馆",,否,https://dimg04.c-ctrip.com/images/0100h12000m65jhw28D7F.jpg,https://you.ctrip.com/sight/taiyuan167/145155937.html?scene=onlinesearch,37.851975,112.603459
知识科普型,博物馆,83366,中国镖局博物馆,4.6,98,平遥古城内,平遥,平遥 · 平遥古城内,,,镖局发展史与镖师的故事,"博物馆, 博物馆&展馆",,否,https://dimg04.c-ctrip.com/images/100n0z000000nhco31668.jpg,https://you.ctrip.com/sight/pingyao365/50730.html?scene=onlinesearch,37.209958,112.191683
知识科普型,博物馆,92953181,大同云冈石窟博物馆,4.6,48,,大同,大同,,,皇家风范的佛教艺术宝库,"博物馆, 博物馆&展馆",,否,https://dimg04.c-ctrip.com/images/0101b1200092me23c0736.jpg,https://you.ctrip.com/sight/datong275/5710600.html?scene=onlinesearch,40.115756,113.134075
知识科普型,博物馆,145173723,忻州市博物馆(新馆),4.5,4,,忻州,忻州,,,,博物馆&展馆,,否,https://dimg04.c-ctrip.com/images/01A34120009bs4sleBA15.jpg,https://you.ctrip.com/sight/xinzhou783/145173723.html?scene=onlinesearch,38.482222,112.724129
知识科普型,博物馆,34506164,中国雕塑博物馆,4.8,17,大同古城/华严寺,大同,大同 · 大同古城/华严寺,,,展示古今中外雕塑艺术品,"博物馆, 博物馆&展馆",免费,是,https://dimg04.c-ctrip.com/images/0103r12000f6u0nu02AF0.jpg,https://you.ctrip.com/sight/datong275/2494595.html?scene=onlinesearch,40.108639,113.308757
知识科普型,博物馆,145503240,山西古建筑博物馆,5.0,3,柳巷/钟楼街,太原,太原 · 柳巷/钟楼街,,,,"博物馆, 博物馆&展馆",,否,https://dimg04.c-ctrip.com/images/1mh2n12000nuzauz36694.jpg,https://you.ctrip.com/sight/taiyuan167/145503240.html?scene=onlinesearch,37.868065,112.57869
知识科普型,博物馆,144969065,晋阳古城考古博物馆,5.0,4,太原古县城/晋祠,太原,太原 · 太原古县城/晋祠,,,,"博物馆, 博物馆&展馆",免费,是,https://dimg04.c-ctrip.com/images/1mh0u12000jgt4y2r3A5F.jpg,https://you.ctrip.com/sight/taiyuan167/144969065.html?scene=onlinesearch,37.735824,112.497043
知识科普型,博物馆,145538402,山西省永乐宫壁画艺术博物馆,5.0,1,,芮城,芮城,,,,"博物馆, 博物馆&展馆",,否,https://dimg04.c-ctrip.com/images/1me4g12000m1v39y6E341.jpg,https://you.ctrip.com/sight/ruicheng2986/145538402.html?scene=onlinesearch,34.726438,110.699708
知识科普型,博物馆,79438041,北朝艺术博物馆,4.8,6,东信广场商圈,大同,大同 · 东信广场商圈,,,,"特色展馆, 博物馆&展馆",免费,是,https://dimg04.c-ctrip.com/images/0101t12000ay4zh1b3EEF.jpg,https://you.ctrip.com/sight/datong275/5704435.html?scene=onlinesearch,40.071413,113.316983
知识科普型,博物馆,79438104,山西晋之源壁画艺术博物馆,3.4,5,万达广场商圈,晋中,晋中 · 万达广场商圈,,,,"特色展馆, 博物馆",,否,https://dimg04.c-ctrip.com/images/1lo6k12000cwurd5m7586.jpg,https://you.ctrip.com/sight/jinzhong639/5704419.html?scene=onlinesearch,37.727204,112.730477
知识科普型,博物馆,51606356,朔州市博物馆,4.1,7,,朔州,朔州,,,,"博物馆, 博物馆&展馆",,否,https://dimg04.c-ctrip.com/images/0100v12000a3hjnea1C93.jpg,https://you.ctrip.com/sight/shuozhou903/4579119.html?scene=onlinesearch,39.356205,112.429495
知识科普型,博物馆,33553155,山西地质博物馆,4.8,65,山西博物院/太原新城吾悦广场,太原,太原 · 山西博物院/太原新城吾悦广场,,,矿石标本与古生物化石诸多,"博物馆, 博物馆&展馆",免费,是,https://dimg04.c-ctrip.com/images/0106o12000ir1g9uqB460.jpg,https://you.ctrip.com/sight/taiyuan167/2481724.html?scene=onlinesearch,37.87352,112.538612
知识科普型,博物馆,36428387,老车文化博物馆,4.6,56,小店综改区,太原,太原 · 小店综改区,,,馆内收集老车等藏品上千件,"博物馆, 博物馆&展馆",门票,否,https://dimg04.c-ctrip.com/images/0104212000f6u18771C8C.jpg,https://you.ctrip.com/sight/taiyuan167/2508723.html?scene=onlinesearch,37.727341,112.597347
知识科普型,博物馆,83359,同兴公镖局旧址博物馆,4.5,116,平遥古城内,平遥,平遥 · 平遥古城内,,,镖局内有慈禧太后赐的匾,"特色展馆, 博物馆&展馆",,否,https://dimg04.c-ctrip.com/images/0102y120008dglafzF33C.jpg,https://you.ctrip.com/sight/pingyao365/50723.html?scene=onlinesearch,37.208505,112.192398
知识科普型,博物馆,79042521,晋国古都博物馆,4.7,6,,侯马,侯马,,,,"博物馆, 博物馆&展馆",免费,是,https://dimg04.c-ctrip.com/images/01A0l120008v5ww6h212F.jpg,https://you.ctrip.com/sight/houma3019/5701011.html?scene=onlinesearch,35.624551,111.372461
知识科普型,博物馆,80038,临汾市丁村民俗博物馆,4.5,58,,襄汾,襄汾,,,"汉民族民俗博物馆, 明清民居建筑群落, 晚晴时期晋南民风民俗","博物馆, 博物馆&展馆",,否,https://dimg04.c-ctrip.com/images/100u170000011trt1EFC1.jpg,https://you.ctrip.com/sight/xiangfen3027/17959.html?scene=onlinesearch,35.846003,111.42699
知识科普型,博物馆,44904160,马邑博物馆,4.7,16,,朔州,朔州,,,,"博物馆, 博物馆&展馆",,否,https://dimg04.c-ctrip.com/images/0100c12000az8uew5D8D5.jpg,https://you.ctrip.com/sight/shuozhou903/4283354.html?scene=onlinesearch,39.31944,112.438468
知识科普型,博物馆,105418316,山西考古博物馆,4.8,4,柳巷/钟楼街,太原,太原 · 柳巷/钟楼街,,,,"博物馆, 博物馆&展馆",,否,https://dimg04.c-ctrip.com/images/01A2l120008fawgs10532.jpg,https://you.ctrip.com/sight/taiyuan167/105418316.html?scene=onlinesearch,37.871698,112.58627
知识科普型,博物馆,24654272,永济唐铁牛博物馆,4.8,27,,永济,永济,,,铁牛形象各异，栩栩如生,"博物馆, 博物馆&展馆",,否,https://dimg04.c-ctrip.com/images/0103t120009df6em8F967.jpg,https://you.ctrip.com/sight/yongji1772/1835043.html?scene=onlinesearch,34.851021,110.297285
知识科普型,博物馆,38419837,河东盐业博物馆,4.5,2,南风广场,运城,运城 · 南风广场,,,,"博物馆, 博物馆&展馆",,否,https://dimg04.c-ctrip.com/images/01023120009z8vltnB309.jpg,https://you.ctrip.com/sight/yuncheng397/2609698.html?scene=onlinesearch,35.01344,111.011818
知识科普型,博物馆,24649657,汾酒博物馆,4.7,37,,汾阳,汾阳,,,领略酒文化，品陈年佳酿,"博物馆, 博物馆&展馆",,否,https://dimg04.c-ctrip.com/images/0105o12000atsf7cd5F79.png,https://you.ctrip.com/sight/fenyang2053/1830523.html?scene=onlinesearch,37.345728,111.910963
知识科普型,博物馆,84136,吕梁市博物馆,3.3,52,,吕梁,吕梁,,,,"博物馆, 博物馆&展馆",,否,https://dimg04.c-ctrip.com/images/0101m12000as5cznz2D27.jpg,https://you.ctrip.com/sight/lvliang902/51832.html?scene=onlinesearch,37.523226,111.136442
知识科普型,博物馆,38518501,山西省艺术博物馆,5.0,1,柳巷/钟楼街,太原,太原 · 柳巷/钟楼街,,,,"特色展馆, 博物馆&展馆",,否,https://dimg04.c-ctrip.com/images/1me3912000efdqdkb6136.jpg,https://you.ctrip.com/sight/taiyuan167/2707362.html?scene=onlinesearch,37.868041,112.578642
知识科普型,博物馆,140872776,阳泉市博物馆,0.0,0,,阳泉,阳泉,,,,"博物馆, 博物馆&展馆",免费,是,https://dimg04.c-ctrip.com/images/0103m12000cfrooje6C6A.jpg,https://you.ctrip.com/sight/yangquan904/140872776.html?scene=onlinesearch,37.869689,113.585573
知识科普型,博物馆,105418486,晋中市博物馆,5.0,1,万达广场商圈,晋中,晋中 · 万达广场商圈,,,,"博物馆, 博物馆&展馆",,否,https://dimg04.c-ctrip.com/images/0105x12000bm9cf9e0684.jpg,https://you.ctrip.com/sight/jinzhong639/105418486.html?scene=onlinesearch,37.728671,112.742223
知识科普型,博物馆,145697428,太原恋爱博物馆,0.0,0,太原火车南站地区,太原,太原 · 太原火车南站地区,,,,博物馆&展馆,,否,https://dimg04.c-ctrip.com/images/0100212000j0ljlrw9BFD.jpg,https://you.ctrip.com/sight/taiyuan167/145697428.html?scene=onlinesearch,37.795305,112.576811
知识科普型,博物馆,145278977,天龙山石窟博物馆,0.0,0,,太原,太原,,,,"博物馆, 博物馆&展馆",,否,https://dimg04.c-ctrip.com/images/0103n12000kkj525l3692.jpg,https://you.ctrip.com/sight/taiyuan167/145278977.html?scene=onlinesearch,37.739715,112.384489
知识科普型,博物馆,144887791,河东池盐博物馆,4.0,1,南风广场,运城,运城 · 南风广场,,,,博物馆&展馆,,否,https://dimg04.c-ctrip.com/images/1me3c12000djskrnh21C8.jpg,https://you.ctrip.com/sight/yuncheng397/144887791.html?scene=onlinesearch,35.014266,111.009641
知识科普型,博物馆,149348833,太原北齐壁画博物馆-入口,5.0,2,太原火车站,太原,太原 · 太原火车站,,,,,,否,https://dimg04.c-ctrip.com/images/0101q12000ij9m84p8F61.jpg,https://you.ctrip.com/sight/taiyuan167/149348833.html?scene=onlinesearch,37.840254,112.62486
知识科普型,博物馆,51781832,临汾自然博物馆,3.7,3,,临汾,临汾,,,,"科技馆, 博物馆",门票,否,https://dimg04.c-ctrip.com/images/01046120009sohottB033.jpg,https://you.ctrip.com/sight/linfen318/4608813.html?scene=onlinesearch,36.057491,111.496943
知识科普型,博物馆,38397166,中华王氏博物馆,4.5,11,王家大院,灵石,灵石 · 王家大院,,,,"博物馆, 博物馆&展馆",,否,https://dimg04.c-ctrip.com/images/0105s120009fojxgvA91F.jpg,https://you.ctrip.com/sight/lingshi3011/2587127.html?scene=onlinesearch,36.90214,111.880997
知识科普型,博物馆,145625105,山西省晋商文化博物馆,0.0,0,红灯笼体育场/晋阳湖,太原,太原 · 红灯笼体育场/晋阳湖,,,,博物馆&展馆,,否,https://dimg04.c-ctrip.com/images/0HJ2q12000g2t6zeh6B4D.jpg,https://you.ctrip.com/sight/taiyuan167/145625105.html?scene=onlinesearch,37.785201,112.53911
知识科普型,博物馆,51711464,中华字典博物馆,4.6,10,皇城相府景区,阳城,阳城 · 皇城相府景区,,,,"博物馆, 博物馆&展馆",,否,https://dimg04.c-ctrip.com/images/0102n120008dgg963C125.jpg,https://you.ctrip.com/sight/yangcheng2076/4596210.html?scene=onlinesearch,35.52096,112.589118
知识科普型,博物馆,145382658,山西面食博物馆,0.0,0,万象城/博物馆,太原,太原 · 万象城/博物馆,,,,博物馆&展馆,免费,是,https://dimg04.c-ctrip.com/images/0103512000f0kdtnu31DE.jpg,https://you.ctrip.com/sight/taiyuan167/145382658.html?scene=onlinesearch,37.845263,112.51661
知识科普型,博物馆,83360,中国商会博物馆(平遥商会旧址),4.4,66,平遥古城内,平遥,平遥 · 平遥古城内,,,了解中国商会的历史,"博物馆, 博物馆&展馆",,否,https://dimg04.c-ctrip.com/images/0101l12000att1nht6EF4.jpg,https://you.ctrip.com/sight/pingyao365/50724.html?scene=onlinesearch,37.212069,112.192237
知识科普型,博物馆,69341864,华北第一镖局博物馆,4.7,3,平遥古城内,平遥,平遥 · 平遥古城内,,,,"博物馆, 博物馆&展馆",,否,https://dimg04.c-ctrip.com/images/0105c12000d07y6k3A6A1.jpg,https://you.ctrip.com/sight/pingyao365/69341864.html?scene=onlinesearch,37.211975,112.192536
知识科普型,博物馆,22022520,平遥牛肉博物馆,4.6,67,平遥古城内,平遥,平遥 · 平遥古城内,,,系统展现了平遥牛肉的历史,"博物馆, 博物馆&展馆",,否,https://dimg04.c-ctrip.com/images/0101q12000au401n81A91.jpg,https://you.ctrip.com/sight/pingyao365/1703209.html?scene=onlinesearch,37.214344,112.189131
知识科普型,博物馆,51983837,晋祠博物馆-惠远门,5.0,1,太原古县城/晋祠,太原,太原 · 太原古县城/晋祠,,,,历史建筑,,否,https://dimg04.c-ctrip.com/images/0106l12000ijxf7rjF9FC.jpg,https://you.ctrip.com/sight/taiyuan167/4631916.html?scene=onlinesearch,37.713179,112.447339
知识科普型,博物馆,79438087,山西吕梁山革命博物馆,0.0,0,,吕梁,吕梁,,,,博物馆&展馆,免费,是,https://dimg04.c-ctrip.com/images/0105e12000f0f6cow29E3.jpg,https://you.ctrip.com/sight/lvliang902/5704480.html?scene=onlinesearch,37.523212,111.117335
知识科普型,博物馆,101513698,猫咪博物馆(柳巷旗舰店),5.0,3,柳巷/钟楼街,太原,太原 · 柳巷/钟楼街,,,,"特色展馆, 博物馆",,否,https://dimg04.c-ctrip.com/images/010671200086td1p174ED.jpg,https://you.ctrip.com/sight/taiyuan167/5713573.html?scene=onlinesearch,37.872445,112.573226
知识科普型,博物馆,83362,天吉祥博物馆,4.2,53,平遥古城内,平遥,平遥 · 平遥古城内,,,丰富的馆藏珍品,"博物馆, 博物馆&展馆",,否,https://dimg04.c-ctrip.com/images/100d19000001619cu2293.jpg,https://you.ctrip.com/sight/pingyao365/50726.html?scene=onlinesearch,37.211537,112.191871
知识科普型,博物馆,39717470,太谷区晋商博物馆,4.8,11,,晋中,晋中,,,了解太谷的历史文化,"博物馆, 博物馆&展馆",,否,https://dimg04.c-ctrip.com/images/100f180000013ylow5678.jpg,https://you.ctrip.com/sight/jinzhong639/3895031.html?scene=onlinesearch,37.430317,112.562865
知识科普型,博物馆,79436604,高平市博物馆,5.0,1,,高平,高平,,,,"博物馆, 博物馆&展馆",免费,是,https://dimg04.c-ctrip.com/images/0105312000awulqy6B637.jpg,https://you.ctrip.com/sight/gaoping3003/5702929.html?scene=onlinesearch,35.791574,112.944197
知识科普型,博物馆,24654685,中国科举博物馆,4.2,16,平遥古城内,平遥,平遥 · 平遥古城内,,,了解古代科举制度,博物馆&展馆,,否,https://dimg04.c-ctrip.com/images/100h0w000000kfwed2B94.jpg,https://you.ctrip.com/sight/pingyao365/1835522.html?scene=onlinesearch,37.207981,112.196362
知识科普型,博物馆,51717911,太行山大峡谷地质博物馆,4.1,9,,壶关,壶关,,,,"自然山水, 博物馆&展馆",,否,https://dimg04.c-ctrip.com/images/01A6e12000945fd2y625C.jpg,https://you.ctrip.com/sight/huguan1446117/4598069.html?scene=onlinesearch,35.941119,113.62189
知识科普型,博物馆,79436590,洪洞县博物馆,5.0,1,,洪洞,洪洞,,,,"博物馆, 博物馆&展馆",免费,是,https://dimg04.c-ctrip.com/images/0106t120009vmhvyd4854.jpg,https://you.ctrip.com/sight/hongtong3015/5702955.html?scene=onlinesearch,36.264496,111.702122
知识科普型,博物馆,105418439,辽金元民族融合博物馆,4.5,2,大同古城/华严寺,大同,大同 · 大同古城/华严寺,,,,"博物馆, 博物馆&展馆",,否,https://dimg04.c-ctrip.com/images/0104j12000b7mvk2kDCD2.jpg,https://you.ctrip.com/sight/datong275/105418439.html?scene=onlinesearch,40.100151,113.30275
知识科普型,博物馆,38490124,大同火山群国家地质公园博物馆,4.7,3,,大同,大同,,,我国六大著名火山群之一,"博物馆, 博物馆&展馆",免费,是,https://dimg04.c-ctrip.com/images/010571200090g2h2a40DA.jpg,https://you.ctrip.com/sight/datong275/2679285.html?scene=onlinesearch,40.049138,113.613387
知识科普型,博物馆,145397172,桐峪1941博物馆,0.0,0,,左权,左权,,,,博物馆&展馆,,否,https://dimg04.c-ctrip.com/images/0100312000f7u7dh87B9F.jpg,https://you.ctrip.com/sight/zuoquan3037/145397172.html?scene=onlinesearch,36.855626,113.473257
知识科普型,博物馆,79436608,河津市博物馆,5.0,2,,河津,河津,,,,"博物馆, 博物馆&展馆",免费,是,https://dimg04.c-ctrip.com/images/0105d12000cm2bue9D8D9.jpg,https://you.ctrip.com/sight/hejin3012/5702965.html?scene=onlinesearch,35.59379,110.717872
知识科普型,博物馆,38385656,翼城县博物馆,4.7,9,,翼城,翼城,,,观清代建筑，赏古物画展,"博物馆, 博物馆&展馆",,否,https://dimg04.c-ctrip.com/images/01068120009xvnx8e0105.jpg,https://you.ctrip.com/sight/yicheng3002/2575617.html?scene=onlinesearch,35.732432,111.721224
知识科普型,博物馆,144105775,山西壶口瀑布地质博物馆,0.0,0,黄河壶口风景区,吉县,吉县 · 黄河壶口风景区,,,,博物馆&展馆,,否,https://dimg04.c-ctrip.com/images/0HJ3p12000g346apb7016.jpg,https://you.ctrip.com/sight/jicounty3038/144105775.html?scene=onlinesearch,36.155299,110.459256
知识科普型,博物馆,79436584,五台县博物馆,0.0,0,,五台,五台,,,,"博物馆, 博物馆&展馆",免费,是,https://dimg04.c-ctrip.com/images/0HJ6212000g8sdbevF967.jpg,https://you.ctrip.com/sight/wutai1446115/5702952.html?scene=onlinesearch,38.729245,113.266349
知识科普型,博物馆,144104416,原平市博物馆,5.0,2,,原平,原平,,,,"博物馆, 博物馆&展馆",,否,https://dimg04.c-ctrip.com/images/1me6d12000jtw552e6B14.jpg,https://you.ctrip.com/sight/yuanping3014/144104416.html?scene=onlinesearch,38.736563,112.705266
知识科普型,博物馆,135118273,古代铜造艺术博物馆,5.0,1,大同古城/华严寺,大同,大同 · 大同古城/华严寺,,,,"特色展馆, 博物馆&展馆",免费,是,https://dimg04.c-ctrip.com/images/1mh5m12000m60ojyk9140.jpg,https://you.ctrip.com/sight/datong275/135118273.html?scene=onlinesearch,40.096405,113.311514
知识科普型,博物馆,24649964,广灵剪纸艺术博物馆,5.0,12,,广灵,广灵,,,,"特色展馆, 博物馆&展馆",免费,是,https://dimg04.c-ctrip.com/images/0104i12000b1ns4yg539B.jpg,https://you.ctrip.com/sight/guangling3007/1830844.html?scene=onlinesearch,39.783974,114.334997
知识科普型,博物馆,38480316,盐湖区博物馆,5.0,3,,运城,运城,,,,"博物馆, 博物馆&展馆",,否,https://dimg04.c-ctrip.com/images/1007180000014ft725360.jpg,https://you.ctrip.com/sight/yuncheng397/2669577.html?scene=onlinesearch,35.124545,110.921067
知识科普型,博物馆,24650206,河东博物馆,3.7,15,南风广场,运城,运城 · 南风广场,,,,"博物馆, 博物馆&展馆",,否,https://dimg04.c-ctrip.com/images/0102h1200096jmsc89E45.jpg,https://you.ctrip.com/sight/yuncheng397/1831068.html?scene=onlinesearch,35.029007,111.017882
知识科普型,博物馆,38421376,宁武冰洞地质博物馆,2.5,2,,宁武,宁武,,,,"博物馆, 博物馆&展馆",,否,https://dimg04.c-ctrip.com/images/0102a120008jzgleh539F.jpg,https://you.ctrip.com/sight/ningwu3030/2611237.html?scene=onlinesearch,38.824214,112.105337
知识科普型,博物馆,51795827,中国平遥推光漆艺博物馆(西大街店),0.0,0,平遥古城内,平遥,平遥 · 平遥古城内,,,了解平遥描金彩绘,"博物馆, 博物馆&展馆",,否,https://dimg04.c-ctrip.com/images/100s1900000169mb3983D.jpg,https://you.ctrip.com/sight/pingyao365/4610583.html?scene=onlinesearch,37.21262,112.197216
知识科普型,博物馆,79436599,吕梁北武当古兵器博物馆,5.0,1,,吕梁,吕梁,,,,博物馆&展馆,免费,是,https://dimg04.c-ctrip.com/images/0100w12000c6zd0o91CB2.jpg,https://you.ctrip.com/sight/lvliang902/5702981.html?scene=onlinesearch,37.524046,111.116779
知识科普型,博物馆,79042536,万荣县博物馆,5.0,1,,万荣,万荣,,,,"博物馆, 博物馆&展馆",免费,是,https://dimg04.c-ctrip.com/images/1me3k12000f1w19qqF10C.jpg,https://you.ctrip.com/sight/wanrong1446130/5701005.html?scene=onlinesearch,35.421117,110.841212
知识科普型,博物馆,38625910,平遥县文涛坊古兵器博物馆,4.6,5,平遥古城内,平遥,平遥 · 平遥古城内,,,观赏历代时期兵器,博物馆&展馆,,否,https://dimg04.c-ctrip.com/images/100f1900000162rj68939.jpg,https://you.ctrip.com/sight/pingyao365/2813771.html?scene=onlinesearch,37.21029,112.1826
知识科普型,博物馆,38502856,长子县博物馆,0.0,0,,长子,长子,,,,"博物馆, 博物馆&展馆",,否,https://dimg04.c-ctrip.com/images/0105v1200096ghdl49BC1.png,https://you.ctrip.com/sight/zhangzi1446113/2691817.html?scene=onlinesearch,36.125308,112.889433
知识科普型,博物馆,79438080,长治堆锦博物馆,4.5,4,,长治,长治,,,,"博物馆, 博物馆&展馆",免费,是,https://dimg04.c-ctrip.com/images/0100412000azmpno51CC8.jpg,https://you.ctrip.com/sight/changzhi901/5704437.html?scene=onlinesearch,36.185096,113.122076
知识科普型,博物馆,38420149,闻喜县博物馆,4.3,3,,闻喜,闻喜,,,,"博物馆, 博物馆&展馆",免费,是,https://dimg04.c-ctrip.com/images/0100d12000avbvhfe8060.jpg,https://you.ctrip.com/sight/wenxi2105/2610010.html?scene=onlinesearch,35.363613,111.231759
知识科普型,博物馆,38420042,山西省金墓博物馆,0.0,0,,稷山,稷山,,,,"博物馆, 博物馆&展馆",,否,https://dimg04.c-ctrip.com/images/0102f12000961vdi632B8.png,https://you.ctrip.com/sight/jishan2990/2609903.html?scene=onlinesearch,35.592763,110.932738
知识科普型,博物馆,145477588,猫咪博物馆,0.0,0,小店综改区,太原,太原 · 小店综改区,,,,博物馆&展馆,,否,https://dimg04.c-ctrip.com/images/0104212000nu8a8byF718.jpg,https://you.ctrip.com/sight/taiyuan167/145477588.html?scene=onlinesearch,37.737204,112.576323
知识科普型,博物馆,79042527,化石博物馆,4.0,1,,榆社,榆社,,,,"博物馆, 博物馆&展馆",免费,是,https://dimg04.c-ctrip.com/images/0102j12000gwzgt5y4B47.png,https://you.ctrip.com/sight/yushe3028/5701000.html?scene=onlinesearch,37.072597,112.978727
知识科普型,博物馆,152741085,梵沙宫艺术博物馆,5.0,4,,浑源,浑源,,,,博物馆&展馆,门票,否,https://dimg04.c-ctrip.com/images/1lo3t12000mhxrwh4558D.png,https://you.ctrip.com/sight/hunyuan3026/152741085.html?scene=onlinesearch,39.706668,113.696081
知识科普型,博物馆,149972825,中国煤炭博物馆煤海探秘游,0.0,0,山西博物院/太原新城吾悦广场,太原,太原 · 山西博物院/太原新城吾悦广场,,,,博物馆&展馆,,否,https://dimg04.c-ctrip.com/images/0105h12000ntj7xgg3A03.jpg,https://you.ctrip.com/sight/taiyuan167/149972825.html?scene=onlinesearch,37.863123,112.535052
知识科普型,博物馆,149630075,山西省右玉县杀虎口博物馆,0.0,0,,右玉,右玉,,,,博物馆&展馆,,否,https://dimg04.c-ctrip.com/images/0101512000ntzajsl3D8C.jpg,https://you.ctrip.com/sight/youyucounty2085/149630075.html?scene=onlinesearch,40.25475,112.3206
知识科普型,博物馆,79438077,阳曲县历史博物馆,5.0,2,,阳曲,阳曲,,,,"博物馆, 博物馆&展馆",,否,https://dimg04.c-ctrip.com/images/0104g12000bj1t9wi14AA.jpg,https://you.ctrip.com/sight/yangqu2999/5704433.html?scene=onlinesearch,38.065547,112.665628
知识科普型,博物馆,79438078,灵丘博物馆,5.0,2,,灵丘,灵丘,,,,"博物馆, 博物馆&展馆",免费,是,https://dimg04.c-ctrip.com/images/0104j12000b7puyro7356.jpg,https://you.ctrip.com/sight/lingqiu3008/5704452.html?scene=onlinesearch,39.44565,114.275938
知识科普型,博物馆,84357,大云寺,4.5,54,,临汾,临汾,,,现存建筑有弥陀殿、后殿和寺外七宝塔,历史建筑,免费,是,https://dimg04.c-ctrip.com/images/0102m12000nlk6dwgA0D9.jpg,https://you.ctrip.com/sight/linfen318/52200.html?scene=onlinesearch,36.087563,111.514949
知识科普型,博物馆,51540369,怀仁民俗博物馆,4.5,2,,怀仁,怀仁,,,,"博物馆, 博物馆&展馆",,否,https://dimg04.c-ctrip.com/images/0HJ4d12000g8zjicu42B1.jpg,https://you.ctrip.com/sight/huairen3023/4569809.html?scene=onlinesearch,39.81616,113.080222
知识科普型,博物馆,78485,霍州署,4.6,176,,霍州,霍州,,,"保存较完整的古代州级署衙, 唐尉迟恭的帅府行辕","历史建筑, 博物馆&展馆",,否,https://dimg04.c-ctrip.com/images/0105d12000ijwkge2A6D8.jpg,https://you.ctrip.com/sight/huozhou3029/11396.html?scene=onlinesearch,36.577194,111.735235
知识科普型,博物馆,145709717,云梦坞景区博物馆,0.0,0,,清徐,清徐,,,,博物馆&展馆,,否,https://dimg04.c-ctrip.com/images/0104p12000nudjoe6B223.jpg,https://you.ctrip.com/sight/qingxu1446125/145709717.html?scene=onlinesearch,37.560155,112.463559
知识科普型,博物馆,79295,平遥古县衙,4.6,431,平遥古城内,平遥,平遥 · 平遥古城内,,,600年前县令办公的官署,历史建筑,,否,https://dimg04.c-ctrip.com/images/0102112000682o2va4DE6.jpg,https://you.ctrip.com/sight/pingyao365/16566.html?scene=onlinesearch,37.208478,112.18904
知识科普型,博物馆,83365,百川通,4.6,77,平遥古城内,平遥,平遥 · 平遥古城内,,,观赏价值连城的家俬珍宝,"博物馆, 博物馆&展馆",,否,https://dimg04.c-ctrip.com/images/0102g12000attj0t2CD8B.jpg,https://you.ctrip.com/sight/pingyao365/50729.html?scene=onlinesearch,37.208235,112.192483
知识科普型,博物馆,143735159,尧庙地宫,0.0,0,,临汾,临汾,,,,,,否,https://dimg04.c-ctrip.com/images/0HJ5h12000g8w08z2F882.jpg,https://you.ctrip.com/sight/linfen318/143735159.html?scene=onlinesearch,36.055845,111.502639
知识科普型,博物馆,79042531,祁县晋商文化博物馆,4.7,6,,祁县,祁县,,,,"博物馆, 博物馆&展馆",,否,https://dimg04.c-ctrip.com/images/0104g12000aygueoc4FA8.jpg,https://you.ctrip.com/sight/qicounty3039/5701020.html?scene=onlinesearch,37.364458,112.33215
知识科普型,博物馆,79436587,平顺县文物博物馆,5.0,1,,平顺,平顺,,,,"博物馆, 博物馆&展馆",,否,https://dimg04.c-ctrip.com/images/0105l12000a6gn15xB60F.jpg,https://you.ctrip.com/sight/pingshun1446132/5702927.html?scene=onlinesearch,36.204163,113.446226
知识科普型,博物馆,145644723,山西省民俗博物馆,0.0,0,柳巷/钟楼街,太原,太原 · 柳巷/钟楼街,,,,博物馆&展馆,,否,https://dimg04.c-ctrip.com/images/0102p120008ibp6w83019.jpg,https://you.ctrip.com/sight/taiyuan167/145644723.html?scene=onlinesearch,37.871744,112.586001
知识科普型,博物馆,39070058,孔祥熙宅园货币金融博物馆,0.0,0,,晋中,晋中,,,,"博物馆, 博物馆&展馆",,否,https://dimg04.c-ctrip.com/images/100r180000013x66p5D88.jpg,https://you.ctrip.com/sight/jinzhong639/3253419.html?scene=onlinesearch,37.429959,112.562854
知识科普型,博物馆,79436611,稷山县博物馆,4.5,2,,稷山,稷山,,,,"博物馆, 博物馆&展馆",免费,是,https://dimg04.c-ctrip.com/images/0106s12000cxtlzh49EA0.jpg,https://you.ctrip.com/sight/jishan2990/5702967.html?scene=onlinesearch,35.606739,110.984704
知识科普型,博物馆,145567805,永济市博物馆,0.0,0,,永济,永济,,,,博物馆&展馆,,否,https://dimg04.c-ctrip.com/images/0HJ2112000g6x4bd743D6.jpg,https://you.ctrip.com/sight/yongji1772/145567805.html?scene=onlinesearch,34.870991,110.454858
知识科普型,博物馆,148720237,九连环古民居博物馆,0.0,0,,长子,长子,,,,博物馆&展馆,,否,https://dimg04.c-ctrip.com/images/1me6o12000ln0obry83F4.jpg,https://you.ctrip.com/sight/zhangzi1446113/148720237.html?scene=onlinesearch,35.990212,112.893778
知识科普型,博物馆,51710275,山西老酒博物馆,2.0,3,大同古城/华严寺,大同,大同 · 大同古城/华严寺,,,,"博物馆, 博物馆&展馆",,否,https://dimg04.c-ctrip.com/images/0105g120008i3p9epA9DE.jpg,https://you.ctrip.com/sight/datong275/4596026.html?scene=onlinesearch,40.097652,113.309898
知识科普型,博物馆,38391993,襄垣县文物博物馆,0.0,0,,襄垣,襄垣,,,,"博物馆, 博物馆&展馆",,否,https://dimg04.c-ctrip.com/images/1A0a12000000srdbi6EAE.jpg,https://you.ctrip.com/sight/xiangyuan3034/2581954.html?scene=onlinesearch,36.539827,113.058953
知识科普型,博物馆,79436600,平阳木版年画博物馆,0.0,0,,临汾,临汾,,,,"博物馆, 博物馆&展馆",免费,是,https://dimg04.c-ctrip.com/images/0HJ1m12000g2w9zvy07CC.jpg,https://you.ctrip.com/sight/linfen318/5702983.html?scene=onlinesearch,36.07961,111.527748
知识科普型,博物馆,38527711,昔阳县博物馆,0.0,0,,昔阳,昔阳,,,,"博物馆, 博物馆&展馆",免费,是,https://dimg04.c-ctrip.com/images/100e1f000001grede20EF.png,https://you.ctrip.com/sight/xiyang2988/2716572.html?scene=onlinesearch,37.613117,113.713196
知识科普型,博物馆,98930,中国珍奇报纸陈列馆,4.3,39,平遥古城内,平遥,平遥 · 平遥古城内,,,明清时期的风格建筑,"博物馆&展馆, 场馆展馆",,否,https://dimg04.c-ctrip.com/images/100n1900000161s75F81A.jpg,https://you.ctrip.com/sight/pingyao365/137640.html?scene=onlinesearch,37.207372,112.192981
知识科普型,博物馆,79436597,永济博物馆思史文化展,5.0,1,,永济,永济,,,,"特色展馆, 展览",免费,是,https://dimg04.c-ctrip.com/images/1me3m12000d85fnnaA232.jpg,https://you.ctrip.com/sight/yongji1772/5702959.html?scene=onlinesearch,34.871241,110.455397
知识科普型,博物馆,51986411,山西省民俗博物馆分馆,5.0,1,茂业天地/北美新天地时尚中心,太原,太原 · 茂业天地/北美新天地时尚中心,,,,"博物馆, 博物馆&展馆",,否,https://dimg04.c-ctrip.com/images/1mh4812000getr0ez4B6C.jpg,https://you.ctrip.com/sight/taiyuan167/4632118.html?scene=onlinesearch,37.842111,112.575124
知识科普型,博物馆,79436594,曲沃县博物馆,5.0,1,,曲沃,曲沃,,,,"博物馆, 博物馆&展馆",免费,是,https://dimg04.c-ctrip.com/images/0101n12000c6c2sw0FD09.jpg,https://you.ctrip.com/sight/quwo1446120/5702956.html?scene=onlinesearch,35.647136,111.488422
知识科普型,博物馆,134774082,猫咪博物馆·神兽羊驼主题馆(晋城万达店),0.0,0,,晋城,晋城,,,,"特色展馆, 博物馆&展馆",,否,https://dimg04.c-ctrip.com/images/0104s120009ud2rv4BCE2.jpg,https://you.ctrip.com/sight/jincheng665/134774082.html?scene=onlinesearch,35.478336,112.886162
知识科普型,博物馆,79438124,九源博物馆,0.0,0,,忻州,忻州,,,,"博物馆, 博物馆&展馆",免费,是,https://dimg04.c-ctrip.com/images/0HJ0b12000g90mqfn7681.jpg,https://you.ctrip.com/sight/xinzhou783/5704427.html?scene=onlinesearch,38.458846,112.750914
知识科普型,博物馆,143725707,气味博物馆,0.0,0,平遥古城内,平遥,平遥 · 平遥古城内,,,,"博物馆, 博物馆&展馆",,否,https://dimg04.c-ctrip.com/images/0100p12000diuzm5rAF75.jpg,https://you.ctrip.com/sight/pingyao365/143725707.html?scene=onlinesearch,37.211186,112.19206
知识科普型,博物馆,38385757,华夏司法博物馆,0.0,0,,洪洞,洪洞,,,,"博物馆, 博物馆&展馆",,否,https://dimg04.c-ctrip.com/images/01018120009ud81i9DBE9.jpg,https://you.ctrip.com/sight/hongtong3015/2575718.html?scene=onlinesearch,36.215776,111.636873
知识科普型,博物馆,111989249,中国(平遥)监察文化博物馆,0.0,0,平遥古城内,平遥,平遥 · 平遥古城内,,,,"博物馆, 博物馆&展馆",,否,https://dimg04.c-ctrip.com/images/0HJ3212000g8xmbce497A.jpg,https://you.ctrip.com/sight/pingyao365/111989249.html?scene=onlinesearch,37.210152,112.193029
知识科普型,博物馆,145310941,芮城县博物馆,0.0,0,,芮城,芮城,,,,博物馆&展馆,,否,https://dimg04.c-ctrip.com/images/0HJ0u12000g2rypx57A4E.jpg,https://you.ctrip.com/sight/ruicheng2986/145310941.html?scene=onlinesearch,34.701215,110.699915
知识科普型,博物馆,148654722,大寨红色博物馆,0.0,0,,昔阳,昔阳,,,,博物馆&展馆,,否,https://dimg04.c-ctrip.com/images/0HJ3p12000g91vkqoDA5F.jpg,https://you.ctrip.com/sight/xiyang2988/148654722.html?scene=onlinesearch,37.570787,113.724957
知识科普型,博物馆,79438086,平鲁博物馆,5.0,3,,朔州,朔州,,,,"博物馆, 博物馆&展馆",免费,是,https://dimg04.c-ctrip.com/images/0101g12000cya0dcc3191.jpg,https://you.ctrip.com/sight/shuozhou903/5704439.html?scene=onlinesearch,39.509185,112.30755
知识科普型,博物馆,145450767,稷山板枣博物馆,0.0,0,,稷山,稷山,,,,博物馆&展馆,,否,https://dimg04.c-ctrip.com/images/1me5t12000gph3da02BF1.jpg,https://you.ctrip.com/sight/jishan2990/145450767.html?scene=onlinesearch,35.638288,110.957017
知识科普型,博物馆,145536112,太原市工美非遗博物馆,0.0,0,太原古县城/晋祠,太原,太原 · 太原古县城/晋祠,,,,博物馆&展馆,,否,https://dimg04.c-ctrip.com/images/1me2812000grfddwhF297.jpg,https://you.ctrip.com/sight/taiyuan167/145536112.html?scene=onlinesearch,37.732867,112.497794
知识科普型,博物馆,145149947,晋商茶马古道博物馆,0.0,0,太原古县城/晋祠,太原,太原 · 太原古县城/晋祠,,,,博物馆&展馆,,否,https://dimg04.c-ctrip.com/images/0103s12000nttlqcvBF28.jpg,https://you.ctrip.com/sight/taiyuan167/145149947.html?scene=onlinesearch,37.732962,112.497081
知识科普型,博物馆,38419990,芮城民俗博物馆,0.0,0,,芮城,芮城,,,,"博物馆, 博物馆&展馆",,否,https://dimg04.c-ctrip.com/images/0HJ0c12000g8rgxqn0861.jpg,https://you.ctrip.com/sight/ruicheng2986/2609851.html?scene=onlinesearch,34.722081,110.698892
知识科普型,博物馆,39024700,山西中医药博物馆,0.0,0,,晋中,晋中,,,,"博物馆, 博物馆&展馆",,否,https://dimg04.c-ctrip.com/images/0HJ3s12000g74235qBA8B.jpg,https://you.ctrip.com/sight/jinzhong639/3208661.html?scene=onlinesearch,37.363838,112.577378
知识科普型,博物馆,145463729,观古艺术博物馆,0.0,0,太原古县城/晋祠,太原,太原 · 太原古县城/晋祠,,,,博物馆&展馆,,否,https://dimg04.c-ctrip.com/images/0101012000hljd7il2768.jpg,https://you.ctrip.com/sight/taiyuan167/145463729.html?scene=onlinesearch,37.733036,112.49573
知识科普型,博物馆,145209692,中国古兵器艺术博物馆,0.0,0,太原古县城/晋祠,太原,太原 · 太原古县城/晋祠,,,,博物馆&展馆,,否,https://dimg04.c-ctrip.com/images/0100112000nuddyixD4D7.jpg,https://you.ctrip.com/sight/taiyuan167/145209692.html?scene=onlinesearch,37.731564,112.492032
知识科普型,博物馆,144246760,万家寨引黄工程博物馆-黄河艺术馆,5.0,1,,太原,太原,,,,"特色展馆, 博物馆&展馆",,否,https://dimg04.c-ctrip.com/images/1mh6812000gh1h10pC8B7.jpg,https://you.ctrip.com/sight/taiyuan167/144246760.html?scene=onlinesearch,37.847075,112.570777
知识科普型,博物馆,145605259,平定砂器博物馆,4.0,1,,平定,平定,,,,博物馆&展馆,,否,https://dimg04.c-ctrip.com/images/1mh4h12000mcqlgbs389D.jpg,https://you.ctrip.com/sight/pingding2057/145605259.html?scene=onlinesearch,37.776082,113.628977
知识科普型,博物馆,39009342,寿阳县生云博物馆,5.0,1,,寿阳,寿阳,,,,"博物馆, 博物馆&展馆",,否,https://dimg04.c-ctrip.com/images/01041120008mqmlje2ED4.jpg,https://you.ctrip.com/sight/shouyang2991/3193503.html?scene=onlinesearch,37.88856,113.166462
知识科普型,博物馆,145632400,山西陵川王莽岭国家地质公园博物馆,4.0,1,,陵川,陵川,,,,博物馆&展馆,,否,https://dimg04.c-ctrip.com/images/0106112000nygaka966FB.jpg,https://you.ctrip.com/sight/lingchuan3004/145632400.html?scene=onlinesearch,35.697009,113.585779
知识科普型,博物馆,145299216,古兵器博物馆,0.0,0,,临县,临县,,,,博物馆&展馆,,否,https://dimg04.c-ctrip.com/images/0HJ3n12000g2vedu1ADFE.jpg,https://you.ctrip.com/sight/lincounty2998/145299216.html?scene=onlinesearch,37.652347,110.799279
知识科普型,博物馆,38960248,雨楼博物馆,4.3,3,,祁县,祁县,,,,"博物馆, 博物馆&展馆",,否,https://dimg04.c-ctrip.com/images/0105n12000920blxy02A7.jpg,https://you.ctrip.com/sight/qicounty3039/3144809.html?scene=onlinesearch,37.363221,112.333714
知识科普型,博物馆,51985850,锦言斋晋作红木博物馆,0.0,0,,太原,太原,,,,"博物馆, 博物馆&展馆",,否,https://dimg04.c-ctrip.com/images/0100n12000bj1dt7pE93C.jpg,https://you.ctrip.com/sight/taiyuan167/4631997.html?scene=onlinesearch,37.816511,112.54968
知识科普型,博物馆,143726705,孟家民俗博物馆,0.0,0,,晋中,晋中,,,,"博物馆, 博物馆&展馆",,否,https://dimg04.c-ctrip.com/images/0HJ4812000g90htn5AD67.jpg,https://you.ctrip.com/sight/jinzhong639/143726705.html?scene=onlinesearch,37.439884,112.560301
知识科普型,博物馆,133966406,颠倒博物馆(美时光商业广场店),0.0,0,柳巷/钟楼街,太原,太原 · 柳巷/钟楼街,,,,"特色展馆, 博物馆&展馆",,否,https://dimg04.c-ctrip.com/images/0103j12000cq92d94C324.webp,https://you.ctrip.com/sight/taiyuan167/133966406.html?scene=onlinesearch,37.869705,112.573144
知识科普型,博物馆,145182417,黑龙河村民俗博物馆,0.0,0,,灵丘,灵丘,,,,博物馆&展馆,,否,https://dimg04.c-ctrip.com/images/0HJ1j12000g6fsm0r9DD0.jpg,https://you.ctrip.com/sight/lingqiu3008/145182417.html?scene=onlinesearch,39.451305,114.206863
知识科普型,博物馆,145686423,大同元顺兴钱币博物馆,0.0,0,,大同,大同,,,,博物馆&展馆,,否,https://dimg04.c-ctrip.com/images/0HJ6v12000g2tsj4j5940.jpg,https://you.ctrip.com/sight/datong275/145686423.html?scene=onlinesearch,40.13947,113.460448
知识科普型,博物馆,145632063,八义窑博物馆,0.0,0,,长治,长治,,,,博物馆&展馆,,否,https://dimg04.c-ctrip.com/images/0HJ5912000g8rl73a6055.jpg,https://you.ctrip.com/sight/changzhi901/145632063.html?scene=onlinesearch,35.968489,113.041832
知识科普型,博物馆,145560617,太原金石传拓博物馆,0.0,0,,太原,太原,,,,博物馆&展馆,,否,https://dimg04.c-ctrip.com/images/0HJ2n12000g6waac16367.jpg,https://you.ctrip.com/sight/taiyuan167/145560617.html?scene=onlinesearch,37.886083,112.653136
知识科普型,博物馆,145374801,皇城圣旨科举博物馆,0.0,0,皇城相府景区,阳城,阳城 · 皇城相府景区,,,,博物馆&展馆,,否,https://dimg04.c-ctrip.com/images/0105f12000o4eslrk5393.jpg,https://you.ctrip.com/sight/yangcheng2076/145374801.html?scene=onlinesearch,35.514605,112.586061
知识科普型,博物馆,38343655,兰奇神像博物馆,0.0,0,太原火车站,太原,太原 · 太原火车站,,,,"博物馆, 博物馆&展馆",,否,https://dimg04.c-ctrip.com/images/0HJ7412000g2ws2bv1A6C.jpg,https://you.ctrip.com/sight/taiyuan167/2534316.html?scene=onlinesearch,37.868245,112.617061
知识科普型,博物馆,149590266,太原科举文化博物馆,0.0,0,柳巷/钟楼街,太原,太原 · 柳巷/钟楼街,,,,博物馆&展馆,,否,https://dimg04.c-ctrip.com/images/0106p12000gt610rnA7D1.jpg,https://you.ctrip.com/sight/taiyuan167/149590266.html?scene=onlinesearch,37.877557,112.570743
知识科普型,博物馆,145467684,平定刻花瓷非遗博物馆,5.0,1,,平定,平定,,,,博物馆&展馆,,否,https://dimg04.c-ctrip.com/images/0HJ0912000g2tuxwc0377.jpg,https://you.ctrip.com/sight/pingding2057/145467684.html?scene=onlinesearch,37.765635,113.674455
知识科普型,博物馆,144105258,天成亨民俗博物馆,0.0,0,平遥古城内,平遥,平遥 · 平遥古城内,,,,博物馆&展馆,,否,https://dimg04.c-ctrip.com/images/0HJ0212000g8xcelq1815.jpg,https://you.ctrip.com/sight/pingyao365/144105258.html?scene=onlinesearch,37.212274,112.191825
知识科普型,博物馆,145562286,朱砂博物馆,0.0,0,平遥古城外,平遥,平遥 · 平遥古城外,,,,博物馆&展馆,,否,https://dimg04.c-ctrip.com/images/0HJ3l12000g2rov3m86C3.jpg,https://you.ctrip.com/sight/pingyao365/145562286.html?scene=onlinesearch,37.195783,112.17332
知识科普型,博物馆,145226155,华北第一镖局博物馆练武场,0.0,0,平遥古城内,平遥,平遥 · 平遥古城内,,,,,,否,https://dimg04.c-ctrip.com/images/0HJ6t12000g31lhti189B.jpg,https://you.ctrip.com/sight/pingyao365/145226155.html?scene=onlinesearch,37.211446,112.192927
知识科普型,博物馆,145733095,中国商会博物馆-第四室,0.0,0,平遥古城内,平遥,平遥 · 平遥古城内,,,,博物馆&展馆,,否,https://dimg04.c-ctrip.com/images/0HJ1z12000g6610mk53B3.jpg,https://you.ctrip.com/sight/pingyao365/145733095.html?scene=onlinesearch,37.212118,112.192226
知识科普型,博物馆,145273881,中国商会博物馆-第七室,0.0,0,平遥古城内,平遥,平遥 · 平遥古城内,,,,博物馆&展馆,,否,https://dimg04.c-ctrip.com/images/0HJ4912000g8yilac0314.jpg,https://you.ctrip.com/sight/pingyao365/145273881.html?scene=onlinesearch,37.212273,112.192151
知识科普型,博物馆,145324439,中国建筑模型博物馆,0.0,0,太原古县城/晋祠,太原,太原 · 太原古县城/晋祠,,,,博物馆&展馆,,否,https://dimg04.c-ctrip.com/images/0102v12000hlkmd17FF7B.jpg,https://you.ctrip.com/sight/taiyuan167/145324439.html?scene=onlinesearch,37.734774,112.49228
知识科普型,博物馆,145516753,晋绥兵民博物馆,0.0,0,,吕梁,吕梁,,,,博物馆&展馆,,否,https://dimg04.c-ctrip.com/images/0106r12000fqzndomEEC5.jpg,https://you.ctrip.com/sight/lvliang902/145516753.html?scene=onlinesearch,37.5209,111.152185
知识科普型,博物馆,145461970,今古轩佛教美学博物馆,0.0,0,太原古县城/晋祠,太原,太原 · 太原古县城/晋祠,,,,博物馆&展馆,,否,https://dimg04.c-ctrip.com/images/0HJ3m12000g2v9muq1430.jpg,https://you.ctrip.com/sight/taiyuan167/145461970.html?scene=onlinesearch,37.73288,112.495465
知识科普型,博物馆,145414443,山西博物院展馆-放映厅,0.0,0,山西博物院/太原新城吾悦广场,太原,太原 · 山西博物院/太原新城吾悦广场,,,,,,否,https://dimg04.c-ctrip.com/images/0107312000ijimz9bAEC1.jpg,https://you.ctrip.com/sight/taiyuan167/145414443.html?scene=onlinesearch,37.871655,112.537993
知识科普型,博物馆,145537043,山西博物院-图书馆,0.0,0,山西博物院/太原新城吾悦广场,太原,太原 · 山西博物院/太原新城吾悦广场,,,,,,否,https://dimg04.c-ctrip.com/images/0HJ6112000g2rysfa88F7.jpg,https://you.ctrip.com/sight/taiyuan167/145537043.html?scene=onlinesearch,37.870858,112.53816
知识科普型,博物馆,149962894,人间情怀(山西博物院),0.0,0,山西博物院/太原新城吾悦广场,太原,太原 · 山西博物院/太原新城吾悦广场,,,,,,否,https://dimg04.c-ctrip.com/images/0102412000ijl8fdy8CE5.jpg,https://you.ctrip.com/sight/taiyuan167/149962894.html?scene=onlinesearch,37.87159,112.538018
知识科普型,博物馆,145570713,永济市红色文物博物馆,0.0,0,,永济,永济,,,,博物馆&展馆,,否,https://dimg04.c-ctrip.com/images/0HJ3d12000g6garsj0245.jpg,https://you.ctrip.com/sight/yongji1772/145570713.html?scene=onlinesearch,34.872789,110.447072
知识科普型,博物馆,79438113,左权东方酒器博物馆,0.0,0,,左权,左权,,,,博物馆&展馆,免费,是,https://dimg04.c-ctrip.com/images/0106e12000b7n0dei0A5E.jpg,https://you.ctrip.com/sight/zuoquan3037/5704453.html?scene=onlinesearch,37.091237,113.355426
知识科普型,博物馆,145295120,拂云轩民族器乐博物馆,0.0,0,,大同,大同,,,,博物馆&展馆,,否,https://dimg04.c-ctrip.com/images/0HJ4p12000g2saaeq4073.jpg,https://you.ctrip.com/sight/datong275/145295120.html?scene=onlinesearch,40.053793,113.280717
知识科普型,博物馆,145472563,苏州巧生炉博物馆(大同分馆),0.0,0,东信广场商圈,大同,大同 · 东信广场商圈,,,,博物馆&展馆,,否,https://dimg04.c-ctrip.com/images/0HJ3r12000g68ls903DEC.jpg,https://you.ctrip.com/sight/datong275/145472563.html?scene=onlinesearch,40.072534,113.325351
知识科普型,博物馆,145352739,黄河蛇曲地质博物馆,0.0,0,,永和,永和,,,,博物馆&展馆,,否,https://dimg04.c-ctrip.com/images/0HJ5n12000g8xwlm8303E.jpg,https://you.ctrip.com/sight/yonghe1446106/145352739.html?scene=onlinesearch,36.682256,110.442475
知识科普型,博物馆,148570608,中国梦红色主题博物馆,0.0,0,,昔阳,昔阳,,,,博物馆&展馆,,否,https://dimg04.c-ctrip.com/images/0HJ3512000g8u9gnp3AB9.jpg,https://you.ctrip.com/sight/xiyang2988/148570608.html?scene=onlinesearch,37.57628,113.726252
知识科普型,博物馆,51687474,山西税收博物馆,0.0,0,八一广场商业区,长治,长治 · 八一广场商业区,,,,"博物馆, 博物馆&展馆",,否,https://dimg04.c-ctrip.com/images/0104b12000cigg5yw6DBE.jpg,https://you.ctrip.com/sight/changzhi901/4593989.html?scene=onlinesearch,36.194722,113.124874
知识科普型,博物馆,145379081,农耕博物馆,0.0,0,,静乐,静乐,,,,博物馆&展馆,,否,https://dimg04.c-ctrip.com/images/0HJ0n12000g74p1fk0036.jpg,https://you.ctrip.com/sight/jingle1446124/145379081.html?scene=onlinesearch,38.47389,111.905363
知识科普型,博物馆,145622107,长治上堂老酒文化博物馆,0.0,0,,长治,长治,,,,博物馆&展馆,,否,https://dimg04.c-ctrip.com/images/0HJ6g12000g8s139165FA.jpg,https://you.ctrip.com/sight/changzhi901/145622107.html?scene=onlinesearch,36.281139,113.095253
知识科普型,博物馆,22749494,晋国博物馆,4.7,303,,曲沃,曲沃,,4A,"中国商周时期较大车马坑, 完整展示晋文化的平台","博物馆, 博物馆&展馆",门市价,否,https://dimg04.c-ctrip.com/images/100m17000001236dh4A42.jpg,https://you.ctrip.com/sight/quwo1446120/1709597.html?scene=onlinesearch,35.742018,111.57519
知识科普型,博物馆,38965055,山西醋文化博物馆,4.3,13,,清徐,清徐,,,,"博物馆, 博物馆&展馆",,否,https://dimg04.c-ctrip.com/images/0104112000awgqlaz3087.jpg,https://you.ctrip.com/sight/qingxu1446125/3149516.html?scene=onlinesearch,37.610803,112.360775
知识科普型,博物馆,136622925,山西活体昆虫博物馆,0.0,0,大同站,大同,大同 · 大同站,,,,"博物馆, 博物馆&展馆",,否,https://dimg04.c-ctrip.com/images/1lo2b12000cczjtbl1C5C.jpg,https://you.ctrip.com/sight/datong275/136622925.html?scene=onlinesearch,40.122569,113.308813
知识科普型,博物馆,145476876,太原市太山博物馆,0.0,0,,太原,太原,,,,博物馆&展馆,,否,https://dimg04.c-ctrip.com/images/0106y12000eyulnwwF826.jpg,https://you.ctrip.com/sight/taiyuan167/145476876.html?scene=onlinesearch,37.759146,112.449028
知识科普型,博物馆,38388040,汾阳博物馆,4.4,6,,汾阳,汾阳,,,,"博物馆, 博物馆&展馆",,否,https://dimg04.c-ctrip.com/images/0100z12000asf62o3456B.jpg,https://you.ctrip.com/sight/fenyang2053/2578001.html?scene=onlinesearch,37.270181,111.790934
知识科普型,博物馆,79436596,芮城县博物馆,4.3,3,,芮城,芮城,,,,"博物馆, 博物馆&展馆",免费,是,https://dimg04.c-ctrip.com/images/0HJ0u12000g2rypx57A4E.jpg,https://you.ctrip.com/sight/ruicheng2986/5702964.html?scene=onlinesearch,34.701215,110.699915
知识科普型,博物馆,150234766,山西博物院(机场体验店T1航站楼),5.0,4,武宿机场商业区,太原,太原 · 武宿机场商业区,,,,,,否,https://dimg04.c-ctrip.com/images/fd/tg/g1/M06/FC/24/CghzflW7H_iATdynAAA-FlXAIeA738.jpg,https://you.ctrip.com/sight/taiyuan167/150234766.html?scene=onlinesearch,37.760149,112.638796
知识科普型,博物馆,30667829,三晋奇石博物馆,4.2,9,,清徐,清徐,,,"各类奇石, 复古民宅，华北园林, 名人字画、晋作家具","博物馆, 博物馆&展馆",,否,https://dimg04.c-ctrip.com/images/0104512000b6ruwwt5A18.jpg,https://you.ctrip.com/sight/qingxu1446125/2004983.html?scene=onlinesearch,37.541683,112.471196
知识科普型,博物馆,105418550,魁星文化博物馆,2.0,1,大同古城/华严寺,大同,大同 · 大同古城/华严寺,,,,"博物馆, 博物馆&展馆",免费,是,https://dimg04.c-ctrip.com/images/0104712000c8kbyt789D3.jpg,https://you.ctrip.com/sight/datong275/105418550.html?scene=onlinesearch,40.104829,113.308779
知识科普型,博物馆,79154944,肆块伍失恋博物馆,5.0,1,,吕梁,吕梁,,,,"特色展馆, 博物馆&展馆",,否,https://dimg04.c-ctrip.com/images/0106k12000cdle4ga373B.jpg,https://you.ctrip.com/sight/lvliang902/5701211.html?scene=onlinesearch,37.525473,111.153139
知识科普型,博物馆,79436610,山西夏县博物馆,0.0,0,,夏县,夏县,,,,"博物馆, 博物馆&展馆",免费,是,https://dimg04.c-ctrip.com/images/0HJ0o12000g6a0ve6B2C3.jpg,https://you.ctrip.com/sight/xiacounty3025/5702966.html?scene=onlinesearch,35.143481,111.231709
知识科普型,博物馆,144551308,虫洞时光机博物馆(贵都世纪广场店),0.0,0,柳巷/钟楼街,太原,太原 · 柳巷/钟楼街,,,,博物馆&展馆,,否,https://dimg04.c-ctrip.com/images/0103p12000d9ou3m3E268.jpg,https://you.ctrip.com/sight/taiyuan167/144551308.html?scene=onlinesearch,37.870263,112.573913
知识科普型,博物馆,51736168,丹河蛇曲谷地质博物馆,0.0,0,,泽州,泽州,,,,"博物馆, 博物馆&展馆",,否,https://dimg04.c-ctrip.com/images/0102f12000gf68tbx8852.png,https://you.ctrip.com/sight/zezhou3032/4596550.html?scene=onlinesearch,35.44962,113.007407
知识科普型,博物馆,149687970,忻州市博物馆,0.0,0,,忻州,忻州,,,,博物馆&展馆,,否,https://dimg04.c-ctrip.com/images/fd/tg/g1/M06/FC/24/CghzflW7H_iATdynAAA-FlXAIeA738.jpg,https://you.ctrip.com/sight/xinzhou783/149687970.html?scene=onlinesearch,38.420615,112.725537
知识科普型,博物馆,152795396,忻府博物馆,0.0,0,忻州古城,忻州,忻州 · 忻州古城,,,,博物馆&展馆,,否,https://dimg04.c-ctrip.com/images/fd/tg/g1/M06/FC/24/CghzflW7H_iATdynAAA-FlXAIeA738.jpg,https://you.ctrip.com/sight/xinzhou783/152795396.html?scene=onlinesearch,38.408222,112.750268
知识科普型,博物馆,150372365,猫咪博物馆(大同T98店),0.0,0,,大同,大同,,,,博物馆&展馆,,否,https://dimg04.c-ctrip.com/images/fd/tg/g1/M06/FC/24/CghzflW7H_iATdynAAA-FlXAIeA738.jpg,https://you.ctrip.com/sight/datong275/150372365.html?scene=onlinesearch,40.065027,113.300033
知识科普型,博物馆,145374125,忻州中华长城博物馆,0.0,0,忻州古城,忻州,忻州 · 忻州古城,,,,博物馆&展馆,,否,https://dimg04.c-ctrip.com/images/fd/tg/g1/M06/FC/24/CghzflW7H_iATdynAAA-FlXAIeA738.jpg,https://you.ctrip.com/sight/xinzhou783/145374125.html?scene=onlinesearch,38.402358,112.737869
知识科普型,博物馆,145308884,吕梁抗战博物馆,5.0,1,,吕梁,吕梁,,,,博物馆&展馆,,否,https://dimg04.c-ctrip.com/images/fd/tg/g1/M06/FC/24/CghzflW7H_iATdynAAA-FlXAIeA738.jpg,https://you.ctrip.com/sight/lvliang902/145308884.html?scene=onlinesearch,37.515052,111.138626
知识科普型,博物馆,79436606,陵川县博物馆,0.0,0,,陵川,陵川,,,,"博物馆, 博物馆&展馆",,否,https://dimg04.c-ctrip.com/images/fd/tg/g1/M08/AE/87/CghzfVW7IAOAbNKNAABCrs7mUrY425.jpg,https://you.ctrip.com/sight/lingchuan3004/5702971.html?scene=onlinesearch,35.78051,113.284388
知识科普型,博物馆,145225140,西口文化博物馆,0.0,0,,右玉,右玉,,,,博物馆&展馆,,否,https://dimg04.c-ctrip.com/images/fd/tg/g1/M06/FC/24/CghzflW7H_iATdynAAA-FlXAIeA738.jpg,https://you.ctrip.com/sight/youyucounty2085/145225140.html?scene=onlinesearch,39.989475,112.44961
知识科普型,博物馆,145279189,平遥县当铺博物馆,0.0,0,平遥古城内,平遥,平遥 · 平遥古城内,,,,博物馆&展馆,,否,https://dimg04.c-ctrip.com/images/fd/tg/g1/M06/FC/24/CghzflW7H_iATdynAAA-FlXAIeA738.jpg,https://you.ctrip.com/sight/pingyao365/145279189.html?scene=onlinesearch,37.211882,112.189405
知识科普型,博物馆,143704975,天成亨民俗博物馆-第四展览室,0.0,0,平遥古城内,平遥,平遥 · 平遥古城内,,,,博物馆&展馆,,否,https://dimg04.c-ctrip.com/images/fd/tg/g1/M06/FC/24/CghzflW7H_iATdynAAA-FlXAIeA738.jpg,https://you.ctrip.com/sight/pingyao365/143704975.html?scene=onlinesearch,37.212165,112.191844
知识科普型,博物馆,145575573,天吉祥博物馆大掌柜房,0.0,0,平遥古城内,平遥,平遥 · 平遥古城内,,,,,,否,https://dimg04.c-ctrip.com/images/fd/tg/g1/M06/FC/24/CghzflW7H_iATdynAAA-FlXAIeA738.jpg,https://you.ctrip.com/sight/pingyao365/145575573.html?scene=onlinesearch,37.211559,112.192061
知识科普型,博物馆,145124408,天成亨民俗博物馆-第十三展室,0.0,0,平遥古城内,平遥,平遥 · 平遥古城内,,,,博物馆&展馆,,否,https://dimg04.c-ctrip.com/images/fd/tg/g1/M06/FC/24/CghzflW7H_iATdynAAA-FlXAIeA738.jpg,https://you.ctrip.com/sight/pingyao365/145124408.html?scene=onlinesearch,37.212186,112.191754
知识科普型,博物馆,145194598,天成亨民俗博物馆-第二展览室,0.0,0,平遥古城内,平遥,平遥 · 平遥古城内,,,,博物馆&展馆,,否,https://dimg04.c-ctrip.com/images/fd/tg/g1/M06/FC/24/CghzflW7H_iATdynAAA-FlXAIeA738.jpg,https://you.ctrip.com/sight/pingyao365/145194598.html?scene=onlinesearch,37.212221,112.191701
知识科普型,博物馆,145255876,华北第一镖局博物馆-资料展室,0.0,0,平遥古城内,平遥,平遥 · 平遥古城内,,,,博物馆&展馆,,否,https://dimg04.c-ctrip.com/images/fd/tg/g1/M06/FC/24/CghzflW7H_iATdynAAA-FlXAIeA738.jpg,https://you.ctrip.com/sight/pingyao365/145255876.html?scene=onlinesearch,37.211839,112.192563
知识科普型,博物馆,145264084,天吉祥博物馆-更夫房,0.0,0,平遥古城内,平遥,平遥 · 平遥古城内,,,,博物馆&展馆,,否,https://dimg04.c-ctrip.com/images/fd/tg/g1/M06/FC/24/CghzflW7H_iATdynAAA-FlXAIeA738.jpg,https://you.ctrip.com/sight/pingyao365/145264084.html?scene=onlinesearch,37.211587,112.192024
知识科普型,博物馆,145269367,天成亨民俗博物馆-第五展览室,0.0,0,平遥古城内,平遥,平遥 · 平遥古城内,,,,博物馆&展馆,,否,https://dimg04.c-ctrip.com/images/fd/tg/g1/M06/FC/24/CghzflW7H_iATdynAAA-FlXAIeA738.jpg,https://you.ctrip.com/sight/pingyao365/145269367.html?scene=onlinesearch,37.21228,112.191902
知识科普型,博物馆,145412862,天成亨民俗博物馆-第三展览室,0.0,0,平遥古城内,平遥,平遥 · 平遥古城内,,,,博物馆&展馆,,否,https://dimg04.c-ctrip.com/images/fd/tg/g1/M06/FC/24/CghzflW7H_iATdynAAA-FlXAIeA738.jpg,https://you.ctrip.com/sight/pingyao365/145412862.html?scene=onlinesearch,37.21223,112.191918
知识科普型,博物馆,145491822,天成亨民俗博物馆-第一展览室,0.0,0,平遥古城内,平遥,平遥 · 平遥古城内,,,,博物馆&展馆,,否,https://dimg04.c-ctrip.com/images/fd/tg/g1/M06/FC/24/CghzflW7H_iATdynAAA-FlXAIeA738.jpg,https://you.ctrip.com/sight/pingyao365/145491822.html?scene=onlinesearch,37.212172,112.191935
知识科普型,博物馆,145501692,天成亨民俗博物馆-第九展览室,0.0,0,平遥古城内,平遥,平遥 · 平遥古城内,,,,博物馆&展馆,,否,https://dimg04.c-ctrip.com/images/fd/tg/g1/M06/FC/24/CghzflW7H_iATdynAAA-FlXAIeA738.jpg,https://you.ctrip.com/sight/pingyao365/145501692.html?scene=onlinesearch,37.212358,112.191673
知识科普型,博物馆,145536346,天成亨民俗博物馆-第八展览室,0.0,0,平遥古城内,平遥,平遥 · 平遥古城内,,,,博物馆&展馆,,否,https://dimg04.c-ctrip.com/images/fd/tg/g1/M06/FC/24/CghzflW7H_iATdynAAA-FlXAIeA738.jpg,https://you.ctrip.com/sight/pingyao365/145536346.html?scene=onlinesearch,37.212304,112.191767
知识科普型,博物馆,145619275,天成亨民俗博物馆-第七展览室,0.0,0,平遥古城内,平遥,平遥 · 平遥古城内,,,,博物馆&展馆,,否,https://dimg04.c-ctrip.com/images/fd/tg/g1/M06/FC/24/CghzflW7H_iATdynAAA-FlXAIeA738.jpg,https://you.ctrip.com/sight/pingyao365/145619275.html?scene=onlinesearch,37.2123,112.191798
知识科普型,博物馆,145638825,华北第一镖局博物馆兵器展室,0.0,0,平遥古城内,平遥,平遥 · 平遥古城内,,,,,,否,https://dimg04.c-ctrip.com/images/fd/tg/g1/M06/FC/24/CghzflW7H_iATdynAAA-FlXAIeA738.jpg,https://you.ctrip.com/sight/pingyao365/145638825.html?scene=onlinesearch,37.211812,112.19249
知识科普型,博物馆,145639910,天成亨民俗博物馆-第六展览室,0.0,0,平遥古城内,平遥,平遥 · 平遥古城内,,,,博物馆&展馆,,否,https://dimg04.c-ctrip.com/images/fd/tg/g1/M06/FC/24/CghzflW7H_iATdynAAA-FlXAIeA738.jpg,https://you.ctrip.com/sight/pingyao365/145639910.html?scene=onlinesearch,37.21238,112.191816
知识科普型,博物馆,145653749,天成亨民俗博物馆-抓周展室,0.0,0,平遥古城内,平遥,平遥 · 平遥古城内,,,,,,否,https://dimg04.c-ctrip.com/images/fd/tg/g1/M06/FC/24/CghzflW7H_iATdynAAA-FlXAIeA738.jpg,https://you.ctrip.com/sight/pingyao365/145653749.html?scene=onlinesearch,37.212142,112.191952
知识科普型,博物馆,145711843,中国商会博物馆-第九室,0.0,0,平遥古城内,平遥,平遥 · 平遥古城内,,,,博物馆&展馆,,否,https://dimg04.c-ctrip.com/images/fd/tg/g1/M06/FC/24/CghzflW7H_iATdynAAA-FlXAIeA738.jpg,https://you.ctrip.com/sight/pingyao365/145711843.html?scene=onlinesearch,37.212442,112.192095
知识科普型,博物馆,145732499,中国商会博物馆-第八室,0.0,0,平遥古城内,平遥,平遥 · 平遥古城内,,,,博物馆&展馆,,否,https://dimg04.c-ctrip.com/images/fd/tg/g1/M06/FC/24/CghzflW7H_iATdynAAA-FlXAIeA738.jpg,https://you.ctrip.com/sight/pingyao365/145732499.html?scene=onlinesearch,37.212361,112.192044
知识科普型,博物馆,148791604,绛州历史博物馆,1.0,1,,新绛,新绛,,,,博物馆&展馆,,否,https://dimg04.c-ctrip.com/images/fd/tg/g1/M06/FC/24/CghzflW7H_iATdynAAA-FlXAIeA738.jpg,https://you.ctrip.com/sight/xinjiang2984/148791604.html?scene=onlinesearch,35.643301,111.232157
知识科普型,博物馆,145428711,山西博物院展馆-咨询服务,0.0,0,山西博物院/太原新城吾悦广场,太原,太原 · 山西博物院/太原新城吾悦广场,,,,,,否,https://dimg04.c-ctrip.com/images/fd/tg/g1/M06/FC/24/CghzflW7H_iATdynAAA-FlXAIeA738.jpg,https://you.ctrip.com/sight/taiyuan167/145428711.html?scene=onlinesearch,37.87148,112.538013
知识科普型,博物馆,79436595,运城市民俗博物馆,0.0,0,,万荣,万荣,,,,"博物馆, 博物馆&展馆",免费,是,https://dimg04.c-ctrip.com/images/fd/tg/g1/M08/AE/87/CghzfVW7IAOAbNKNAABCrs7mUrY425.jpg,https://you.ctrip.com/sight/wanrong1446130/5702958.html?scene=onlinesearch,35.297237,110.731048
知识科普型,博物馆,145145704,吉家窑博物馆,0.0,0,大同古城/华严寺,大同,大同 · 大同古城/华严寺,,,,博物馆&展馆,,否,https://dimg04.c-ctrip.com/images/fd/tg/g1/M06/FC/24/CghzflW7H_iATdynAAA-FlXAIeA738.jpg,https://you.ctrip.com/sight/datong275/145145704.html?scene=onlinesearch,40.106295,113.308444
知识科普型,博物馆,148457855,气球博物馆(太原店),0.0,0,柳巷/钟楼街,太原,太原 · 柳巷/钟楼街,,,,博物馆&展馆,,否,https://dimg04.c-ctrip.com/images/fd/tg/g1/M06/FC/24/CghzflW7H_iATdynAAA-FlXAIeA738.jpg,https://you.ctrip.com/sight/taiyuan167/148457855.html?scene=onlinesearch,37.870394,112.57388
知识科普型,博物馆,145378371,昔阳宋金文化博物馆,0.0,0,,昔阳,昔阳,,,,博物馆&展馆,,否,https://dimg04.c-ctrip.com/images/fd/tg/g1/M06/FC/24/CghzflW7H_iATdynAAA-FlXAIeA738.jpg,https://you.ctrip.com/sight/xiyang2988/145378371.html?scene=onlinesearch,37.615012,113.711241
知识科普型,博物馆,151785955,中国黄芪博物馆,0.0,0,矿务局商圈,大同,大同 · 矿务局商圈,,,,博物馆&展馆,,否,https://dimg04.c-ctrip.com/images/fd/tg/g1/M06/FC/24/CghzflW7H_iATdynAAA-FlXAIeA738.jpg,https://you.ctrip.com/sight/datong275/151785955.html?scene=onlinesearch,40.050124,113.19686
知识科普型,博物馆,145487277,蔚泰厚票号博物馆-学生房,0.0,0,平遥古城内,平遥,平遥 · 平遥古城内,,,,博物馆&展馆,,否,https://dimg04.c-ctrip.com/images/fd/tg/g1/M06/FC/24/CghzflW7H_iATdynAAA-FlXAIeA738.jpg,https://you.ctrip.com/sight/pingyao365/145487277.html?scene=onlinesearch,37.211434,112.190429
知识科普型,博物馆,148776107,蔚泰厚票号博物馆跑街房,0.0,0,平遥古城内,平遥,平遥 · 平遥古城内,,,,博物馆&展馆,,否,https://dimg04.c-ctrip.com/images/fd/tg/g1/M06/FC/24/CghzflW7H_iATdynAAA-FlXAIeA738.jpg,https://you.ctrip.com/sight/pingyao365/148776107.html?scene=onlinesearch,37.211416,112.190335
知识科普型,博物馆,144351131,临汾市尧都区博物馆,0.0,0,,临汾,临汾,,,,博物馆&展馆,,否,https://dimg04.c-ctrip.com/images/fd/tg/g1/M06/FC/24/CghzflW7H_iATdynAAA-FlXAIeA738.jpg,https://you.ctrip.com/sight/linfen318/144351131.html?scene=onlinesearch,36.058071,111.504388
知识科普型,博物馆,145217334,农耕博物院,0.0,0,,乡宁,乡宁,,,,,,否,https://dimg04.c-ctrip.com/images/fd/tg/g1/M06/FC/24/CghzflW7H_iATdynAAA-FlXAIeA738.jpg,https://you.ctrip.com/sight/xiangning3031/145217334.html?scene=onlinesearch,35.757389,111.022632
知识科普型,博物馆,143745992,中国民间文化艺术博物馆,0.0,0,榆次老城商圈,晋中,晋中 · 榆次老城商圈,,,,"特色展馆, 博物馆&展馆",,否,https://dimg04.c-ctrip.com/images/fd/tg/g1/M06/FC/25/CghzflW7IA-AKV6TAABByEo2c7Y435.jpg,https://you.ctrip.com/sight/jinzhong639/143745992.html?scene=onlinesearch,37.684619,112.757993
知识科普型,博物馆,145134304,襄汾县博物馆,0.0,0,,襄汾,襄汾,,,,博物馆&展馆,,否,https://dimg04.c-ctrip.com/images/fd/tg/g1/M06/FC/24/CghzflW7H_iATdynAAA-FlXAIeA738.jpg,https://you.ctrip.com/sight/xiangfen3027/145134304.html?scene=onlinesearch,35.880227,111.448304
知识科普型,博物馆,145266169,万里茶道博物馆,0.0,0,,泽州,泽州,,,,博物馆&展馆,,否,https://dimg04.c-ctrip.com/images/fd/tg/g1/M06/FC/24/CghzflW7H_iATdynAAA-FlXAIeA738.jpg,https://you.ctrip.com/sight/zezhou3032/145266169.html?scene=onlinesearch,35.672407,112.801318
知识科普型,博物馆,148776703,临汾市博物馆-临时展厅,0.0,0,,临汾,临汾,,,,,,否,https://dimg04.c-ctrip.com/images/fd/tg/g1/M06/FC/24/CghzflW7H_iATdynAAA-FlXAIeA738.jpg,https://you.ctrip.com/sight/linfen318/148776703.html?scene=onlinesearch,36.078677,111.489483
知识科普型,博物馆,145431552,大同服饰历史文化博物馆,0.0,0,东信广场商圈,大同,大同 · 东信广场商圈,,,,博物馆&展馆,,否,https://dimg04.c-ctrip.com/images/fd/tg/g1/M06/FC/24/CghzflW7H_iATdynAAA-FlXAIeA738.jpg,https://you.ctrip.com/sight/datong275/145431552.html?scene=onlinesearch,40.056586,113.302928
知识科普型,博物馆,145339084,古典家具博物馆,0.0,0,,晋中,晋中,,,,博物馆&展馆,,否,https://dimg04.c-ctrip.com/images/fd/tg/g1/M06/FC/24/CghzflW7H_iATdynAAA-FlXAIeA738.jpg,https://you.ctrip.com/sight/jinzhong639/145339084.html?scene=onlinesearch,37.397181,112.520234
知识科普型,博物馆,150267777,同兴公镖局博物馆检票处,0.0,0,,平遥,平遥,,,,,,否,https://dimg04.c-ctrip.com/images/fd/tg/g1/M06/FC/24/CghzflW7H_iATdynAAA-FlXAIeA738.jpg,https://you.ctrip.com/sight/pingyao365/150267777.html?scene=onlinesearch,37.20862,112.192361
知识科普型,博物馆,145588757,晋南石雕艺术博物馆,0.0,0,,曲沃,曲沃,,,,博物馆&展馆,,否,https://dimg04.c-ctrip.com/images/fd/tg/g1/M06/FC/24/CghzflW7H_iATdynAAA-FlXAIeA738.jpg,https://you.ctrip.com/sight/quwo1446120/145588757.html?scene=onlinesearch,35.740013,111.557824
知识科普型,博物馆,143730137,山西祁县民俗博物馆,0.0,0,乔家大院,祁县,祁县 · 乔家大院,,,,"博物馆, 博物馆&展馆",,否,https://dimg04.c-ctrip.com/images/fd/tg/g1/M08/AE/87/CghzfVW7IAOAbNKNAABCrs7mUrY425.jpg,https://you.ctrip.com/sight/qicounty3039/143730137.html?scene=onlinesearch,37.413655,112.440864
知识科普型,博物馆,145460807,阳泉市盂县仇犹博物馆,0.0,0,,盂县,盂县,,,,博物馆&展馆,,否,https://dimg04.c-ctrip.com/images/fd/tg/g1/M06/FC/24/CghzflW7H_iATdynAAA-FlXAIeA738.jpg,https://you.ctrip.com/sight/yucounty3022/145460807.html?scene=onlinesearch,38.105529,113.368159
知识科普型,博物馆,149554615,昆虫博物馆,0.0,0,,大同,大同,,,,博物馆&展馆,,否,https://dimg04.c-ctrip.com/images/fd/tg/g1/M06/FC/24/CghzflW7H_iATdynAAA-FlXAIeA738.jpg,https://you.ctrip.com/sight/datong275/149554615.html?scene=onlinesearch,40.039317,113.228252
知识科普型,博物馆,145143702,山西古典家居博物馆,5.0,1,,襄汾,襄汾,,,,博物馆&展馆,,否,https://dimg04.c-ctrip.com/images/fd/tg/g1/M06/FC/24/CghzflW7H_iATdynAAA-FlXAIeA738.jpg,https://you.ctrip.com/sight/xiangfen3027/145143702.html?scene=onlinesearch,35.77339,111.395095
知识科普型,博物馆,79436552,壶关县文物博物馆,0.0,0,,壶关,壶关,,,,"博物馆, 博物馆&展馆",,否,https://dimg04.c-ctrip.com/images/fd/tg/g1/M08/AE/87/CghzfVW7IAOAbNKNAABCrs7mUrY425.jpg,https://you.ctrip.com/sight/huguan1446117/5702954.html?scene=onlinesearch,36.11898,113.215503
知识科普型,博物馆,145318957,中堂文化博物馆,0.0,0,,介休,介休,,,,博物馆&展馆,,否,https://dimg04.c-ctrip.com/images/fd/tg/g1/M06/FC/24/CghzflW7H_iATdynAAA-FlXAIeA738.jpg,https://you.ctrip.com/sight/jiexiu2982/145318957.html?scene=onlinesearch,36.98948,111.972101
知识科普型,博物馆,145387976,介休香文化博物馆,0.0,0,,介休,介休,,,,博物馆&展馆,,否,https://dimg04.c-ctrip.com/images/fd/tg/g1/M06/FC/24/CghzflW7H_iATdynAAA-FlXAIeA738.jpg,https://you.ctrip.com/sight/jiexiu2982/145387976.html?scene=onlinesearch,37.048422,111.89622
知识科普型,博物馆,51689640,蜜蜂博物馆,0.0,0,富士康工业园/开发区/客运东站,泽州,泽州 · 富士康工业园/开发区/客运东站,,,,"博物馆, 博物馆&展馆",,否,https://dimg04.c-ctrip.com/images/fd/tg/g1/M08/AE/87/CghzfVW7IAOAbNKNAABCrs7mUrY425.jpg,https://you.ctrip.com/sight/zezhou3032/4587274.html?scene=onlinesearch,35.516102,112.904742
知识科普型,博物馆,145295252,山西平遥重工业和文化艺术博物院,0.0,0,平遥古城外,平遥,平遥 · 平遥古城外,,,,,,否,https://dimg04.c-ctrip.com/images/fd/tg/g1/M06/FC/24/CghzflW7H_iATdynAAA-FlXAIeA738.jpg,https://you.ctrip.com/sight/pingyao365/145295252.html?scene=onlinesearch,37.22029,112.186281
知识科普型,博物馆,152816022,蔚泰厚票号博物馆客厅,0.0,0,平遥古城内,平遥,平遥 · 平遥古城内,,,,博物馆&展馆,,否,https://dimg04.c-ctrip.com/images/fd/tg/g1/M06/FC/24/CghzflW7H_iATdynAAA-FlXAIeA738.jpg,https://you.ctrip.com/sight/pingyao365/152816022.html?scene=onlinesearch,37.211293,112.190358
知识科普型,博物馆,38392623,沁水县民俗博物馆,0.0,0,,沁水,沁水,,,,"博物馆, 博物馆&展馆",,否,https://dimg04.c-ctrip.com/images/fd/tg/g1/M08/AE/87/CghzfVW7IAOAbNKNAABCrs7mUrY425.jpg,https://you.ctrip.com/sight/qinshui2983/2582584.html?scene=onlinesearch,35.694566,112.193425
知识科普型,博物馆,143726211,剪纸博物馆,0.0,0,,临猗,临猗,,,,"特色展馆, 博物馆&展馆",,否,https://dimg04.c-ctrip.com/images/fd/tg/g1/M06/FC/25/CghzflW7IA-AKV6TAABByEo2c7Y435.jpg,https://you.ctrip.com/sight/linyi3013/143726211.html?scene=onlinesearch,35.148567,110.774652
知识科普型,博物馆,22866284,曙光钱币博物馆,0.0,0,,左权,左权,,,,"博物馆, 博物馆&展馆",,否,https://dimg04.c-ctrip.com/images/fd/tg/g1/M08/AE/87/CghzfVW7IAOAbNKNAABCrs7mUrY425.jpg,https://you.ctrip.com/sight/zuoquan3037/1713781.html?scene=onlinesearch,37.08738,113.38499
知识科普型,博物馆,148721991,冀村文化艺术收藏博物院,0.0,0,,汾阳,汾阳,,,,,,否,https://dimg04.c-ctrip.com/images/fd/tg/g1/M06/FC/24/CghzflW7H_iATdynAAA-FlXAIeA738.jpg,https://you.ctrip.com/sight/fenyang2053/148721991.html?scene=onlinesearch,37.331712,111.971686
知识科普型,博物馆,150175189,蔚盛长珍藏博物馆第七展室,0.0,0,,平遥,平遥,,,,博物馆&展馆,,否,https://dimg04.c-ctrip.com/images/fd/tg/g1/M06/FC/24/CghzflW7H_iATdynAAA-FlXAIeA738.jpg,https://you.ctrip.com/sight/pingyao365/150175189.html?scene=onlinesearch,37.211532,112.191505
知识科普型,博物馆,149548594,朱砂博物馆(文水店),0.0,0,,文水,文水,,,,博物馆&展馆,,否,https://dimg04.c-ctrip.com/images/fd/tg/g1/M06/FC/24/CghzflW7H_iATdynAAA-FlXAIeA738.jpg,https://you.ctrip.com/sight/wenshui3009/149548594.html?scene=onlinesearch,37.442959,112.042205
知识科普型,博物馆,152905014,蔚盛长珍博物馆第九展室,0.0,0,平遥古城内,平遥,平遥 · 平遥古城内,,,,,,否,https://dimg04.c-ctrip.com/images/fd/tg/g1/M06/FC/24/CghzflW7H_iATdynAAA-FlXAIeA738.jpg,https://you.ctrip.com/sight/pingyao365/152905014.html?scene=onlinesearch,37.211537,112.19154
知识科普型,博物馆,51780496,气味博物馆,0.0,0,,侯马,侯马,,,,"博物馆, 博物馆&展馆",,否,https://dimg04.c-ctrip.com/images/fd/tg/g1/M08/AE/87/CghzfVW7IAOAbNKNAABCrs7mUrY425.jpg,https://you.ctrip.com/sight/houma3019/4608166.html?scene=onlinesearch,35.625799,111.374386
知识科普型,博物馆,51639854,韩街民间艺术博物馆,0.0,0,,代县,代县,,,,"特色展馆, 博物馆&展馆",,否,https://dimg04.c-ctrip.com/images/fd/tg/g1/M06/FC/25/CghzflW7IA-AKV6TAABByEo2c7Y435.jpg,https://you.ctrip.com/sight/daicounty1446104/4584347.html?scene=onlinesearch,39.0442,112.982
知识科普型,博物馆,151329138,吕梁市葫芦文化博物馆柳林分馆,0.0,0,,柳林,柳林,,,,,,否,https://dimg04.c-ctrip.com/images/fd/tg/g1/M06/FC/24/CghzflW7H_iATdynAAA-FlXAIeA738.jpg,https://you.ctrip.com/sight/liulin3016/151329138.html?scene=onlinesearch,37.445233,110.915141
知识科普型,博物馆,143748352,垣曲博物馆,0.0,0,,垣曲,垣曲,,,,"博物馆, 博物馆&展馆",,否,https://dimg04.c-ctrip.com/images/fd/tg/g1/M08/AE/87/CghzfVW7IAOAbNKNAABCrs7mUrY425.jpg,https://you.ctrip.com/sight/yuanqu3018/143748352.html?scene=onlinesearch,35.30146,111.678976
知识科普型,博物馆,151334976,活体昆虫博物馆(忻州漫乐城店),0.0,0,,忻州,忻州,,,,,,否,https://dimg04.c-ctrip.com/images/fd/tg/g1/M06/FC/24/CghzflW7H_iATdynAAA-FlXAIeA738.jpg,https://you.ctrip.com/sight/xinzhou783/151334976.html?scene=onlinesearch,38.418265,112.749302
知识科普型,博物馆,145673400,岚州博物馆,0.0,0,,岚县,岚县,,,,博物馆&展馆,,否,https://dimg04.c-ctrip.com/images/fd/tg/g1/M06/FC/24/CghzflW7H_iATdynAAA-FlXAIeA738.jpg,https://you.ctrip.com/sight/lancounty1446111/145673400.html?scene=onlinesearch,38.278227,111.673002
知识科普型,博物馆,145550145,临汾失恋博物馆(工贸购物中心店),0.0,0,,临汾,临汾,,,,博物馆&展馆,,否,https://dimg04.c-ctrip.com/images/fd/tg/g1/M06/FC/24/CghzflW7H_iATdynAAA-FlXAIeA738.jpg,https://you.ctrip.com/sight/linfen318/145550145.html?scene=onlinesearch,36.089332,111.528456
知识科普型,博物馆,143731022,晋城市民俗博物馆,0.0,0,人民广场/国贸广场,晋城,晋城 · 人民广场/国贸广场,,,,"博物馆, 博物馆&展馆",,否,https://dimg04.c-ctrip.com/images/fd/tg/g1/M08/AE/87/CghzfVW7IAOAbNKNAABCrs7mUrY425.jpg,https://you.ctrip.com/sight/jincheng665/143731022.html?scene=onlinesearch,35.505303,112.833965
知识科普型,博物馆,150219939,中国广灵剪纸艺术博物馆,0.0,0,,大同,大同,,,,博物馆&展馆,,否,https://dimg04.c-ctrip.com/images/fd/tg/g1/M06/FC/24/CghzflW7H_iATdynAAA-FlXAIeA738.jpg,https://you.ctrip.com/sight/datong275/150219939.html?scene=onlinesearch,40.109912,113.376503
知识科普型,博物馆,150407541,活体昆虫博物馆(富百家时尚购物广场店),0.0,0,,阳泉,阳泉,,,,博物馆&展馆,,否,https://dimg04.c-ctrip.com/images/fd/tg/g1/M06/FC/24/CghzflW7H_iATdynAAA-FlXAIeA738.jpg,https://you.ctrip.com/sight/yangquan904/150407541.html?scene=onlinesearch,37.866321,113.588079
知识科普型,博物馆,145440666,中煤平朔博物馆,0.0,0,,朔州,朔州,,,,博物馆&展馆,,否,https://dimg04.c-ctrip.com/images/fd/tg/g1/M06/FC/24/CghzflW7H_iATdynAAA-FlXAIeA738.jpg,https://you.ctrip.com/sight/shuozhou903/145440666.html?scene=onlinesearch,39.496984,112.33226
知识科普型,博物馆,150159112,晋城市城区原本历史博物馆,0.0,0,,晋城,晋城,,,,博物馆&展馆,,否,https://dimg04.c-ctrip.com/images/fd/tg/g1/M06/FC/24/CghzflW7H_iATdynAAA-FlXAIeA738.jpg,https://you.ctrip.com/sight/jincheng665/150159112.html?scene=onlinesearch,35.510178,112.814759
知识科普型,博物馆,150420094,气球博物馆,0.0,0,,忻州,忻州,,,,博物馆&展馆,,否,https://dimg04.c-ctrip.com/images/fd/tg/g1/M06/FC/24/CghzflW7H_iATdynAAA-FlXAIeA738.jpg,https://you.ctrip.com/sight/xinzhou783/150420094.html?scene=onlinesearch,38.419047,112.747825
知识科普型,博物馆,151967106,留住山西·锡器博物馆,0.0,0,,晋中,晋中,,,,博物馆&展馆,,否,https://dimg04.c-ctrip.com/images/fd/tg/g1/M06/FC/24/CghzflW7H_iATdynAAA-FlXAIeA738.jpg,https://you.ctrip.com/sight/jinzhong639/151967106.html?scene=onlinesearch,37.452164,112.573839
知识科普型,博物馆,148563178,山西省体育博物馆游泳跳水馆,0.0,0,迎泽公园/中正天街,太原,太原 · 迎泽公园/中正天街,,,,博物馆&展馆,,否,https://dimg04.c-ctrip.com/images/0102u1200086k28vc0A5C.jpg,https://you.ctrip.com/sight/taiyuan167/148563178.html?scene=onlinesearch,37.850306,112.570341
知识科普型,博物馆,148786895,老物件博物馆,0.0,0,,襄垣,襄垣,,,,博物馆&展馆,,否,https://dimg04.c-ctrip.com/images/fd/tg/g1/M06/FC/24/CghzflW7H_iATdynAAA-FlXAIeA738.jpg,https://you.ctrip.com/sight/xiangyuan3034/148786895.html?scene=onlinesearch,36.540807,113.059504
知识科普型,博物馆,145538382,临猗县民俗博物馆,0.0,0,,临猗,临猗,,,,博物馆&展馆,,否,https://dimg04.c-ctrip.com/images/fd/tg/g1/M06/FC/24/CghzflW7H_iATdynAAA-FlXAIeA738.jpg,https://you.ctrip.com/sight/linyi3013/145538382.html?scene=onlinesearch,35.123999,110.820758
知识科普型,博物馆,145634626,民俗文化博物馆,0.0,0,,阳泉,阳泉,,,,博物馆&展馆,,否,https://dimg04.c-ctrip.com/images/fd/tg/g1/M06/FC/24/CghzflW7H_iATdynAAA-FlXAIeA738.jpg,https://you.ctrip.com/sight/yangquan904/145634626.html?scene=onlinesearch,37.851294,113.579332
知识科普型,博物馆,148744138,山西晋尧民俗博物馆,0.0,0,,绛县,绛县,,,,博物馆&展馆,,否,https://dimg04.c-ctrip.com/images/fd/tg/g1/M06/FC/24/CghzflW7H_iATdynAAA-FlXAIeA738.jpg,https://you.ctrip.com/sight/jiangcounty1446112/148744138.html?scene=onlinesearch,35.464491,111.513032
知识科普型,博物馆,145651257,山茱萸博物馆,0.0,0,,阳城,阳城,,,,博物馆&展馆,,否,https://dimg04.c-ctrip.com/images/fd/tg/g1/M06/FC/24/CghzflW7H_iATdynAAA-FlXAIeA738.jpg,https://you.ctrip.com/sight/yangcheng2076/145651257.html?scene=onlinesearch,35.325222,112.422302
知识科普型,博物馆,145670977,长治自盛李记堆锦博物馆,0.0,0,,长治,长治,,,,博物馆&展馆,,否,https://dimg04.c-ctrip.com/images/fd/tg/g1/M06/FC/24/CghzflW7H_iATdynAAA-FlXAIeA738.jpg,https://you.ctrip.com/sight/changzhi901/145670977.html?scene=onlinesearch,36.223631,113.085581
知识科普型,博物馆,143754846,联盛民俗博物馆,0.0,0,,柳林,柳林,,,,"博物馆, 博物馆&展馆",,否,https://dimg04.c-ctrip.com/images/fd/tg/g1/M08/AE/87/CghzfVW7IAOAbNKNAABCrs7mUrY425.jpg,https://you.ctrip.com/sight/liulin3016/143754846.html?scene=onlinesearch,37.196915,110.908184
知识科普型,博物馆,150273623,山西邮电博物馆,0.0,0,,晋中,晋中,,,,博物馆&展馆,,否,https://dimg04.c-ctrip.com/images/fd/tg/g1/M06/FC/24/CghzflW7H_iATdynAAA-FlXAIeA738.jpg,https://you.ctrip.com/sight/jinzhong639/150273623.html?scene=onlinesearch,37.668604,112.713067
知识科普型,博物馆,152898959,老陈醋博物馆,0.0,0,,大同,大同,,,,,,否,https://dimg04.c-ctrip.com/images/fd/tg/g1/M06/FC/24/CghzflW7H_iATdynAAA-FlXAIeA738.jpg,https://you.ctrip.com/sight/datong275/152898959.html?scene=onlinesearch,40.149979,113.348701
知识科普型,博物馆,145371491,云州区民俗文化博物馆,0.0,0,,大同,大同,,,,博物馆&展馆,,否,https://dimg04.c-ctrip.com/images/fd/tg/g1/M06/FC/24/CghzflW7H_iATdynAAA-FlXAIeA738.jpg,https://you.ctrip.com/sight/datong275/145371491.html?scene=onlinesearch,40.097839,113.667628
知识科普型,博物馆,150256441,西口文化博物馆-办公楼,0.0,0,,右玉,右玉,,,,博物馆&展馆,,否,https://dimg04.c-ctrip.com/images/fd/tg/g1/M06/FC/24/CghzflW7H_iATdynAAA-FlXAIeA738.jpg,https://you.ctrip.com/sight/youyucounty2085/150256441.html?scene=onlinesearch,39.989257,112.449675
知识科普型,博物馆,151322222,盂县博物馆,0.0,0,,盂县,盂县,,,,博物馆&展馆,,否,https://dimg04.c-ctrip.com/images/fd/tg/g1/M06/FC/24/CghzflW7H_iATdynAAA-FlXAIeA738.jpg,https://you.ctrip.com/sight/yucounty3022/151322222.html?scene=onlinesearch,38.1049,113.449619
知识科普型,博物馆,143728124,中国尧都民间艺术博物馆,0.0,0,,临汾,临汾,,,,"特色展馆, 博物馆&展馆",,否,https://dimg04.c-ctrip.com/images/fd/tg/g1/M06/FC/25/CghzflW7IA-AKV6TAABByEo2c7Y435.jpg,https://you.ctrip.com/sight/linfen318/143728124.html?scene=onlinesearch,36.055835,111.502513
知识科普型,博物馆,145315752,临汾臻美刺绣艺术博物馆,0.0,0,,临汾,临汾,,,,博物馆&展馆,,否,https://dimg04.c-ctrip.com/images/fd/tg/g1/M06/FC/24/CghzflW7H_iATdynAAA-FlXAIeA738.jpg,https://you.ctrip.com/sight/linfen318/145315752.html?scene=onlinesearch,36.103113,111.510433
知识科普型,博物馆,145462475,运城失恋展博物馆,0.0,0,南风广场,运城,运城 · 南风广场,,,,博物馆&展馆,,否,https://dimg04.c-ctrip.com/images/fd/tg/g1/M06/FC/24/CghzflW7H_iATdynAAA-FlXAIeA738.jpg,https://you.ctrip.com/sight/yuncheng397/145462475.html?scene=onlinesearch,35.029181,111.005337
知识科普型,博物馆,149975609,大嶷山农耕文化博物馆,0.0,0,,临猗,临猗,,,,博物馆&展馆,,否,https://dimg04.c-ctrip.com/images/fd/tg/g1/M06/FC/24/CghzflW7H_iATdynAAA-FlXAIeA738.jpg,https://you.ctrip.com/sight/linyi3013/149975609.html?scene=onlinesearch,35.221885,110.6544
知识科普型,博物馆,148634660,中国钱币博物馆左权红色金融教育馆,0.0,0,,左权,左权,,,,博物馆&展馆,,否,https://dimg04.c-ctrip.com/images/fd/tg/g1/M06/FC/24/CghzflW7H_iATdynAAA-FlXAIeA738.jpg,https://you.ctrip.com/sight/zuoquan3037/148634660.html?scene=onlinesearch,36.855789,113.469436
知识科普型,博物馆,151263982,金砂陶瓷博物馆,0.0,0,,晋城,晋城,,,,博物馆&展馆,,否,https://dimg04.c-ctrip.com/images/fd/tg/g1/M06/FC/24/CghzflW7H_iATdynAAA-FlXAIeA738.jpg,https://you.ctrip.com/sight/jincheng665/151263982.html?scene=onlinesearch,35.552457,112.840997
知识科普型,博物馆,151296765,襄垣县瓷谜文化博物馆,0.0,0,,襄垣,襄垣,,,,博物馆&展馆,,否,https://dimg04.c-ctrip.com/images/fd/tg/g1/M06/FC/24/CghzflW7H_iATdynAAA-FlXAIeA738.jpg,https://you.ctrip.com/sight/xiangyuan3034/151296765.html?scene=onlinesearch,36.54008,113.054908
知识科普型,博物馆,152905667,朱砂博物馆,0.0,0,柳巷/钟楼街,太原,太原 · 柳巷/钟楼街,,,,博物馆&展馆,,否,https://dimg04.c-ctrip.com/images/fd/tg/g1/M06/FC/24/CghzflW7H_iATdynAAA-FlXAIeA738.jpg,https://you.ctrip.com/sight/taiyuan167/152905667.html?scene=onlinesearch,37.8749,112.579166
知识科普型,博物馆,145497890,功能蛋白博物馆,0.0,0,,太原,太原,,,,博物馆&展馆,,否,https://dimg04.c-ctrip.com/images/fd/tg/g1/M06/FC/24/CghzflW7H_iATdynAAA-FlXAIeA738.jpg,https://you.ctrip.com/sight/taiyuan167/145497890.html?scene=onlinesearch,37.720685,112.614396
知识科普型,博物馆,145220578,太原老丰文化博物馆,0.0,0,小店综改区,太原,太原 · 小店综改区,,,,博物馆&展馆,,否,https://dimg04.c-ctrip.com/images/fd/tg/g1/M06/FC/24/CghzflW7H_iATdynAAA-FlXAIeA738.jpg,https://you.ctrip.com/sight/taiyuan167/145220578.html?scene=onlinesearch,37.728546,112.597123
知识科普型,博物馆,151323634,绘画(山西博物院),0.0,0,山西博物院/太原新城吾悦广场,太原,太原 · 山西博物院/太原新城吾悦广场,,,,,,否,https://dimg04.c-ctrip.com/images/fd/tg/g1/M06/FC/24/CghzflW7H_iATdynAAA-FlXAIeA738.jpg,https://you.ctrip.com/sight/taiyuan167/151323634.html?scene=onlinesearch,37.871791,112.537553
知识科普型,博物馆,152792184,能吃饭的博物馆,0.0,0,榆次火车站商圈,晋中,晋中 · 榆次火车站商圈,,,,博物馆&展馆,,否,https://dimg04.c-ctrip.com/images/fd/tg/g1/M06/FC/24/CghzflW7H_iATdynAAA-FlXAIeA738.jpg,https://you.ctrip.com/sight/jinzhong639/152792184.html?scene=onlinesearch,37.709688,112.741878
知识科普型,博物馆,151305867,老茶博物馆,0.0,0,大同古城/华严寺,大同,大同 · 大同古城/华严寺,,,,博物馆&展馆,,否,https://dimg04.c-ctrip.com/images/fd/tg/g1/M06/FC/24/CghzflW7H_iATdynAAA-FlXAIeA738.jpg,https://you.ctrip.com/sight/datong275/151305867.html?scene=onlinesearch,40.081903,113.312039
知识科普型,博物馆,153127572,铁佛寺博物馆,0.0,0,,临汾,临汾,,,,,,否,https://dimg04.c-ctrip.com/images/fd/tg/g1/M06/FC/24/CghzflW7H_iATdynAAA-FlXAIeA738.jpg,https://you.ctrip.com/sight/linfen318/153127572.html?scene=onlinesearch,36.08756,111.515216
知识科普型,博物馆,145143489,运城峨嵋果品博物院,0.0,0,,临猗,临猗,,,,,,否,https://dimg04.c-ctrip.com/images/fd/tg/g1/M06/FC/24/CghzflW7H_iATdynAAA-FlXAIeA738.jpg,https://you.ctrip.com/sight/linyi3013/145143489.html?scene=onlinesearch,35.189006,110.759426
知识科普型,博物馆,145365436,襄汾县老车收藏博物馆,0.0,0,,襄汾,襄汾,,,,博物馆&展馆,,否,https://dimg04.c-ctrip.com/images/fd/tg/g1/M06/FC/24/CghzflW7H_iATdynAAA-FlXAIeA738.jpg,https://you.ctrip.com/sight/xiangfen3027/145365436.html?scene=onlinesearch,35.933153,111.447713
知识科普型,博物馆,150373861,临猗县博物馆,0.0,0,,临猗,临猗,,,,博物馆&展馆,,否,https://dimg04.c-ctrip.com/images/fd/tg/g1/M06/FC/24/CghzflW7H_iATdynAAA-FlXAIeA738.jpg,https://you.ctrip.com/sight/linyi3013/150373861.html?scene=onlinesearch,35.137898,110.806083
知识科普型,博物馆,152825347,昆虫博物馆,0.0,0,,高平,高平,,,,博物馆&展馆,,否,https://dimg04.c-ctrip.com/images/fd/tg/g1/M06/FC/24/CghzflW7H_iATdynAAA-FlXAIeA738.jpg,https://you.ctrip.com/sight/gaoping3003/152825347.html?scene=onlinesearch,35.799354,112.935562
知识科普型,博物馆,152889511,皇城八八宴博物馆,0.0,0,皇城相府景区,阳城,阳城 · 皇城相府景区,,,,,,否,https://dimg04.c-ctrip.com/images/fd/tg/g1/M06/FC/24/CghzflW7H_iATdynAAA-FlXAIeA738.jpg,https://you.ctrip.com/sight/yangcheng2076/152889511.html?scene=onlinesearch,35.521463,112.58929
知识科普型,博物馆,148729572,平顺县北社古典家具博物馆,0.0,0,,平顺,平顺,,,,博物馆&展馆,,否,https://dimg04.c-ctrip.com/images/fd/tg/g1/M06/FC/24/CghzflW7H_iATdynAAA-FlXAIeA738.jpg,https://you.ctrip.com/sight/pingshun1446132/148729572.html?scene=onlinesearch,36.259788,113.312059
知识科普型,博物馆,150391914,任帝艺术博物馆,0.0,0,,长治,长治,,,,博物馆&展馆,,否,https://dimg04.c-ctrip.com/images/fd/tg/g1/M06/FC/24/CghzflW7H_iATdynAAA-FlXAIeA738.jpg,https://you.ctrip.com/sight/changzhi901/150391914.html?scene=onlinesearch,36.257714,113.079551
知识科普型,博物馆,151301672,美联高端红木博物馆(安邑西路店),0.0,0,南风广场,运城,运城 · 南风广场,,,,博物馆&展馆,,否,https://dimg04.c-ctrip.com/images/fd/tg/g1/M06/FC/24/CghzflW7H_iATdynAAA-FlXAIeA738.jpg,https://you.ctrip.com/sight/yuncheng397/151301672.html?scene=onlinesearch,35.076556,111.04001
知识科普型,博物馆,151303237,梧桐味觉博物馆,0.0,0,,临汾,临汾,,,,,,否,https://dimg04.c-ctrip.com/images/fd/tg/g1/M06/FC/24/CghzflW7H_iATdynAAA-FlXAIeA738.jpg,https://you.ctrip.com/sight/linfen318/151303237.html?scene=onlinesearch,36.08617,111.530834
知识科普型,博物馆,151332438,汾恋爱博物馆(工贸购物中心店),0.0,0,,临汾,临汾,,,,,,否,https://dimg04.c-ctrip.com/images/fd/tg/g1/M06/FC/24/CghzflW7H_iATdynAAA-FlXAIeA738.jpg,https://you.ctrip.com/sight/linfen318/151332438.html?scene=onlinesearch,36.089545,111.528911
知识科普型,博物馆,152795148,山西省运城市垣曲县皋落乡农耕文化博物馆,0.0,0,,垣曲,垣曲,,,,博物馆&展馆,,否,https://dimg04.c-ctrip.com/images/fd/tg/g1/M06/FC/24/CghzflW7H_iATdynAAA-FlXAIeA738.jpg,https://you.ctrip.com/sight/yuanqu3018/152795148.html?scene=onlinesearch,35.277204,111.706827
知识科普型,博物馆,153127720,山西省雕刻技艺博物馆,0.0,0,,代县,代县,,,,,,否,https://dimg04.c-ctrip.com/images/fd/tg/g1/M06/FC/24/CghzflW7H_iATdynAAA-FlXAIeA738.jpg,https://you.ctrip.com/sight/daicounty1446104/153127720.html?scene=onlinesearch,39.045503,112.983829
知识科普型,博物馆,79436623,长治通顺和广播文化博物馆,5.0,1,,长治,长治,,,,"博物馆, 博物馆&展馆",免费,是,https://dimg04.c-ctrip.com/images/0103912000cbxg98bB044.jpg,https://you.ctrip.com/sight/changzhi901/5702968.html?scene=onlinesearch,36.209242,113.136174
知识科普型,博物馆,79436624,永济百佛阁博物馆,0.0,0,,永济,永济,,,,"博物馆, 博物馆&展馆",免费,是,https://dimg04.c-ctrip.com/images/0104612000ccasqmeB74C.jpg,https://you.ctrip.com/sight/yongji1772/5702969.html?scene=onlinesearch,34.876674,110.538666
知识科普型,博物馆,79438095,上党区文物博物馆,0.0,0,,长治,长治,,,,"博物馆, 博物馆&展馆",,否,https://dimg04.c-ctrip.com/images/fd/tg/g1/M08/AE/87/CghzfVW7IAOAbNKNAABCrs7mUrY425.jpg,https://you.ctrip.com/sight/changzhi901/5704436.html?scene=onlinesearch,36.0497,113.054693
知识科普型,博物馆,39422923,永济博物馆-民俗规划展,5.0,2,,永济,永济,,,,"特色展馆, 展览",,否,https://dimg04.c-ctrip.com/images/0103t12000cgx3ctbDCAC.jpg,https://you.ctrip.com/sight/yongji1772/3603184.html?scene=onlinesearch,34.870832,110.455462
知识科普型,博物馆,145517779,灵动非洲自然博物馆,0.0,0,,太原,太原,,,,博物馆&展馆,,否,https://dimg04.c-ctrip.com/images/0106412000nuezwelAA91.jpg,https://you.ctrip.com/sight/taiyuan167/145517779.html?scene=onlinesearch,37.997337,112.468847
知识科普型,博物馆,145619405,山西传媒博物馆,0.0,0,山西大学城商圈,晋中,晋中 · 山西大学城商圈,,,,博物馆&展馆,,否,https://dimg04.c-ctrip.com/images/0HJ6b12000g8oyynjFC99.jpg,https://you.ctrip.com/sight/jinzhong639/145619405.html?scene=onlinesearch,37.744957,112.739773
知识科普型,博物馆,145709698,龙山石窟博物馆,0.0,0,,太原,太原,,,,博物馆&展馆,,否,https://dimg04.c-ctrip.com/images/fd/tg/g1/M06/FC/24/CghzflW7H_iATdynAAA-FlXAIeA738.jpg,https://you.ctrip.com/sight/taiyuan167/145709698.html?scene=onlinesearch,37.738699,112.450205
知识科普型,博物馆,148566742,大寨博物馆,0.0,0,,昔阳,昔阳,,,,博物馆&展馆,,否,https://dimg04.c-ctrip.com/images/fd/tg/g1/M06/FC/24/CghzflW7H_iATdynAAA-FlXAIeA738.jpg,https://you.ctrip.com/sight/xiyang2988/148566742.html?scene=onlinesearch,37.576236,113.726337
知识科普型,博物馆,149985728,质朴的北方窑瓷器(山西博物院),0.0,0,山西博物院/太原新城吾悦广场,太原,太原 · 山西博物院/太原新城吾悦广场,,,,,,否,https://dimg04.c-ctrip.com/images/0105u12000ijilwns1281.jpg,https://you.ctrip.com/sight/taiyuan167/149985728.html?scene=onlinesearch,37.871898,112.537987
知识科普型,博物馆,149985978,襄汾遗址陶寺博物馆观象饮时(襄汾陶寺遗址博物馆),0.0,0,,襄汾,襄汾,,,,博物馆&展馆,,否,https://dimg04.c-ctrip.com/images/fd/tg/g1/M06/FC/24/CghzflW7H_iATdynAAA-FlXAIeA738.jpg,https://you.ctrip.com/sight/xiangfen3027/149985978.html?scene=onlinesearch,35.906916,111.500835
知识科普型,博物馆,151256377,活体昆虫博物馆(柳巷店),0.0,0,柳巷/钟楼街,太原,太原 · 柳巷/钟楼街,,,,博物馆&展馆,,否,https://dimg04.c-ctrip.com/images/0100512000nuswbs3B46B.jpg,https://you.ctrip.com/sight/taiyuan167/151256377.html?scene=onlinesearch,37.871485,112.567766
知识科普型,博物馆,152791489,蔚泰厚票号博物馆更房,0.0,0,平遥古城内,平遥,平遥 · 平遥古城内,,,,博物馆&展馆,,否,https://dimg04.c-ctrip.com/images/fd/tg/g1/M06/FC/24/CghzflW7H_iATdynAAA-FlXAIeA738.jpg,https://you.ctrip.com/sight/pingyao365/152791489.html?scene=onlinesearch,37.211085,112.190554
知识科普型,博物馆,152905346,活体昆虫博物馆(魏家峪兔小七农场店),0.0,0,,阳泉,阳泉,,,,博物馆&展馆,,否,https://dimg04.c-ctrip.com/images/fd/tg/g1/M06/FC/24/CghzflW7H_iATdynAAA-FlXAIeA738.jpg,https://you.ctrip.com/sight/yangquan904/152905346.html?scene=onlinesearch,37.905375,113.561299
知识科普型,博物馆,148559701,广盛原中医药文化博物馆,0.0,0,大同古城/华严寺,大同,大同 · 大同古城/华严寺,,,,博物馆&展馆,,否,https://dimg04.c-ctrip.com/images/1me0w12000fgicj2dC640.jpg,https://you.ctrip.com/sight/datong275/148559701.html?scene=onlinesearch,40.097424,113.310662
知识科普型,博物馆,152798302,浮山县剪纸博物馆,0.0,0,,浮山,浮山,,,,博物馆&展馆,,否,https://dimg04.c-ctrip.com/images/fd/tg/g1/M06/FC/24/CghzflW7H_iATdynAAA-FlXAIeA738.jpg,https://you.ctrip.com/sight/fushan3000/152798302.html?scene=onlinesearch,35.975974,111.863656
知识科普型,博物馆,38385416,二一三奇石博物馆,0.0,0,,临汾,临汾,,,,"博物馆, 博物馆&展馆",,否,https://dimg04.c-ctrip.com/images/0104f12000cmajdi27463.jpg,https://you.ctrip.com/sight/linfen318/2575377.html?scene=onlinesearch,36.093325,111.533799
知识科普型,博物馆,145214625,山西博物院-玉韫华夏展厅,0.0,0,山西博物院/太原新城吾悦广场,太原,太原 · 山西博物院/太原新城吾悦广场,,,,,免费,是,https://dimg04.c-ctrip.com/images/0105y12000iyf32n26B60.jpg,https://you.ctrip.com/sight/taiyuan167/145214625.html?scene=onlinesearch,37.87143,112.537658
知识科普型,博物馆,145473645,晋华1919博物馆,0.0,0,榆次火车站商圈,晋中,晋中 · 榆次火车站商圈,,,,博物馆&展馆,,否,https://dimg04.c-ctrip.com/images/1me2o12000g1equg4C423.jpg,https://you.ctrip.com/sight/jinzhong639/145473645.html?scene=onlinesearch,37.691286,112.752292
知识科普型,博物馆,145512627,中国商会博物馆-第六室,0.0,0,平遥古城内,平遥,平遥 · 平遥古城内,,,,博物馆&展馆,,否,https://dimg04.c-ctrip.com/images/0HJ6512000g91fggr5E45.jpg,https://you.ctrip.com/sight/pingyao365/145512627.html?scene=onlinesearch,37.212191,112.192207
知识科普型,博物馆,145565584,晋商珠算博物馆,0.0,0,乔家大院,祁县,祁县 · 乔家大院,,,,博物馆&展馆,,否,https://dimg04.c-ctrip.com/images/fd/tg/g1/M06/FC/24/CghzflW7H_iATdynAAA-FlXAIeA738.jpg,https://you.ctrip.com/sight/qicounty3039/145565584.html?scene=onlinesearch,37.412822,112.442194
知识科普型,博物馆,150215490,崛围山博物馆,0.0,0,,太原,太原,,,,博物馆&展馆,免费,是,https://dimg04.c-ctrip.com/images/0104112000nuf1w098E78.jpg,https://you.ctrip.com/sight/taiyuan167/150215490.html?scene=onlinesearch,38.017226,112.446357
知识科普型,博物馆,152818904,武术传承博物馆,0.0,0,,长治,长治,,,,博物馆&展馆,,否,https://dimg04.c-ctrip.com/images/fd/tg/g1/M06/FC/24/CghzflW7H_iATdynAAA-FlXAIeA738.jpg,https://you.ctrip.com/sight/changzhi901/152818904.html?scene=onlinesearch,36.225428,113.130615
知识科普型,博物馆,24652550,山西运城新民博物馆,3.5,5,,运城,运城,,,,"博物馆, 博物馆&展馆",,否,https://dimg04.c-ctrip.com/images/0101l12000cmuk4qpC9D0.jpg,https://you.ctrip.com/sight/yuncheng397/1833300.html?scene=onlinesearch,35.008812,110.987186
知识科普型,博物馆,38991680,临猗县博物馆,4.5,2,,临猗,临猗,,,,"博物馆, 博物馆&展馆",,否,https://dimg04.c-ctrip.com/images/10091e000001frcpp14DE.png,https://you.ctrip.com/sight/linyi3013/3176041.html?scene=onlinesearch,35.151752,110.781295
知识科普型,博物馆,145152331,运城市盐湖区博物馆,0.0,0,南风广场,运城,运城 · 南风广场,,,,博物馆&展馆,,否,https://dimg04.c-ctrip.com/images/fd/tg/g1/M06/FC/24/CghzflW7H_iATdynAAA-FlXAIeA738.jpg,https://you.ctrip.com/sight/yuncheng397/145152331.html?scene=onlinesearch,35.02147,111.010782
知识科普型,博物馆,149649709,山西金融历史文化博物馆,0.0,0,柳巷/钟楼街,太原,太原 · 柳巷/钟楼街,,,,博物馆&展馆,,否,https://dimg04.c-ctrip.com/images/0100612000kdwwyk9ACC6.jpg,https://you.ctrip.com/sight/taiyuan167/149649709.html?scene=onlinesearch,37.877611,112.570004
知识科普型,博物馆,79438084,山西晋韵砖雕艺术博物馆,0.0,0,,清徐,清徐,,,,"博物馆, 博物馆&展馆",免费,是,https://dimg04.c-ctrip.com/images/0105p12000bvqkeym6204.jpg,https://you.ctrip.com/sight/qingxu1446125/5704424.html?scene=onlinesearch,37.571128,112.529651
知识科普型,博物馆,152836767,国家级非物质文化遗产王氏妇科博物馆,0.0,0,平遥古城外,平遥,平遥 · 平遥古城外,,,,博物馆&展馆,,否,https://dimg04.c-ctrip.com/images/fd/tg/g1/M06/FC/24/CghzflW7H_iATdynAAA-FlXAIeA738.jpg,https://you.ctrip.com/sight/pingyao365/152836767.html?scene=onlinesearch,37.185885,112.175977
知识科普型,博物馆,68427229,告别博物馆太原失恋展(柳巷店),3.0,2,柳巷/钟楼街,太原,太原 · 柳巷/钟楼街,,,,"特色展馆, 博物馆&展馆",,否,https://dimg04.c-ctrip.com/images/01A2x120008qcvd1sE709.jpg,https://you.ctrip.com/sight/taiyuan167/5599380.html?scene=onlinesearch,37.870246,112.574025
知识科普型,博物馆,145712773,中国商会博物馆-第十一室,0.0,0,平遥古城内,平遥,平遥 · 平遥古城内,,,,博物馆&展馆,,否,https://dimg04.c-ctrip.com/images/0HJ0z12000g2v9ddu97A8.jpg,https://you.ctrip.com/sight/pingyao365/145712773.html?scene=onlinesearch,37.212374,112.192165
知识科普型,博物馆,151248120,代县博物馆,0.0,0,,代县,代县,,,,,,否,https://dimg04.c-ctrip.com/images/fd/tg/g1/M06/FC/24/CghzflW7H_iATdynAAA-FlXAIeA738.jpg,https://you.ctrip.com/sight/daicounty1446104/151248120.html?scene=onlinesearch,39.066653,112.962144
知识科普型,博物馆,143746920,中国社火博物馆,0.0,0,开发区商圈,晋中,晋中 · 开发区商圈,,,,"博物馆, 博物馆&展馆",,否,https://dimg04.c-ctrip.com/images/fd/tg/g1/M08/AE/87/CghzfVW7IAOAbNKNAABCrs7mUrY425.jpg,https://you.ctrip.com/sight/jinzhong639/143746920.html?scene=onlinesearch,37.699126,112.719798
知识科普型,博物馆,145579080,国藏博物馆,0.0,0,,忻州,忻州,,,,博物馆&展馆,,否,https://dimg04.c-ctrip.com/images/fd/tg/g1/M06/FC/24/CghzflW7H_iATdynAAA-FlXAIeA738.jpg,https://you.ctrip.com/sight/xinzhou783/145579080.html?scene=onlinesearch,38.442184,112.743187
知识科普型,博物馆,38387947,孝义市皮影木偶艺术博物馆,0.0,0,,孝义,孝义,,,,"特色展馆, 博物馆&展馆",,否,https://dimg04.c-ctrip.com/images/0104712000a4ozxb2CC71.png,https://you.ctrip.com/sight/xiaoyi1144/2577908.html?scene=onlinesearch,37.145932,111.804692
知识科普型,博物馆,79438031,霆钰博物馆,4.5,4,柳巷/钟楼街,太原,太原 · 柳巷/钟楼街,,,,"博物馆, 博物馆&展馆",免费,是,https://dimg04.c-ctrip.com/images/0105c12000bz4nioh53FF.jpg,https://you.ctrip.com/sight/taiyuan167/5704423.html?scene=onlinesearch,37.870798,112.570764
知识科普型,博物馆,134048018,喵-博物馆,0.0,0,人民广场/国贸广场,晋城,晋城 · 人民广场/国贸广场,,,,"特色展馆, 博物馆",,否,https://dimg04.c-ctrip.com/images/0106r120009ik08hq0A26.jpg,https://you.ctrip.com/sight/jincheng665/134048018.html?scene=onlinesearch,35.502556,112.859763
知识科普型,博物馆,145259720,汾酒老酒博物馆,0.0,0,,孝义,孝义,,,,博物馆&展馆,,否,https://dimg04.c-ctrip.com/images/0HJ4b12000g8zerap5A8A.jpg,https://you.ctrip.com/sight/xiaoyi1144/145259720.html?scene=onlinesearch,37.140645,111.80966
知识科普型,博物馆,51687439,长治市地质博物馆,0.0,0,,长治,长治,,,,"博物馆, 博物馆&展馆",,否,https://dimg04.c-ctrip.com/images/fd/tg/g1/M08/AE/87/CghzfVW7IAOAbNKNAABCrs7mUrY425.jpg,https://you.ctrip.com/sight/changzhi901/4593971.html?scene=onlinesearch,36.203764,113.098925
知识科普型,博物馆,67627225,大同失恋博物馆—不可思议发泄屋(联合馆),5.0,1,大同古城/华严寺,大同,大同 · 大同古城/华严寺,,,,"特色展馆, 博物馆&展馆",,否,https://dimg04.c-ctrip.com/images/0102a120008w9vsnjAF18.jpg,https://you.ctrip.com/sight/datong275/5591385.html?scene=onlinesearch,40.077665,113.308443
知识科普型,博物馆,145536707,1947城市记忆博物馆,0.0,0,,阳泉,阳泉,,,,博物馆&展馆,,否,https://dimg04.c-ctrip.com/images/fd/tg/g1/M06/FC/24/CghzflW7H_iATdynAAA-FlXAIeA738.jpg,https://you.ctrip.com/sight/yangquan904/145536707.html?scene=onlinesearch,37.852944,113.598202
知识科普型,博物馆,51822642,临汾奇石文化博物馆,0.0,0,,临汾,临汾,,,,"博物馆, 博物馆&展馆",,否,https://dimg04.c-ctrip.com/images/0103r120009u0qvmx31C8.jpg,https://you.ctrip.com/sight/linfen318/4613739.html?scene=onlinesearch,36.103286,111.510046
知识科普型,博物馆,148571819,山西当代赏石艺术博物馆,5.0,1,太原古县城/晋祠,太原,太原 · 太原古县城/晋祠,,,,博物馆&展馆,门票,否,https://dimg04.c-ctrip.com/images/0HJ5912000g31uoauF92C.jpg,https://you.ctrip.com/sight/taiyuan167/148571819.html?scene=onlinesearch,37.732734,112.498612
知识科普型,博物馆,51733112,长治市城区非遗博物馆,0.0,0,,长治,长治,,,,"博物馆, 博物馆&展馆",,否,https://dimg04.c-ctrip.com/images/0HJ5c12000g8utxlr4308.jpg,https://you.ctrip.com/sight/changzhi901/4596542.html?scene=onlinesearch,36.184919,113.122036
知识科普型,博物馆,145155585,忻州紫庐茶具博物馆,0.0,0,忻州古城,忻州,忻州 · 忻州古城,,,,博物馆&展馆,,否,https://dimg04.c-ctrip.com/images/0HJ0p12000g33vhhj3F57.jpg,https://you.ctrip.com/sight/xinzhou783/145155585.html?scene=onlinesearch,38.406314,112.761864
知识科普型,博物馆,145437582,晋文公艺术博物馆,0.0,0,太原古县城/晋祠,太原,太原 · 太原古县城/晋祠,,,,博物馆&展馆,,否,https://dimg04.c-ctrip.com/images/0103512000nticlk3F52D.jpg,https://you.ctrip.com/sight/taiyuan167/145437582.html?scene=onlinesearch,37.710008,112.452187
知识科普型,博物馆,79438032,山西慧光古灯博物馆,0.0,0,,太原,太原,,,,"博物馆, 博物馆&展馆",免费,是,https://dimg04.c-ctrip.com/images/0102812000bj1khrz15A5.jpg,https://you.ctrip.com/sight/taiyuan167/5704434.html?scene=onlinesearch,37.783106,112.453066
知识科普型,博物馆,111989454,山西博物院文创空间,0.0,0,万象城/博物馆,太原,太原 · 万象城/博物馆,,,,,,否,https://dimg04.c-ctrip.com/images/1me1312000b78r14w703E.jpg,https://you.ctrip.com/sight/taiyuan167/111989454.html?scene=onlinesearch,37.813599,112.5345
知识科普型,博物馆,145282438,大同长城博物馆,0.0,0,,天镇,天镇,,,,博物馆&展馆,,否,https://dimg04.c-ctrip.com/images/1me0412000lfr2rd8D214.jpg,https://you.ctrip.com/sight/tianzhen3001/145282438.html?scene=onlinesearch,40.550431,114.118128
知识科普型,博物馆,79438093,山西省体育博物馆,4.6,18,迎泽公园/中正天街,太原,太原 · 迎泽公园/中正天街,,,,"博物馆, 博物馆&展馆",免费,是,https://dimg04.c-ctrip.com/images/0104212000asjkoawDF84.jpg,https://you.ctrip.com/sight/taiyuan167/5704417.html?scene=onlinesearch,37.851399,112.569016
知识科普型,博物馆,145864953,中国煤炭博物馆煤海探秘游-售票处,0.0,0,山西博物院/太原新城吾悦广场,太原,太原 · 山西博物院/太原新城吾悦广场,,,,博物馆&展馆,,否,https://dimg04.c-ctrip.com/images/0102u1200086k28vc0A5C.jpg,https://you.ctrip.com/sight/taiyuan167/145864953.html?scene=onlinesearch,37.863169,112.534963
知识科普型,博物馆,145315148,蔚泰厚票号博物馆-西客房,0.0,0,平遥古城内,平遥,平遥 · 平遥古城内,,,,博物馆&展馆,,否,https://dimg04.c-ctrip.com/images/0HJ5w12000g71equwCD19.jpg,https://you.ctrip.com/sight/pingyao365/145315148.html?scene=onlinesearch,37.211112,112.190398
知识科普型,博物馆,24652073,平遥国际摄影博物馆,0.0,0,平遥古城内,平遥,平遥 · 平遥古城内,,,观赏平遥古城独特的风貌,"博物馆, 博物馆&展馆",,否,https://dimg04.c-ctrip.com/images/100j0w000000kdtsnEA97.jpg,https://you.ctrip.com/sight/pingyao365/1832884.html?scene=onlinesearch,37.208163,112.196084
知识科普型,博物馆,144105243,平遥文庙学宫博物馆,0.0,0,平遥古城内,平遥,平遥 · 平遥古城内,,,,博物馆&展馆,,否,https://dimg04.c-ctrip.com/images/0102312000hj7wmpo75BF.jpg,https://you.ctrip.com/sight/pingyao365/144105243.html?scene=onlinesearch,37.207378,112.196685
知识科普型,博物馆,39055455,度量衡博物馆,1.0,1,,祁县,祁县,,,,"博物馆, 博物馆&展馆",,否,https://dimg04.c-ctrip.com/images/fd/tg/g1/M08/AE/87/CghzfVW7IAOAbNKNAABCrs7mUrY425.jpg,https://you.ctrip.com/sight/qicounty3039/3239216.html?scene=onlinesearch,37.352565,112.308709
知识科普型,博物馆,51804491,良心博物馆,0.0,0,,昔阳,昔阳,,,,"博物馆, 博物馆&展馆",,否,https://dimg04.c-ctrip.com/images/0HJ1812000g8gl9phE0DB.jpg,https://you.ctrip.com/sight/xiyang2988/4611271.html?scene=onlinesearch,37.620177,113.714514
知识科普型,博物馆,144105084,西华兴漆文化博物馆,0.0,0,平遥古城内,平遥,平遥 · 平遥古城内,,,,博物馆&展馆,,否,https://dimg04.c-ctrip.com/images/fd/tg/g1/M06/FC/24/CghzflW7H_iATdynAAA-FlXAIeA738.jpg,https://you.ctrip.com/sight/pingyao365/144105084.html?scene=onlinesearch,37.207873,112.190534
知识科普型,博物馆,145137500,乔氏珐华博物馆,0.0,0,,阳城,阳城,,,,博物馆&展馆,,否,https://dimg04.c-ctrip.com/images/fd/tg/g1/M06/FC/24/CghzflW7H_iATdynAAA-FlXAIeA738.jpg,https://you.ctrip.com/sight/yangcheng2076/145137500.html?scene=onlinesearch,35.506859,112.339113
知识科普型,博物馆,145140242,春雷民俗博物馆,0.0,0,,中阳,中阳,,,,博物馆&展馆,,否,https://dimg04.c-ctrip.com/images/fd/tg/g1/M06/FC/24/CghzflW7H_iATdynAAA-FlXAIeA738.jpg,https://you.ctrip.com/sight/zhongyang3035/145140242.html?scene=onlinesearch,37.354146,111.191992
知识科普型,博物馆,145145998,晋剧博物馆,0.0,0,,晋中,晋中,,,,博物馆&展馆,,否,https://dimg04.c-ctrip.com/images/fd/tg/g1/M06/FC/24/CghzflW7H_iATdynAAA-FlXAIeA738.jpg,https://you.ctrip.com/sight/jinzhong639/145145998.html?scene=onlinesearch,37.432688,112.565748
知识科普型,博物馆,145152146,阿庆博物馆,0.0,0,,河曲,河曲,,,,博物馆&展馆,,否,https://dimg04.c-ctrip.com/images/fd/tg/g1/M06/FC/24/CghzflW7H_iATdynAAA-FlXAIeA738.jpg,https://you.ctrip.com/sight/hequ1446123/145152146.html?scene=onlinesearch,39.390674,111.140614
知识科普型,博物馆,145153859,青龙镇民间艺术博物馆,0.0,0,,阳曲,阳曲,,,,博物馆&展馆,,否,https://dimg04.c-ctrip.com/images/fd/tg/g1/M06/FC/24/CghzflW7H_iATdynAAA-FlXAIeA738.jpg,https://you.ctrip.com/sight/yangqu2999/145153859.html?scene=onlinesearch,38.030993,112.637977
知识科普型,博物馆,145155595,农耕文化博物馆,0.0,0,,阳曲,阳曲,,,,博物馆&展馆,,否,https://dimg04.c-ctrip.com/images/0106812000nvp8jh88709.jpg,https://you.ctrip.com/sight/yangqu2999/145155595.html?scene=onlinesearch,38.030423,112.637925
知识科普型,博物馆,145155876,中国商会博物馆-第三室,0.0,0,平遥古城内,平遥,平遥 · 平遥古城内,,,,博物馆&展馆,,否,https://dimg04.c-ctrip.com/images/fd/tg/g1/M06/FC/24/CghzflW7H_iATdynAAA-FlXAIeA738.jpg,https://you.ctrip.com/sight/pingyao365/145155876.html?scene=onlinesearch,37.212084,112.192107
知识科普型,博物馆,145174037,古代科举文化博物馆,0.0,0,,沁水,沁水,,,,博物馆&展馆,,否,https://dimg04.c-ctrip.com/images/fd/tg/g1/M06/FC/24/CghzflW7H_iATdynAAA-FlXAIeA738.jpg,https://you.ctrip.com/sight/qinshui2983/145174037.html?scene=onlinesearch,35.573109,112.60128
知识科普型,博物馆,145194769,太原古战事博物馆,0.0,0,,太原,太原,,,,博物馆&展馆,,否,https://dimg04.c-ctrip.com/images/fd/tg/g1/M06/FC/24/CghzflW7H_iATdynAAA-FlXAIeA738.jpg,https://you.ctrip.com/sight/taiyuan167/145194769.html?scene=onlinesearch,37.883825,112.724441
知识科普型,博物馆,145206097,中国商会博物馆-第五室,0.0,0,平遥古城内,平遥,平遥 · 平遥古城内,,,,博物馆&展馆,,否,https://dimg04.c-ctrip.com/images/fd/tg/g1/M06/FC/24/CghzflW7H_iATdynAAA-FlXAIeA738.jpg,https://you.ctrip.com/sight/pingyao365/145206097.html?scene=onlinesearch,37.212184,112.192122
知识科普型,博物馆,145207627,上党戏剧博物馆,0.0,0,,长治,长治,,,,博物馆&展馆,,否,https://dimg04.c-ctrip.com/images/0HJ1o12000g6n5l8gCC69.jpg,https://you.ctrip.com/sight/changzhi901/145207627.html?scene=onlinesearch,35.994002,113.109588
知识科普型,博物馆,145215339,时代生活博物馆,0.0,0,,阳曲,阳曲,,,,博物馆&展馆,,否,https://dimg04.c-ctrip.com/images/fd/tg/g1/M06/FC/24/CghzflW7H_iATdynAAA-FlXAIeA738.jpg,https://you.ctrip.com/sight/yangqu2999/145215339.html?scene=onlinesearch,38.030386,112.63744
知识科普型,博物馆,145216079,中国商会博物馆-第二室,0.0,0,平遥古城内,平遥,平遥 · 平遥古城内,,,,博物馆&展馆,,否,https://dimg04.c-ctrip.com/images/fd/tg/g1/M06/FC/24/CghzflW7H_iATdynAAA-FlXAIeA738.jpg,https://you.ctrip.com/sight/pingyao365/145216079.html?scene=onlinesearch,37.212106,112.19214
知识科普型,博物馆,145235419,中国科举博物馆-第七展室,0.0,0,平遥古城内,平遥,平遥 · 平遥古城内,,,,,,否,https://dimg04.c-ctrip.com/images/fd/tg/g1/M06/FC/24/CghzflW7H_iATdynAAA-FlXAIeA738.jpg,https://you.ctrip.com/sight/pingyao365/145235419.html?scene=onlinesearch,37.20839,112.196614
知识科普型,博物馆,145235505,世纪音乐博物馆,0.0,0,万象城/博物馆,太原,太原 · 万象城/博物馆,,,,博物馆&展馆,,否,https://dimg04.c-ctrip.com/images/fd/tg/g1/M06/FC/24/CghzflW7H_iATdynAAA-FlXAIeA738.jpg,https://you.ctrip.com/sight/taiyuan167/145235505.html?scene=onlinesearch,37.813719,112.53743
知识科普型,博物馆,145239462,山西三晋老酒博物馆,0.0,0,山西博物院/太原新城吾悦广场,太原,太原 · 山西博物院/太原新城吾悦广场,,,,博物馆&展馆,,否,https://dimg04.c-ctrip.com/images/fd/tg/g1/M06/FC/24/CghzflW7H_iATdynAAA-FlXAIeA738.jpg,https://you.ctrip.com/sight/taiyuan167/145239462.html?scene=onlinesearch,37.852292,112.50605
知识科普型,博物馆,145255713,平遥玻璃画博物馆,0.0,0,平遥古城外,平遥,平遥 · 平遥古城外,,,,博物馆&展馆,,否,https://dimg04.c-ctrip.com/images/0HJ1412000g2xdob1A7D9.jpg,https://you.ctrip.com/sight/pingyao365/145255713.html?scene=onlinesearch,37.185412,112.186759
知识科普型,博物馆,145265264,太原方言博物馆,0.0,0,山西博物院/太原新城吾悦广场,太原,太原 · 山西博物院/太原新城吾悦广场,,,,博物馆&展馆,,否,https://dimg04.c-ctrip.com/images/fd/tg/g1/M06/FC/24/CghzflW7H_iATdynAAA-FlXAIeA738.jpg,https://you.ctrip.com/sight/taiyuan167/145265264.html?scene=onlinesearch,37.864845,112.517094
知识科普型,博物馆,145286939,山西平顺天脊山国家地质公园博物馆,0.0,0,,平顺,平顺,,,,博物馆&展馆,,否,https://dimg04.c-ctrip.com/images/fd/tg/g1/M06/FC/24/CghzflW7H_iATdynAAA-FlXAIeA738.jpg,https://you.ctrip.com/sight/pingshun1446132/145286939.html?scene=onlinesearch,36.215349,113.608241
知识科普型,博物馆,145289750,农耕文化博物馆,0.0,0,,晋中,晋中,,,,博物馆&展馆,,否,https://dimg04.c-ctrip.com/images/fd/tg/g1/M06/FC/24/CghzflW7H_iATdynAAA-FlXAIeA738.jpg,https://you.ctrip.com/sight/jinzhong639/145289750.html?scene=onlinesearch,37.764039,112.920451
知识科普型,博物馆,145303613,中国科举博物馆-第五展室,0.0,0,平遥古城内,平遥,平遥 · 平遥古城内,,,,,,否,https://dimg04.c-ctrip.com/images/fd/tg/g1/M06/FC/24/CghzflW7H_iATdynAAA-FlXAIeA738.jpg,https://you.ctrip.com/sight/pingyao365/145303613.html?scene=onlinesearch,37.208433,112.196309
知识科普型,博物馆,145308847,吕梁益民社区抗战博物馆,0.0,0,,吕梁,吕梁,,,,博物馆&展馆,,否,https://dimg04.c-ctrip.com/images/fd/tg/g1/M06/FC/24/CghzflW7H_iATdynAAA-FlXAIeA738.jpg,https://you.ctrip.com/sight/lvliang902/145308847.html?scene=onlinesearch,37.524493,111.144688
知识科普型,博物馆,145308901,晋中战役博物馆,0.0,0,,平遥,平遥,,,,博物馆&展馆,,否,https://dimg04.c-ctrip.com/images/fd/tg/g1/M06/FC/24/CghzflW7H_iATdynAAA-FlXAIeA738.jpg,https://you.ctrip.com/sight/pingyao365/145308901.html?scene=onlinesearch,37.069917,112.490682
知识科普型,博物馆,145319429,山西中医药大学-博物馆,0.0,0,山西大学城商圈,晋中,晋中 · 山西大学城商圈,,,,博物馆&展馆,,否,https://dimg04.c-ctrip.com/images/fd/tg/g1/M06/FC/24/CghzflW7H_iATdynAAA-FlXAIeA738.jpg,https://you.ctrip.com/sight/jinzhong639/145319429.html?scene=onlinesearch,37.750788,112.736424
知识科普型,博物馆,145324895,中国科举博物馆-第三展室,0.0,0,平遥古城内,平遥,平遥 · 平遥古城内,,,,,,否,https://dimg04.c-ctrip.com/images/fd/tg/g1/M06/FC/24/CghzflW7H_iATdynAAA-FlXAIeA738.jpg,https://you.ctrip.com/sight/pingyao365/145324895.html?scene=onlinesearch,37.20834,112.196282
知识科普型,博物馆,145348344,中国科举博物馆-第二展室,0.0,0,平遥古城内,平遥,平遥 · 平遥古城内,,,,博物馆&展馆,,否,https://dimg04.c-ctrip.com/images/fd/tg/g1/M06/FC/24/CghzflW7H_iATdynAAA-FlXAIeA738.jpg,https://you.ctrip.com/sight/pingyao365/145348344.html?scene=onlinesearch,37.208084,112.196307
知识科普型,博物馆,145362859,古森林遗址博物馆,0.0,0,,太原,太原,,,,博物馆&展馆,,否,https://dimg04.c-ctrip.com/images/fd/tg/g1/M06/FC/24/CghzflW7H_iATdynAAA-FlXAIeA738.jpg,https://you.ctrip.com/sight/taiyuan167/145362859.html?scene=onlinesearch,37.881259,112.72455
知识科普型,博物馆,145362915,太原城市规划博物馆,0.0,0,红灯笼体育场/晋阳湖,太原,太原 · 红灯笼体育场/晋阳湖,,,,博物馆&展馆,,否,https://dimg04.c-ctrip.com/images/fd/tg/g1/M06/FC/24/CghzflW7H_iATdynAAA-FlXAIeA738.jpg,https://you.ctrip.com/sight/taiyuan167/145362915.html?scene=onlinesearch,37.7903,112.520555
知识科普型,博物馆,145368822,旱塬农耕民俗博物院,0.0,0,,晋中,晋中,,,,,,否,https://dimg04.c-ctrip.com/images/0HJ6h12000g2w5fvh4978.jpg,https://you.ctrip.com/sight/jinzhong639/145368822.html?scene=onlinesearch,37.826757,112.864871
知识科普型,博物馆,145378017,云青博物馆,0.0,0,平遥古城外,平遥,平遥 · 平遥古城外,,,,博物馆&展馆,,否,https://dimg04.c-ctrip.com/images/fd/tg/g1/M06/FC/24/CghzflW7H_iATdynAAA-FlXAIeA738.jpg,https://you.ctrip.com/sight/pingyao365/145378017.html?scene=onlinesearch,37.198352,112.214815
知识科普型,博物馆,145392342,中国科举博物馆-第八展室,0.0,0,平遥古城内,平遥,平遥 · 平遥古城内,,,,,,否,https://dimg04.c-ctrip.com/images/fd/tg/g1/M06/FC/24/CghzflW7H_iATdynAAA-FlXAIeA738.jpg,https://you.ctrip.com/sight/pingyao365/145392342.html?scene=onlinesearch,37.208271,112.196487
知识科普型,博物馆,145402164,华北第一镖局博物馆-馆长室,0.0,0,平遥古城内,平遥,平遥 · 平遥古城内,,,,,,否,https://dimg04.c-ctrip.com/images/fd/tg/g1/M06/FC/24/CghzflW7H_iATdynAAA-FlXAIeA738.jpg,https://you.ctrip.com/sight/pingyao365/145402164.html?scene=onlinesearch,37.211902,112.192708
知识科普型,博物馆,145408325,中国科举博物馆-第九展室,0.0,0,平遥古城内,平遥,平遥 · 平遥古城内,,,,,,否,https://dimg04.c-ctrip.com/images/fd/tg/g1/M06/FC/24/CghzflW7H_iATdynAAA-FlXAIeA738.jpg,https://you.ctrip.com/sight/pingyao365/145408325.html?scene=onlinesearch,37.208042,112.196658
知识科普型,博物馆,145457472,中国科举博物馆-第六展室,0.0,0,平遥古城内,平遥,平遥 · 平遥古城内,,,,,,否,https://dimg04.c-ctrip.com/images/fd/tg/g1/M06/FC/24/CghzflW7H_iATdynAAA-FlXAIeA738.jpg,https://you.ctrip.com/sight/pingyao365/145457472.html?scene=onlinesearch,37.20844,112.1963
知识科普型,博物馆,145463552,华北第一镖局博物馆-总镖头房,0.0,0,平遥古城内,平遥,平遥 · 平遥古城内,,,,博物馆&展馆,,否,https://dimg04.c-ctrip.com/images/fd/tg/g1/M06/FC/24/CghzflW7H_iATdynAAA-FlXAIeA738.jpg,https://you.ctrip.com/sight/pingyao365/145463552.html?scene=onlinesearch,37.211575,112.19259
知识科普型,博物馆,145471740,中国商会博物馆(平遥商会旧址)-第一室,0.0,0,平遥古城内,平遥,平遥 · 平遥古城内,,,,博物馆&展馆,,否,https://dimg04.c-ctrip.com/images/fd/tg/g1/M06/FC/24/CghzflW7H_iATdynAAA-FlXAIeA738.jpg,https://you.ctrip.com/sight/pingyao365/145471740.html?scene=onlinesearch,37.21207,112.192149
知识科普型,博物馆,145540314,古代职官文化博物馆,0.0,0,,沁水,沁水,,,,博物馆&展馆,,否,https://dimg04.c-ctrip.com/images/fd/tg/g1/M06/FC/24/CghzflW7H_iATdynAAA-FlXAIeA738.jpg,https://you.ctrip.com/sight/qinshui2983/145540314.html?scene=onlinesearch,35.572627,112.600797
知识科普型,博物馆,145555731,山西百科教材课本博物馆,0.0,0,山西博物院/太原新城吾悦广场,太原,太原 · 山西博物院/太原新城吾悦广场,,,,博物馆&展馆,,否,https://dimg04.c-ctrip.com/images/fd/tg/g1/M06/FC/24/CghzflW7H_iATdynAAA-FlXAIeA738.jpg,https://you.ctrip.com/sight/taiyuan167/145555731.html?scene=onlinesearch,37.852285,112.506161
知识科普型,博物馆,145563008,繁峙县博物馆,0.0,0,,繁峙,繁峙,,,,博物馆&展馆,,否,https://dimg04.c-ctrip.com/images/fd/tg/g1/M06/FC/24/CghzflW7H_iATdynAAA-FlXAIeA738.jpg,https://you.ctrip.com/sight/fanshi2995/145563008.html?scene=onlinesearch,39.188672,113.283827
知识科普型,博物馆,145590970,华北第一镖局博物馆游廊,0.0,0,平遥古城内,平遥,平遥 · 平遥古城内,,,,,,否,https://dimg04.c-ctrip.com/images/fd/tg/g1/M06/FC/24/CghzflW7H_iATdynAAA-FlXAIeA738.jpg,https://you.ctrip.com/sight/pingyao365/145590970.html?scene=onlinesearch,37.211391,112.192692
知识科普型,博物馆,145599629,中国科举博物馆-第一展室,0.0,0,平遥古城内,平遥,平遥 · 平遥古城内,,,,博物馆&展馆,,否,https://dimg04.c-ctrip.com/images/fd/tg/g1/M06/FC/24/CghzflW7H_iATdynAAA-FlXAIeA738.jpg,https://you.ctrip.com/sight/pingyao365/145599629.html?scene=onlinesearch,37.208033,112.196333
知识科普型,博物馆,145609622,国华艺术博物馆,0.0,0,茂业天地/北美新天地时尚中心,太原,太原 · 茂业天地/北美新天地时尚中心,,,,博物馆&展馆,,否,https://dimg04.c-ctrip.com/images/fd/tg/g1/M06/FC/24/CghzflW7H_iATdynAAA-FlXAIeA738.jpg,https://you.ctrip.com/sight/taiyuan167/145609622.html?scene=onlinesearch,37.826828,112.567571
知识科普型,博物馆,145611244,中国科举博物馆-第四展室,0.0,0,平遥古城内,平遥,平遥 · 平遥古城内,,,,,,否,https://dimg04.c-ctrip.com/images/fd/tg/g1/M06/FC/24/CghzflW7H_iATdynAAA-FlXAIeA738.jpg,https://you.ctrip.com/sight/pingyao365/145611244.html?scene=onlinesearch,37.208361,112.196416
知识科普型,博物馆,145614684,临州博物馆,0.0,0,,临县,临县,,,,博物馆&展馆,,否,https://dimg04.c-ctrip.com/images/fd/tg/g1/M06/FC/24/CghzflW7H_iATdynAAA-FlXAIeA738.jpg,https://you.ctrip.com/sight/lincounty2998/145614684.html?scene=onlinesearch,37.975678,110.992143
知识科普型,博物馆,145630028,华北第一镖局博物馆-保卫室,0.0,0,平遥古城内,平遥,平遥 · 平遥古城内,,,,,,否,https://dimg04.c-ctrip.com/images/fd/tg/g1/M06/FC/24/CghzflW7H_iATdynAAA-FlXAIeA738.jpg,https://you.ctrip.com/sight/pingyao365/145630028.html?scene=onlinesearch,37.211827,112.192733
知识科普型,博物馆,145653906,临县民俗博物馆,0.0,0,,临县,临县,,,,博物馆&展馆,,否,https://dimg04.c-ctrip.com/images/fd/tg/g1/M06/FC/24/CghzflW7H_iATdynAAA-FlXAIeA738.jpg,https://you.ctrip.com/sight/lincounty2998/145653906.html?scene=onlinesearch,37.644977,110.808035
知识科普型,博物馆,145663606,吕梁市疾控中心病媒生物博物馆,0.0,0,,吕梁,吕梁,,,,博物馆&展馆,,否,https://dimg04.c-ctrip.com/images/fd/tg/g1/M06/FC/24/CghzflW7H_iATdynAAA-FlXAIeA738.jpg,https://you.ctrip.com/sight/lvliang902/145663606.html?scene=onlinesearch,37.53523,111.136399
知识科普型,博物馆,145719946,晋商家私博物馆师有承源,0.0,0,平遥古城内,平遥,平遥 · 平遥古城内,,,,博物馆&展馆,,否,https://dimg04.c-ctrip.com/images/fd/tg/g1/M06/FC/24/CghzflW7H_iATdynAAA-FlXAIeA738.jpg,https://you.ctrip.com/sight/pingyao365/145719946.html?scene=onlinesearch,37.208174,112.19188
知识科普型,博物馆,145899611,潮宠HOME·猫咪博物馆(万达广场店),0.0,0,红灯笼体育场/晋阳湖,太原,太原 · 红灯笼体育场/晋阳湖,,,,博物馆&展馆,,否,https://dimg04.c-ctrip.com/images/0102u1200086k28vc0A5C.jpg,https://you.ctrip.com/sight/taiyuan167/145899611.html?scene=onlinesearch,37.778977,112.547825
知识科普型,博物馆,148547303,和平藏酒博物馆,0.0,0,红灯笼体育场/晋阳湖,太原,太原 · 红灯笼体育场/晋阳湖,,,,博物馆&展馆,,否,https://dimg04.c-ctrip.com/images/0HJ2812000g32ysji12E4.jpg,https://you.ctrip.com/sight/taiyuan167/148547303.html?scene=onlinesearch,37.756632,112.525383
知识科普型,博物馆,148586186,银号博物馆,0.0,0,,祁县,祁县,,,,博物馆&展馆,,否,https://dimg04.c-ctrip.com/images/fd/tg/g1/M06/FC/24/CghzflW7H_iATdynAAA-FlXAIeA738.jpg,https://you.ctrip.com/sight/qicounty3039/148586186.html?scene=onlinesearch,37.363004,112.330205
知识科普型,博物馆,148613187,中国蜜蜂博物馆(山西馆),0.0,0,,沁水,沁水,,,,博物馆&展馆,,否,https://dimg04.c-ctrip.com/images/fd/tg/g1/M06/FC/24/CghzflW7H_iATdynAAA-FlXAIeA738.jpg,https://you.ctrip.com/sight/qinshui2983/148613187.html?scene=onlinesearch,35.704881,112.232007
知识科普型,博物馆,148782293,新荣区杂粮文化博物馆,0.0,0,,大同,大同,,,,博物馆&展馆,,否,https://dimg04.c-ctrip.com/images/fd/tg/g1/M06/FC/24/CghzflW7H_iATdynAAA-FlXAIeA738.jpg,https://you.ctrip.com/sight/datong275/148782293.html?scene=onlinesearch,40.257359,113.151096
知识科普型,博物馆,149962256,度量衡博物馆,0.0,0,,祁县,祁县,,,,博物馆&展馆,,否,https://dimg04.c-ctrip.com/images/fd/tg/g1/M06/FC/24/CghzflW7H_iATdynAAA-FlXAIeA738.jpg,https://you.ctrip.com/sight/qicounty3039/149962256.html?scene=onlinesearch,37.363241,112.333948
知识科普型,博物馆,149972831,恋爱博物馆(榆次店),0.0,0,万达广场商圈,晋中,晋中 · 万达广场商圈,,,,博物馆&展馆,,否,https://dimg04.c-ctrip.com/images/fd/tg/g1/M06/FC/24/CghzflW7H_iATdynAAA-FlXAIeA738.jpg,https://you.ctrip.com/sight/jinzhong639/149972831.html?scene=onlinesearch,37.724258,112.747303
知识科普型,博物馆,149983090,平遥县文涛坊古兵器博物馆-录像厅,0.0,0,平遥古城内,平遥,平遥 · 平遥古城内,,,,博物馆&展馆,,否,https://dimg04.c-ctrip.com/images/fd/tg/g1/M06/FC/24/CghzflW7H_iATdynAAA-FlXAIeA738.jpg,https://you.ctrip.com/sight/pingyao365/149983090.html?scene=onlinesearch,37.210237,112.182699
知识科普型,博物馆,149991865,平遥县文涛坊古兵器博物馆-综合展厅,0.0,0,平遥古城内,平遥,平遥 · 平遥古城内,,,,博物馆&展馆,,否,https://dimg04.c-ctrip.com/images/fd/tg/g1/M06/FC/24/CghzflW7H_iATdynAAA-FlXAIeA738.jpg,https://you.ctrip.com/sight/pingyao365/149991865.html?scene=onlinesearch,37.209784,112.182771
知识科普型,博物馆,149992404,平遥县文涛坊古兵器博物馆-非遗展厅,0.0,0,平遥古城内,平遥,平遥 · 平遥古城内,,,,博物馆&展馆,,否,https://dimg04.c-ctrip.com/images/fd/tg/g1/M06/FC/24/CghzflW7H_iATdynAAA-FlXAIeA738.jpg,https://you.ctrip.com/sight/pingyao365/149992404.html?scene=onlinesearch,37.210237,112.182708
知识科普型,博物馆,150132725,时光气球博物馆(时光颂店),0.0,0,,临汾,临汾,,,,博物馆&展馆,,否,https://dimg04.c-ctrip.com/images/fd/tg/g1/M06/FC/24/CghzflW7H_iATdynAAA-FlXAIeA738.jpg,https://you.ctrip.com/sight/linfen318/150132725.html?scene=onlinesearch,36.104047,111.512344
知识科普型,博物馆,150188078,万荣外加剂博物馆,0.0,0,,万荣,万荣,,,,博物馆&展馆,,否,https://dimg04.c-ctrip.com/images/fd/tg/g1/M06/FC/24/CghzflW7H_iATdynAAA-FlXAIeA738.jpg,https://you.ctrip.com/sight/wanrong1446130/150188078.html?scene=onlinesearch,35.429779,110.818464
知识科普型,博物馆,150295688,昆虫博物馆,0.0,0,,阳曲,阳曲,,,,博物馆&展馆,,否,https://dimg04.c-ctrip.com/images/0106v12000nunv4jyE086.jpg,https://you.ctrip.com/sight/yangqu2999/150295688.html?scene=onlinesearch,38.111486,112.751586
知识科普型,博物馆,151250499,古灯博物馆,0.0,0,太原古县城/晋祠,太原,太原 · 太原古县城/晋祠,,,,,,否,https://dimg04.c-ctrip.com/images/fd/tg/g1/M06/FC/24/CghzflW7H_iATdynAAA-FlXAIeA738.jpg,https://you.ctrip.com/sight/taiyuan167/151250499.html?scene=onlinesearch,37.735786,112.493005
知识科普型,博物馆,151332197,太原蜜蜂博物馆,0.0,0,,阳曲,阳曲,,,,博物馆&展馆,,否,https://dimg04.c-ctrip.com/images/fd/tg/g1/M06/FC/24/CghzflW7H_iATdynAAA-FlXAIeA738.jpg,https://you.ctrip.com/sight/yangqu2999/151332197.html?scene=onlinesearch,38.054968,112.77534
知识科普型,博物馆,152791535,朱砂博物馆,0.0,0,,交城,交城,,,,博物馆&展馆,,否,https://dimg04.c-ctrip.com/images/fd/tg/g1/M06/FC/24/CghzflW7H_iATdynAAA-FlXAIeA738.jpg,https://you.ctrip.com/sight/jiaocheng3033/152791535.html?scene=onlinesearch,37.557804,112.166454
知识科普型,博物馆,152801242,北大寺村民俗博物馆,0.0,0,太原古县城/晋祠,太原,太原 · 太原古县城/晋祠,,,,博物馆&展馆,,否,https://dimg04.c-ctrip.com/images/0103p12000nus5yif598C.jpg,https://you.ctrip.com/sight/taiyuan167/152801242.html?scene=onlinesearch,37.712132,112.461031
知识科普型,博物馆,152802048,琼琚山房古代玉文化博物馆,0.0,0,,太原,太原,,,,博物馆&展馆,,否,https://dimg04.c-ctrip.com/images/fd/tg/g1/M06/FC/24/CghzflW7H_iATdynAAA-FlXAIeA738.jpg,https://you.ctrip.com/sight/taiyuan167/152802048.html?scene=onlinesearch,37.868742,112.701011
知识科普型,博物馆,153127675,霍州窑址博物馆,0.0,0,,霍州,霍州,,,,,,否,https://dimg04.c-ctrip.com/images/fd/tg/g1/M06/FC/24/CghzflW7H_iATdynAAA-FlXAIeA738.jpg,https://you.ctrip.com/sight/huozhou3029/153127675.html?scene=onlinesearch,36.536873,111.694705
知识科普型,博物馆,153134351,平定县文化中心博物馆,0.0,0,,平定,平定,,,,,,否,https://dimg04.c-ctrip.com/images/fd/tg/g1/M06/FC/24/CghzflW7H_iATdynAAA-FlXAIeA738.jpg,https://you.ctrip.com/sight/pingding2057/153134351.html?scene=onlinesearch,37.813384,113.61837
知识科普型,博物馆,153142442,山西铁路建设博物馆,0.0,0,柳巷/钟楼街,太原,太原 · 柳巷/钟楼街,,,,,,否,https://dimg04.c-ctrip.com/images/fd/tg/g1/M06/FC/24/CghzflW7H_iATdynAAA-FlXAIeA738.jpg,https://you.ctrip.com/sight/taiyuan167/153142442.html?scene=onlinesearch,37.883843,112.583815
知识科普型,科技馆,13412897,海洋迪士尼科技馆,4.0,12,王家大院,灵石,灵石 · 王家大院,,,先进的多功能现代化展览馆,"遛娃宝藏地, 科技馆",,否,https://dimg04.c-ctrip.com/images/0HJ2y12000g2zip5k36CD.jpg,https://you.ctrip.com/sight/lingshi3011/1412280.html?scene=onlinesearch,36.913274,111.88021
